%time,field.header.seq,field.header.stamp,field.time_stamp,field.left_encoder,field.right_encoder,field.left_pwm,field.right_pwm
1.52847227601647E+018,77,1.52847227601612E+018,61664,0,0,0,0
1.52847227607536E+018,78,1.52847227607446E+018,61724,0,0,0,0
1.52847227609765E+018,79,1.52847227609721E+018,61744,0,0,0,0
1.52847227615667E+018,80,1.52847227615628E+018,61804,0,0,0,0
1.5284722762163E+018,81,1.52847227621596E+018,61864,0,0,0,0
1.52847227627528E+018,82,1.52847227627428E+018,61924,0,0,0,0
1.52847227629648E+018,83,1.52847227629606E+018,61944,0,0,0,0
1.52847227635427E+018,84,1.52847227635395E+018,62004,0,0,0,0
1.52847227637652E+018,85,1.52847227637603E+018,62024,0,0,0,0
1.52847227643641E+018,86,1.52847227643602E+018,62084,0,0,0,0
1.52847227649645E+018,87,1.52847227649603E+018,62144,0,0,0,0
1.52847227655631E+018,88,1.52847227655591E+018,62204,0,0,0,0
1.52847227661407E+018,89,1.52847227661377E+018,62264,0,0,0,0
1.52847227663634E+018,90,1.52847227663592E+018,62284,0,0,0,0
1.52847227669504E+018,91,1.52847227669472E+018,62344,0,0,0,0
1.528472276716E+018,92,1.52847227671569E+018,62364,0,0,0,0
1.52847227677604E+018,93,1.52847227677573E+018,62424,0,0,0,0
1.52847227683506E+018,94,1.52847227683473E+018,62484,0,0,0,0
1.52847227689306E+018,95,1.52847227689271E+018,62544,0,0,0,0
1.52847227691505E+018,96,1.52847227691474E+018,62564,0,0,0,0
1.52847227697488E+018,97,1.52847227697458E+018,62624,0,0,0,0
1.52847227703306E+018,98,1.52847227703271E+018,62684,0,0,0,0
1.52847227705488E+018,99,1.52847227705457E+018,62704,0,0,0,0
1.52847227711282E+018,100,1.5284722771125E+018,62764,0,0,0,0
1.52847227713502E+018,101,1.52847227713464E+018,62784,0,0,0,0
1.52847227719484E+018,102,1.52847227719445E+018,62844,0,0,0,0
1.52847227725285E+018,103,1.52847227725244E+018,62904,0,0,0,0
1.52847227727503E+018,104,1.52847227727461E+018,62924,0,0,0,0
1.52847227733376E+018,105,1.52847227733347E+018,62984,0,0,0,0
1.52847227735475E+018,106,1.52847227735441E+018,63004,0,0,0,0
1.52847227741478E+018,107,1.5284722774144E+018,63064,0,0,0,0
1.52847227747465E+018,108,1.52847227747435E+018,63124,0,0,0,0
1.52847227753377E+018,109,1.52847227753338E+018,63184,0,0,0,0
1.52847227759414E+018,110,1.52847227759345E+018,63244,0,0,0,0
1.5284722776518E+018,111,1.5284722776514E+018,63304,0,0,0,0
1.52847227767407E+018,112,1.52847227767363E+018,63324,0,0,0,0
1.52847227773368E+018,113,1.52847227773335E+018,63384,0,0,0,0
1.52847227779375E+018,114,1.5284722777934E+018,63444,0,0,0,0
1.52847227785361E+018,115,1.52847227785327E+018,63504,0,0,0,0
1.52847227791383E+018,116,1.52847227791351E+018,63564,0,0,0,0
1.52847227797269E+018,117,1.52847227797234E+018,63624,0,0,0,0
1.5284722779945E+018,118,1.52847227799362E+018,63644,0,0,0,0
1.52847227805251E+018,119,1.52847227805214E+018,63704,0,0,0,0
1.52847227811042E+018,120,1.52847227811009E+018,63764,0,0,0,0
1.52847227813365E+018,121,1.52847227813326E+018,63784,0,0,0,0
1.52847227819334E+018,122,1.52847227819254E+018,63844,0,0,0,0
1.52847227825272E+018,123,1.52847227825227E+018,63904,0,0,0,0
1.52847227831038E+018,124,1.52847227831006E+018,63964,0,0,0,0
1.52847227833228E+018,125,1.52847227833198E+018,63984,0,0,0,0
1.52847227839034E+018,126,1.52847227838999E+018,64044,0,0,0,0
1.52847227841228E+018,127,1.52847227841198E+018,64064,0,0,0,0
1.5284722784723E+018,128,1.52847227847197E+018,64124,0,0,0,0
1.5284722785303E+018,129,1.52847227852994E+018,64184,0,0,0,0
1.52847227855227E+018,130,1.52847227855199E+018,64204,0,0,0,0
1.52847227861128E+018,131,1.52847227861096E+018,64264,0,0,0,0
1.52847227863242E+018,132,1.52847227863206E+018,64284,0,0,0,0
1.5284722786913E+018,133,1.52847227869099E+018,64344,0,0,0,0
1.5284722787513E+018,134,1.52847227875099E+018,64404,0,0,0,0
1.52847227880924E+018,135,1.52847227880893E+018,64464,0,0,0,0
1.52847227883123E+018,136,1.52847227883094E+018,64484,0,0,0,0
1.52847227889121E+018,137,1.52847227889089E+018,64544,0,0,0,0
1.52847227895112E+018,138,1.52847227895081E+018,64604,0,0,0,0
1.52847227901134E+018,139,1.52847227901098E+018,64664,0,0,0,0
1.52847227907121E+018,140,1.52847227907085E+018,64724,0,0,0,0
1.52847227913012E+018,141,1.52847227912979E+018,64784,0,0,0,0
1.52847227915101E+018,142,1.52847227915073E+018,64804,0,0,0,0
1.52847227921015E+018,143,1.52847227920973E+018,64864,0,0,0,0
1.52847227926839E+018,144,1.528472279268E+018,64924,0,0,0,0
1.52847227929157E+018,145,1.52847227929085E+018,64944,0,0,0,0
1.52847227935002E+018,146,1.5284722793497E+018,65004,0,0,0,0
1.52847227940808E+018,147,1.52847227940771E+018,65064,0,0,0,0
1.5284722794299E+018,148,1.52847227942961E+018,65084,0,0,0,0
1.52847227949002E+018,149,1.52847227948964E+018,65144,0,0,0,0
1.52847227954788E+018,150,1.52847227954755E+018,65204,0,0,0,0
1.52847227956998E+018,151,1.52847227956963E+018,65224,0,0,0,0
1.52847227962987E+018,152,1.52847227962952E+018,65284,0,0,0,0
1.52847227969003E+018,153,1.52847227968962E+018,65344,0,0,0,0
1.52847227974897E+018,154,1.52847227974856E+018,65404,0,0,0,0
1.52847227977062E+018,155,1.52847227977028E+018,65424,0,0,0,0
1.52847227982981E+018,156,1.5284722798295E+018,65484,0,0,0,0
1.52847227988883E+018,157,1.52847227988841E+018,8,0,0,0,0
1.52847227990967E+018,158,1.52847227990935E+018,28,0,0,0,0
1.52847227996878E+018,159,1.52847227996839E+018,88,0,0,0,0
1.52847228002877E+018,160,1.52847228002841E+018,148,0,0,0,0
1.52847228008676E+018,161,1.52847228008641E+018,208,0,0,0,0
1.52847228010887E+018,162,1.52847228010848E+018,228,0,0,0,0
1.52847228016854E+018,163,1.52847228016825E+018,288,0,0,0,0
1.52847228022862E+018,164,1.52847228022827E+018,348,0,0,0,0
1.52847228028856E+018,165,1.52847228028824E+018,408,0,0,0,0
1.52847228034769E+018,166,1.52847228034734E+018,468,0,0,0,0
1.52847228044857E+018,167,1.52847228044828E+018,568,0,0,0,0
1.52847228050756E+018,168,1.52847228050725E+018,628,0,0,0,0
1.52847228056548E+018,169,1.52847228056519E+018,688,0,0,0,0
1.5284722805878E+018,170,1.52847228058741E+018,708,0,0,0,0
1.5284722806474E+018,171,1.52847228064713E+018,768,0,0,0,0
1.52847228070554E+018,172,1.52847228070514E+018,828,0,0,0,0
1.52847228072753E+018,173,1.52847228072719E+018,848,0,0,0,0
1.52847228078744E+018,174,1.52847228078712E+018,908,0,0,0,0
1.52847228084775E+018,175,1.52847228084734E+018,968,0,0,0,0
1.52847228090725E+018,176,1.52847228090691E+018,1028,0,0,0,0
1.52847228096737E+018,177,1.52847228096699E+018,1088,0,0,0,0
1.52847228102628E+018,178,1.52847228102598E+018,1148,0,0,0,0
1.52847228104723E+018,179,1.52847228104693E+018,1168,0,0,0,0
1.52847228106891E+018,180,1.52847228106828E+018,1188,0,0,0,0
1.52847228110743E+018,181,1.52847228110706E+018,1228,0,0,0,0
1.52847228116636E+018,182,1.528472281166E+018,1288,0,0,0,0
1.52847228122432E+018,183,1.52847228122394E+018,1348,0,0,0,0
1.52847228124622E+018,184,1.52847228124588E+018,1368,0,0,0,0
1.52847228130639E+018,185,1.52847228130603E+018,1428,0,0,0,0
1.52847228136625E+018,186,1.5284722813659E+018,1488,0,0,0,0
1.52847228142607E+018,187,1.52847228142576E+018,1548,0,0,0,0
1.5284722814864E+018,188,1.52847228148588E+018,1608,0,0,0,0
1.52847228154611E+018,189,1.52847228154579E+018,1668,0,0,0,0
1.52847228160615E+018,190,1.5284722816058E+018,1728,0,0,0,0
1.5284722816651E+018,191,1.52847228166476E+018,1788,0,0,0,0
1.52847228168624E+018,192,1.5284722816858E+018,1808,0,0,0,0
1.52847228174498E+018,193,1.52847228174466E+018,1868,0,0,0,0
1.52847228180519E+018,194,1.52847228180478E+018,1928,0,0,0,0
1.52847228186294E+018,195,1.52847228186258E+018,1988,0,0,0,0
1.52847228188493E+018,196,1.52847228188458E+018,2008,0,0,0,0
1.52847228194521E+018,197,1.52847228194482E+018,2068,0,0,0,0
1.52847228200484E+018,198,1.52847228200448E+018,2128,0,0,0,0
1.52847228206497E+018,199,1.52847228206451E+018,2188,0,0,0,0
1.5284722820859E+018,200,1.52847228208548E+018,2208,0,0,0,0
1.52847228212479E+018,201,1.52847228212451E+018,2248,0,0,0,0
1.52847228218393E+018,202,1.52847228218349E+018,2308,0,0,0,0
1.52847228220464E+018,203,1.52847228220432E+018,2328,0,0,0,0
1.52847228226367E+018,204,1.52847228226336E+018,2388,0,0,0,0
1.52847228232168E+018,205,1.52847228232133E+018,2448,0,0,0,0
1.52847228234468E+018,206,1.52847228234432E+018,2468,0,0,0,0
1.52847228240366E+018,207,1.52847228240333E+018,2528,0,0,0,0
1.52847228246368E+018,208,1.52847228246338E+018,2588,0,0,0,0
1.52847228252165E+018,209,1.5284722825213E+018,2648,0,0,0,0
1.52847228254377E+018,210,1.52847228254341E+018,2668,0,0,0,0
1.52847228260149E+018,211,1.52847228260118E+018,2728,0,0,0,0
1.52847228262351E+018,212,1.52847228262323E+018,2748,0,0,0,0
1.5284722826842E+018,213,1.52847228268346E+018,2808,0,0,0,0
1.52847228274353E+018,214,1.52847228274323E+018,2868,0,0,0,0
1.52847228280264E+018,215,1.52847228280227E+018,2928,0,0,0,0
1.52847228286051E+018,216,1.5284722828602E+018,2988,0,0,0,0
1.52847228288429E+018,217,1.52847228288373E+018,3008,0,0,0,0
1.52847228294248E+018,218,1.52847228294209E+018,3068,0,0,0,0
1.52847228300042E+018,219,1.52847228300007E+018,3128,0,0,0,0
1.52847228302259E+018,220,1.52847228302222E+018,3148,0,0,0,0
1.5284722830825E+018,221,1.52847228308213E+018,3208,0,0,0,0
1.5284722831404E+018,222,1.52847228314009E+018,3268,0,0,0,0
1.52847228316269E+018,223,1.52847228316227E+018,3288,0,0,0,0
1.5284722832224E+018,224,1.52847228322201E+018,3348,0,0,0,0
1.52847228328272E+018,225,1.52847228328225E+018,3408,0,0,0,0
1.5284722833423E+018,226,1.528472283342E+018,3468,0,0,0,0
1.52847228340246E+018,227,1.5284722834021E+018,3528,0,0,0,0
1.52847228346125E+018,228,1.52847228346094E+018,3588,0,0,0,0
1.52847228348222E+018,229,1.5284722834819E+018,3608,0,0,0,0
1.52847228354145E+018,230,1.52847228354111E+018,3668,0,0,0,0
1.5284722836013E+018,231,1.52847228360099E+018,3728,0,0,0,0
1.52847228365941E+018,232,1.52847228365901E+018,3788,0,0,0,0
1.52847228368118E+018,233,1.52847228368087E+018,3808,0,0,0,0
1.52847228374116E+018,234,1.52847228374084E+018,3868,0,0,0,0
1.5284722838012E+018,235,1.52847228380086E+018,3928,0,0,0,0
1.52847228386127E+018,236,1.52847228386089E+018,3988,0,0,0,0
1.52847228392128E+018,237,1.52847228392084E+018,4048,0,0,0,0
1.52847228398109E+018,238,1.52847228398078E+018,4108,0,0,0,0
1.52847228404114E+018,239,1.52847228404081E+018,4168,0,0,0,0
1.5284722840999E+018,240,1.5284722840996E+018,4228,0,0,0,0
1.52847228412096E+018,241,1.52847228412063E+018,4248,0,0,0,0
1.52847228418001E+018,242,1.52847228417965E+018,4308,0,0,0,0
1.52847228423786E+018,243,1.52847228423755E+018,4368,0,0,0,0
1.52847228426097E+018,244,1.52847228426063E+018,4388,0,0,0,0
1.52847228431993E+018,245,1.52847228431961E+018,4448,0,0,0,0
1.52847228438024E+018,246,1.52847228437984E+018,4508,0,0,0,0
1.52847228443982E+018,247,1.52847228443949E+018,4568,0,0,0,0
1.52847228449994E+018,248,1.52847228449957E+018,4628,0,0,0,0
1.52847228455987E+018,249,1.52847228455952E+018,4688,0,0,0,0
1.52847228461988E+018,250,1.52847228461952E+018,4748,0,0,0,0
1.52847228467988E+018,251,1.52847228467953E+018,4808,0,0,0,0
1.52847228473877E+018,252,1.52847228473849E+018,4868,0,0,0,0
1.52847228479684E+018,253,1.52847228479649E+018,4928,0,0,0,0
1.5284722848187E+018,254,1.52847228481837E+018,4948,0,0,0,0
1.52847228487874E+018,255,1.52847228487841E+018,5008,0,0,0,0
1.5284722849367E+018,256,1.52847228493632E+018,5068,0,0,0,0
1.52847228495869E+018,257,1.52847228495835E+018,5088,0,0,0,0
1.52847228501674E+018,258,1.52847228501636E+018,5148,0,0,0,0
1.52847228503869E+018,259,1.52847228503838E+018,5168,0,0,0,0
1.52847228509868E+018,260,1.52847228509835E+018,5228,0,0,0,0
1.52847228515655E+018,261,1.52847228515622E+018,5288,0,0,0,0
1.52847228517861E+018,262,1.52847228517832E+018,5308,0,0,0,0
1.52847228523753E+018,263,1.52847228523723E+018,5368,0,0,0,0
1.52847228525873E+018,264,1.52847228525836E+018,5388,0,0,0,0
1.52847228531843E+018,265,1.52847228531811E+018,5448,0,0,0,0
1.52847228537755E+018,266,1.52847228537718E+018,5508,0,0,0,0
1.52847228539839E+018,267,1.52847228539806E+018,5528,0,0,0,0
1.52847228545741E+018,268,1.5284722854571E+018,5588,0,0,0,0
1.52847228551746E+018,269,1.52847228551713E+018,5648,0,0,0,0
1.52847228557543E+018,270,1.52847228557508E+018,5708,0,0,0,0
1.52847228559763E+018,271,1.52847228559725E+018,5728,0,0,0,0
1.52847228565548E+018,272,1.52847228565507E+018,5788,0,0,0,0
1.5284722856773E+018,273,1.528472285677E+018,5808,0,0,0,0
1.52847228573743E+018,274,1.52847228573707E+018,5868,0,0,0,0
1.52847228579526E+018,275,1.52847228579493E+018,5928,0,0,0,0
1.52847228581731E+018,276,1.52847228581701E+018,5948,0,0,0,0
1.52847228587629E+018,277,1.52847228587599E+018,6008,0,0,0,0
1.5284722858973E+018,278,1.52847228589697E+018,6028,0,0,0,0
1.52847228595731E+018,279,1.52847228595698E+018,6088,0,0,0,0
1.52847228601632E+018,280,1.528472286016E+018,6148,0,0,0,0
1.52847228607418E+018,281,1.52847228607384E+018,6208,0,0,0,0
1.52847228609641E+018,282,1.52847228609604E+018,6228,0,0,0,0
1.52847228615627E+018,283,1.52847228615592E+018,6288,0,0,0,0
1.52847228621422E+018,284,1.52847228621382E+018,6348,0,0,0,0
1.52847228623622E+018,285,1.52847228623585E+018,6368,0,0,0,0
1.52847228629406E+018,286,1.52847228629372E+018,6428,0,0,0,0
1.52847228631593E+018,287,1.52847228631561E+018,6448,0,0,0,0
1.52847228637603E+018,288,1.52847228637565E+018,6508,0,0,0,0
1.52847228643388E+018,289,1.52847228643358E+018,6568,0,0,0,0
1.52847228645622E+018,290,1.52847228645585E+018,6588,0,0,0,0
1.52847228651479E+018,291,1.52847228651449E+018,6648,0,0,0,0
1.52847228653581E+018,292,1.52847228653551E+018,6668,0,0,0,0
1.52847228659593E+018,293,1.52847228659559E+018,6728,0,0,0,0
1.52847228665493E+018,294,1.5284722866545E+018,6788,0,0,0,0
1.52847228671301E+018,295,1.52847228671254E+018,6848,0,0,0,0
1.52847228673497E+018,296,1.52847228673459E+018,6868,0,0,0,0
1.52847228679477E+018,297,1.52847228679442E+018,6928,0,0,0,0
1.52847228685284E+018,298,1.52847228685243E+018,6988,0,0,0,0
1.52847228687464E+018,299,1.52847228687435E+018,7008,0,0,0,0
1.52847228693263E+018,300,1.52847228693231E+018,7068,0,0,0,0
1.52847228695472E+018,301,1.52847228695437E+018,7088,0,0,0,0
1.52847228701456E+018,302,1.52847228701424E+018,7148,0,0,0,0
1.52847228707268E+018,303,1.52847228707227E+018,7208,0,0,0,0
1.52847228709484E+018,304,1.52847228709441E+018,7228,0,0,0,0
1.52847228715355E+018,305,1.52847228715324E+018,7288,0,0,0,0
1.52847228717455E+018,306,1.52847228717424E+018,7308,0,0,0,0
1.52847228723454E+018,307,1.52847228723417E+018,7368,0,0,0,0
1.52847228729339E+018,308,1.52847228729311E+018,7428,0,0,0,0
1.52847228731459E+018,309,1.52847228731422E+018,7448,0,0,0,0
1.52847228737349E+018,310,1.52847228737314E+018,7508,0,0,0,0
1.52847228743339E+018,311,1.52847228743309E+018,7568,0,0,0,0
1.52847228749148E+018,312,1.5284722874911E+018,7628,0,0,0,0
1.52847228751341E+018,313,1.52847228751312E+018,7648,0,0,0,0
1.52847228757125E+018,314,1.52847228757097E+018,7708,0,0,0,0
1.52847228759339E+018,315,1.52847228759305E+018,7728,0,0,0,0
1.52847228765334E+018,316,1.52847228765302E+018,7788,0,0,0,0
1.52847228771144E+018,317,1.52847228771109E+018,7848,0,0,0,0
1.52847228773332E+018,318,1.52847228773302E+018,7868,0,0,0,0
1.52847228779325E+018,319,1.528472287793E+018,7928,0,0,0,0
1.52847228785332E+018,320,1.52847228785292E+018,7988,0,0,0,0
1.5284722879122E+018,321,1.52847228791188E+018,8048,0,0,18,18
1.52847228797019E+018,322,1.52847228796984E+018,8108,0,0,18,18
1.52847228799215E+018,323,1.52847228799179E+018,8128,2,2,17,17
1.5284722880521E+018,324,1.52847228805179E+018,8188,28,26,6,7
1.52847228810996E+018,325,1.52847228810968E+018,8248,41,41,12,11
1.528472288132E+018,326,1.52847228813174E+018,8268,47,46,12,11
1.52847228819222E+018,327,1.52847228819186E+018,8328,66,64,9,10
1.52847228825217E+018,328,1.52847228825177E+018,8388,91,86,7,8
1.52847228831222E+018,329,1.5284722883118E+018,8448,112,105,9,10
1.52847228837219E+018,330,1.52847228837182E+018,8508,132,125,9,9
1.52847228843221E+018,331,1.5284722884318E+018,8568,151,145,10,9
1.52847228849203E+018,332,1.52847228849166E+018,8628,172,166,9,9
1.52847228855107E+018,333,1.52847228855066E+018,8688,192,186,9,9
1.52847228860877E+018,334,1.52847228860846E+018,8748,217,208,7,9
1.52847228863086E+018,335,1.52847228863054E+018,8768,224,215,8,9
1.52847228868886E+018,336,1.52847228868847E+018,8828,244,237,10,9
1.52847228871083E+018,337,1.52847228871054E+018,8848,251,245,9,8
1.52847228876878E+018,338,1.52847228876847E+018,8908,272,265,9,10
1.52847228879112E+018,339,1.52847228879067E+018,8928,279,273,9,9
1.52847228884888E+018,340,1.52847228884847E+018,8988,302,295,8,9
1.52847228887069E+018,341,1.52847228887038E+018,9008,310,303,8,9
1.52847228893092E+018,342,1.52847228893055E+018,9068,333,324,8,9
1.52847228898864E+018,343,1.52847228898831E+018,9128,355,348,9,8
1.52847228901061E+018,344,1.52847228901035E+018,9148,362,355,9,9
1.52847228903213E+018,345,1.52847228903168E+018,9168,370,362,9,9
1.52847228906967E+018,346,1.52847228906931E+018,9208,385,377,9,9
1.52847228909056E+018,347,1.52847228909024E+018,9228,392,385,9,9
1.52847228914961E+018,348,1.5284722891493E+018,9288,415,408,9,9
1.52847228920754E+018,349,1.52847228920721E+018,9348,438,430,9,9
1.52847228922957E+018,350,1.52847228922925E+018,9368,445,437,9,9
1.52847228928778E+018,351,1.52847228928737E+018,9428,467,461,9,8
1.52847228930976E+018,352,1.52847228930935E+018,9448,474,468,10,9
1.52847228936738E+018,353,1.5284722893671E+018,9508,498,492,8,8
1.5284722893896E+018,354,1.52847228938929E+018,9528,506,499,8,9
1.52847228944952E+018,355,1.52847228944918E+018,9588,531,522,8,9
1.52847228950948E+018,356,1.52847228950915E+018,9648,554,546,9,9
1.52847228956936E+018,357,1.52847228956902E+018,9708,577,570,9,9
1.52847228962723E+018,358,1.52847228962694E+018,9768,601,593,9,9
1.52847228964957E+018,359,1.52847228964916E+018,9788,609,601,9,9
1.52847228970937E+018,360,1.52847228970905E+018,9848,633,624,9,9
1.52847228977007E+018,361,1.52847228976917E+018,9908,657,648,9,9
1.5284722898282E+018,362,1.5284722898279E+018,9968,680,672,9,9
1.5284722898862E+018,363,1.52847228988585E+018,10028,703,695,9,10
1.52847228990834E+018,364,1.528472289908E+018,10048,711,704,10,9
1.5284722899662E+018,365,1.52847228996587E+018,10108,720,742,1,16
1.5284722899882E+018,366,1.52847228998779E+018,10128,724,752,2,17
1.52847229004612E+018,367,1.52847229004573E+018,10188,741,784,-2,19
1.52847229006817E+018,368,1.52847229006781E+018,10208,747,795,-2,20
1.528472290126E+018,369,1.52847229012571E+018,10268,761,829,-1,19
1.5284722901483E+018,370,1.52847229014792E+018,10288,765,843,0,18
1.52847229020798E+018,371,1.52847229020767E+018,10348,769,878,3,18
1.5284722902658E+018,372,1.52847229026554E+018,10408,773,913,3,19
1.52847229028807E+018,373,1.52847229028768E+018,10428,775,924,3,19
1.528472290348E+018,374,1.52847229034762E+018,10488,782,958,2,19
1.52847229040819E+018,375,1.52847229040777E+018,10548,789,993,2,19
1.52847229046689E+018,376,1.52847229046652E+018,10608,791,1031,4,18
1.52847229048772E+018,377,1.52847229048745E+018,10628,792,1044,4,18
1.52847229054704E+018,378,1.5284722905466E+018,10688,794,1084,4,17
1.52847229060482E+018,379,1.52847229060444E+018,10748,796,1121,4,18
1.5284722906268E+018,380,1.52847229062652E+018,10768,799,1134,3,18
1.52847229068481E+018,381,1.52847229068447E+018,10828,803,1173,3,18
1.52847229070673E+018,382,1.5284722907064E+018,10848,805,1184,3,18
1.52847229072796E+018,383,1.52847229072752E+018,10868,807,1196,3,19
1.52847229076475E+018,384,1.52847229076438E+018,10908,812,1222,2,18
1.52847229078668E+018,385,1.52847229078639E+018,10928,815,1235,1,18
1.52847229084651E+018,386,1.5284722908463E+018,10988,826,1273,0,18
1.52847229090679E+018,387,1.52847229090644E+018,11048,838,1310,0,19
1.52847229096661E+018,388,1.52847229096629E+018,11108,849,1348,0,19
1.52847229102457E+018,389,1.52847229102427E+018,11168,860,1387,0,18
1.52847229104645E+018,390,1.52847229104615E+018,11188,863,1399,0,19
1.52847229110538E+018,391,1.52847229110509E+018,11248,869,1437,2,19
1.52847229112663E+018,392,1.52847229112624E+018,11268,871,1450,2,19
1.52847229118556E+018,393,1.52847229118519E+018,11328,873,1489,4,19
1.52847229124366E+018,394,1.52847229124326E+018,11388,877,1527,3,19
1.52847229126558E+018,395,1.5284722912652E+018,11408,877,1540,4,19
1.52847229132342E+018,396,1.52847229132308E+018,11468,881,1579,3,19
1.5284722913454E+018,397,1.52847229134511E+018,11488,884,1593,3,19
1.52847229140333E+018,398,1.52847229140296E+018,11548,887,1631,4,20
1.52847229142535E+018,399,1.52847229142503E+018,11568,888,1644,4,20
1.5284722914854E+018,400,1.52847229148501E+018,11628,891,1683,4,19
1.52847229154533E+018,401,1.528472291545E+018,11688,895,1723,3,19
1.52847229160528E+018,402,1.528472291605E+018,11748,897,1761,4,20
1.52847229162679E+018,403,1.52847229162625E+018,11768,898,1775,4,19
1.52847229166331E+018,404,1.52847229166298E+018,11808,901,1803,3,18
1.52847229168528E+018,405,1.52847229168495E+018,11828,902,1816,3,19
1.52847229174423E+018,406,1.52847229174391E+018,11888,905,1858,4,18
1.52847229180219E+018,407,1.52847229180184E+018,11948,909,1898,3,20
1.52847229182522E+018,408,1.52847229182489E+018,11968,911,1914,2,18
1.52847229188427E+018,409,1.52847229188395E+018,12028,920,1952,1,21
1.52847229194216E+018,410,1.52847229194184E+018,12088,929,1992,1,20
1.52847229196404E+018,411,1.52847229196373E+018,12108,933,2006,0,20
1.52847229202416E+018,412,1.52847229202378E+018,12168,946,2051,0,18
1.52847229208403E+018,413,1.52847229208374E+018,12228,956,2091,0,20
1.52847229214413E+018,414,1.52847229214378E+018,12288,966,2135,0,18
1.52847229220399E+018,415,1.52847229220365E+018,12348,975,2177,1,19
1.52847229226405E+018,416,1.52847229226368E+018,12408,980,2219,3,19
1.52847229232395E+018,417,1.52847229232364E+018,12468,982,2263,4,19
1.528472292383E+018,418,1.52847229238262E+018,12528,985,2305,4,20
1.52847229244077E+018,419,1.52847229244045E+018,12588,989,2346,3,20
1.52847229246287E+018,420,1.52847229246255E+018,12608,992,2361,2,20
1.52847229252081E+018,421,1.52847229252047E+018,12668,994,2401,4,21
1.52847229254289E+018,422,1.52847229254256E+018,12688,996,2415,4,21
1.52847229260091E+018,423,1.52847229260051E+018,12748,1000,2460,3,19
1.52847229262277E+018,424,1.52847229262246E+018,12768,1001,2474,3,19
1.52847229268062E+018,425,1.52847229268034E+018,12828,1003,2517,4,20
1.52847229270262E+018,426,1.52847229270235E+018,12848,1004,2532,4,19
1.52847229276264E+018,427,1.52847229276229E+018,12908,1008,2576,3,19
1.52847229282266E+018,428,1.52847229282235E+018,12968,1011,2620,4,19
1.52847229288266E+018,429,1.52847229288231E+018,13028,1014,2663,4,20
1.5284722929405E+018,430,1.5284722929402E+018,13088,1019,2708,3,19
1.52847229296282E+018,431,1.52847229296244E+018,13108,1020,2723,3,20
1.52847229302161E+018,432,1.52847229302129E+018,13168,1054,2749,4,15
1.52847229307958E+018,433,1.52847229307924E+018,13228,1077,2779,10,13
1.52847229310166E+018,434,1.52847229310126E+018,13248,1089,2790,6,14
1.52847229316199E+018,435,1.52847229316155E+018,13308,1109,2819,11,13
1.52847229321959E+018,436,1.5284722932192E+018,13368,1139,2849,6,13
1.5284722932415E+018,437,1.52847229324116E+018,13388,1147,2860,8,12
1.52847229330157E+018,438,1.5284722933012E+018,13448,1181,2891,5,12
1.52847229336202E+018,439,1.52847229336148E+018,13508,1207,2918,8,14
1.52847229342138E+018,440,1.52847229342105E+018,13568,1232,2948,9,13
1.52847229348146E+018,441,1.52847229348106E+018,13628,1263,2980,6,12
1.52847229354033E+018,442,1.52847229354001E+018,13688,1292,3008,7,14
1.52847229356189E+018,443,1.52847229356114E+018,13708,1300,3018,8,14
1.52847229362029E+018,444,1.52847229362001E+018,13768,1327,3048,8,13
1.52847229367818E+018,445,1.52847229367784E+018,13828,1355,3078,8,13
1.52847229370047E+018,446,1.52847229370005E+018,13848,1366,3089,7,12
1.52847229375816E+018,447,1.52847229375785E+018,13908,1396,3120,7,13
1.52847229378019E+018,448,1.5284722937799E+018,13928,1405,3130,8,13
1.5284722938384E+018,449,1.52847229383789E+018,13988,1432,3159,8,14
1.52847229386014E+018,450,1.52847229385988E+018,14008,1441,3169,8,13
1.52847229392006E+018,451,1.52847229391974E+018,14068,1471,3201,7,12
1.52847229398023E+018,452,1.52847229397987E+018,14128,1501,3231,7,13
1.52847229404008E+018,453,1.52847229403976E+018,14188,1529,3260,8,14
1.52847229410016E+018,454,1.52847229409982E+018,14248,1557,3291,8,13
1.52847229415896E+018,455,1.52847229415862E+018,14308,1589,3322,6,13
1.52847229421714E+018,456,1.52847229421677E+018,14368,1618,3353,7,13
1.52847229423991E+018,457,1.52847229423962E+018,14388,1628,3363,7,13
1.52847229429895E+018,458,1.52847229429863E+018,14448,1655,3393,9,13
1.52847229435693E+018,459,1.52847229435663E+018,14508,1686,3425,7,12
1.52847229437894E+018,460,1.52847229437863E+018,14528,1697,3436,6,12
1.52847229443891E+018,461,1.52847229443854E+018,14588,1724,3465,9,14
1.52847229449885E+018,462,1.52847229449853E+018,14648,1753,3495,8,13
1.52847229455893E+018,463,1.52847229455859E+018,14708,1783,3526,7,13
1.52847229461887E+018,464,1.52847229461855E+018,14768,1814,3557,7,13
1.52847229467891E+018,465,1.52847229467854E+018,14828,1844,3587,7,13
1.5284722947387E+018,466,1.52847229473836E+018,14888,1872,3618,8,13
1.5284722947979E+018,467,1.52847229479755E+018,14948,1903,3649,7,13
1.52847229485567E+018,468,1.52847229485535E+018,15008,1932,3679,8,13
1.52847229487789E+018,469,1.52847229487753E+018,15028,1942,3689,8,13
1.52847229493783E+018,470,1.52847229493745E+018,15088,1969,3721,9,13
1.5284722949956E+018,471,1.52847229499525E+018,15148,2000,3751,7,14
1.52847229501756E+018,472,1.52847229501724E+018,15168,2010,3761,7,14
1.52847229507765E+018,473,1.52847229507731E+018,15228,2040,3792,7,13
1.52847229513751E+018,474,1.52847229513718E+018,15288,2069,3824,8,13
1.52847229519755E+018,475,1.52847229519718E+018,15348,2099,3855,8,13
1.5284722952575E+018,476,1.52847229525716E+018,15408,2128,3887,8,13
1.52847229531667E+018,477,1.52847229531625E+018,15468,2158,3917,8,14
1.52847229533743E+018,478,1.52847229533712E+018,15488,2167,3929,8,12
1.52847229539731E+018,479,1.52847229539702E+018,15548,2196,3961,8,13
1.52847229545637E+018,480,1.52847229545603E+018,15608,2227,3991,7,14
1.52847229551427E+018,481,1.52847229551395E+018,15668,2257,4024,8,12
1.52847229553637E+018,482,1.52847229553607E+018,15688,2267,4036,8,12
1.52847229559632E+018,483,1.52847229559603E+018,15748,2297,4067,8,13
1.52847229565625E+018,484,1.52847229565599E+018,15808,2327,4098,8,13
1.52847229571619E+018,485,1.52847229571588E+018,15868,2357,4129,8,13
1.52847229577613E+018,486,1.52847229577586E+018,15928,2387,4162,8,12
1.52847229583615E+018,487,1.5284722958358E+018,15988,2417,4195,8,12
1.5284722958961E+018,488,1.52847229589576E+018,16048,2448,4224,7,14
1.52847229595512E+018,489,1.52847229595477E+018,16108,2478,4257,8,12
1.52847229597601E+018,490,1.52847229597574E+018,16128,2488,4268,8,12
1.52847229603635E+018,491,1.528472296036E+018,16188,2518,4300,8,13
1.52847229609503E+018,492,1.52847229609465E+018,16248,2548,4330,8,14
1.52847229615295E+018,493,1.52847229615263E+018,16308,2581,4364,7,12
1.52847229617509E+018,494,1.52847229617471E+018,16328,2590,4375,8,12
1.528472296235E+018,495,1.52847229623467E+018,16388,2620,4405,8,14
1.52847229629297E+018,496,1.52847229629263E+018,16448,2651,4436,8,13
1.52847229631499E+018,497,1.52847229631466E+018,16468,2662,4446,7,14
1.52847229637519E+018,498,1.52847229637478E+018,16528,2693,4479,8,13
1.52847229643487E+018,499,1.52847229643456E+018,16588,2723,4511,8,13
1.5284722964949E+018,500,1.52847229649455E+018,16648,2753,4541,8,14
1.52847229655479E+018,501,1.52847229655446E+018,16708,2785,4574,7,13
1.52847229661468E+018,502,1.52847229661438E+018,16768,2816,4607,8,13
1.52847229667516E+018,503,1.5284722966747E+018,16828,2846,4639,8,13
1.52847229673374E+018,504,1.5284722967334E+018,16888,2893,4658,14,4
1.52847229679178E+018,505,1.5284722967914E+018,16948,2931,4682,18,1
1.5284722968136E+018,506,1.5284722968133E+018,16968,2946,4687,19,1
1.52847229687379E+018,507,1.52847229687334E+018,17028,2985,4714,18,0
1.52847229693364E+018,508,1.52847229693329E+018,17088,3026,4732,17,4
1.52847229699365E+018,509,1.52847229699327E+018,17148,3067,4749,17,5
1.52847229705355E+018,510,1.52847229705322E+018,17208,3108,4771,17,2
1.52847229711342E+018,511,1.52847229711313E+018,17268,3148,4795,18,1
1.52847229717359E+018,512,1.52847229717321E+018,17328,3189,4820,18,0
1.5284722972324E+018,513,1.5284722972321E+018,17388,3231,4838,17,4
1.52847229725345E+018,514,1.52847229725311E+018,17408,3246,4844,17,4
1.52847229731247E+018,515,1.52847229731216E+018,17468,3289,4860,17,5
1.52847229737038E+018,516,1.52847229737011E+018,17528,3330,4879,18,3
1.52847229739264E+018,517,1.5284722973922E+018,17548,3345,4885,17,3
1.52847229745033E+018,518,1.52847229744998E+018,17608,3388,4908,17,1
1.52847229747229E+018,519,1.52847229747199E+018,17628,3402,4915,17,1
1.52847229753036E+018,520,1.52847229753001E+018,17688,3446,4935,17,2
1.52847229755237E+018,521,1.52847229755202E+018,17708,3461,4940,16,4
1.5284722976123E+018,522,1.52847229761202E+018,17768,3505,4954,17,5
1.5284722976702E+018,523,1.52847229766988E+018,17828,3549,4971,17,4
1.52847229769221E+018,524,1.52847229769192E+018,17848,3562,4977,18,3
1.52847229775248E+018,525,1.52847229775207E+018,17908,3606,4996,17,3
1.52847229781224E+018,526,1.52847229781191E+018,17968,3650,5018,17,1
1.52847229787136E+018,527,1.52847229787092E+018,18028,3696,5038,16,2
1.52847229792908E+018,528,1.52847229792878E+018,18088,3740,5052,18,5
1.52847229795206E+018,529,1.52847229795177E+018,18108,3756,5057,17,5
1.52847229801128E+018,530,1.52847229801091E+018,18168,3801,5073,17,4
1.52847229806932E+018,531,1.52847229806882E+018,18228,3844,5089,18,4
1.52847229809113E+018,532,1.52847229809078E+018,18248,3859,5094,19,4
1.528472298151E+018,533,1.52847229815067E+018,18308,3906,5111,16,3
1.528472298211E+018,534,1.52847229821066E+018,18368,3952,5129,17,3
1.52847229827111E+018,535,1.52847229827058E+018,18428,3997,5144,18,4
1.52847229833084E+018,536,1.52847229833054E+018,18488,4045,5159,16,4
1.52847229839092E+018,537,1.52847229839057E+018,18548,4087,5173,19,4
1.52847229845087E+018,538,1.52847229845056E+018,18608,4133,5191,17,2
1.52847229850987E+018,539,1.52847229850954E+018,18668,4177,5206,18,4
1.52847229856777E+018,540,1.5284722985674E+018,18728,4222,5223,18,3
1.52847229858975E+018,541,1.52847229858943E+018,18748,4240,5229,16,2
1.52847229864767E+018,542,1.52847229864736E+018,18808,4285,5245,18,3
1.52847229867008E+018,543,1.52847229866964E+018,18828,4301,5248,18,5
1.52847229872791E+018,544,1.52847229872752E+018,18888,4348,5262,17,4
1.52847229874973E+018,545,1.52847229874934E+018,18908,4364,5266,17,4
1.52847229880753E+018,546,1.52847229880725E+018,18968,4408,5281,19,4
1.52847229882956E+018,547,1.52847229882925E+018,18988,4422,5286,19,4
1.52847229888967E+018,548,1.5284722988893E+018,19048,4468,5303,18,3
1.52847229894744E+018,549,1.52847229894708E+018,19108,4514,5320,18,2
1.52847229896951E+018,550,1.52847229896916E+018,19128,4530,5327,18,2
1.52847229902946E+018,551,1.52847229902915E+018,19188,4578,5345,17,2
1.52847229908942E+018,552,1.52847229908912E+018,19248,4625,5358,18,4
1.52847229914843E+018,553,1.52847229914806E+018,19308,4673,5372,17,4
1.52847229916933E+018,554,1.52847229916899E+018,19328,4690,5377,17,3
1.52847229922832E+018,555,1.52847229922803E+018,19388,4734,5390,19,4
1.52847229928624E+018,556,1.52847229928596E+018,19448,4782,5406,18,3
1.52847229930828E+018,557,1.52847229930801E+018,19468,4798,5411,18,3
1.52847229936638E+018,558,1.52847229936601E+018,19528,4846,5429,18,2
1.52847229938841E+018,559,1.5284722993881E+018,19548,4861,5435,19,1
1.52847229944624E+018,560,1.52847229944596E+018,19608,4911,5454,17,1
1.52847229946831E+018,561,1.52847229946801E+018,19628,4927,5459,17,2
1.52847229952825E+018,562,1.52847229952791E+018,19688,4974,5471,18,4
1.52847229958826E+018,563,1.5284722995879E+018,19748,5023,5483,17,4
1.5284722996483E+018,564,1.52847229964796E+018,19808,5070,5496,19,4
1.52847229970617E+018,565,1.52847229970585E+018,19868,5119,5511,18,3
1.52847229972822E+018,566,1.52847229972785E+018,19888,5135,5516,18,3
1.52847229978719E+018,567,1.52847229978688E+018,19948,5184,5531,18,3
1.52847229984528E+018,568,1.52847229984487E+018,20008,5235,5548,17,2
1.52847229986719E+018,569,1.52847229986682E+018,20028,5252,5554,17,2
1.52847229992708E+018,570,1.52847229992679E+018,20088,5299,5567,19,4
1.52847229998596E+018,571,1.52847229998508E+018,20148,5348,5580,18,3
1.52847230000715E+018,572,1.52847230000681E+018,20168,5364,5583,18,4
1.52847230006713E+018,573,1.52847230006676E+018,20228,5413,5595,18,4
1.52847230012695E+018,574,1.52847230012664E+018,20288,5463,5608,18,3
1.528472300187E+018,575,1.52847230018664E+018,20348,5512,5623,18,2
1.52847230024693E+018,576,1.52847230024656E+018,20408,5560,5642,19,0
1.52847230030581E+018,577,1.5284723003055E+018,20468,5611,5660,17,1
1.52847230032697E+018,578,1.52847230032659E+018,20488,5628,5666,17,1
1.52847230038622E+018,579,1.52847230038583E+018,20548,5679,5678,17,4
1.52847230044384E+018,580,1.52847230044346E+018,20608,5731,5689,17,4
1.52847230046603E+018,581,1.52847230046565E+018,20628,5748,5693,17,4
1.52847230052377E+018,582,1.52847230052348E+018,20688,5798,5704,18,4
1.52847230054585E+018,583,1.52847230054554E+018,20708,5815,5707,18,4
1.52847230060383E+018,584,1.5284723006035E+018,20768,5864,5718,19,4
1.52847230062571E+018,585,1.52847230062538E+018,20788,5881,5722,18,4
1.5284723006857E+018,586,1.52847230068541E+018,20848,5932,5737,18,2
1.52847230074575E+018,587,1.52847230074541E+018,20908,5984,5751,17,2
1.5284723008057E+018,588,1.52847230080539E+018,20968,6035,5766,18,2
1.52847230086569E+018,589,1.52847230086534E+018,21028,6086,5780,18,2
1.52847230092429E+018,590,1.52847230092415E+018,21088,6136,5791,18,4
1.52847230098243E+018,591,1.5284723009821E+018,21148,6188,5800,18,5
1.52847230100546E+018,592,1.52847230100516E+018,21168,6205,5804,18,5
1.52847230106473E+018,593,1.52847230106432E+018,21228,6255,5815,19,4
1.5284723011224E+018,594,1.5284723011221E+018,21288,6306,5826,18,4
1.52847230114448E+018,595,1.52847230114416E+018,21308,6324,5829,18,4
1.52847230120445E+018,596,1.52847230120412E+018,21368,6373,5843,19,2
1.52847230126227E+018,597,1.52847230126196E+018,21428,6427,5859,17,1
1.52847230128438E+018,598,1.52847230128406E+018,21448,6443,5864,18,2
1.52847230134441E+018,599,1.52847230134406E+018,21508,6494,5879,18,2
1.52847230140442E+018,600,1.52847230140406E+018,21568,6545,5891,18,3
1.52847230146449E+018,601,1.52847230146411E+018,21628,6597,5901,18,4
1.52847230152425E+018,602,1.52847230152393E+018,21688,6649,5910,18,4
1.52847230158427E+018,603,1.52847230158331E+018,21748,6699,5920,19,4
1.52847230160417E+018,604,1.52847230160387E+018,21768,6717,5923,19,4
1.52847230166325E+018,605,1.52847230166292E+018,21828,6770,5933,18,4
1.52847230172105E+018,606,1.52847230172074E+018,21888,6820,5945,19,3
1.52847230174305E+018,607,1.52847230174279E+018,21908,6838,5949,19,2
1.52847230180135E+018,608,1.52847230180098E+018,21968,6892,5962,17,2
1.52847230182315E+018,609,1.52847230182285E+018,21988,6909,5966,18,2
1.52847230188115E+018,610,1.52847230188079E+018,22048,6961,5980,18,2
1.52847230190295E+018,611,1.52847230190266E+018,22068,6979,5984,18,2
1.52847230196301E+018,612,1.52847230196266E+018,22128,7001,5983,14,-13
1.52847230202298E+018,613,1.52847230202266E+018,22188,7033,5980,9,-12
1.52847230208386E+018,614,1.52847230208295E+018,22248,7055,5976,14,-12
1.52847230214289E+018,615,1.52847230214253E+018,22308,7078,5975,14,-13
1.52847230220188E+018,616,1.52847230220155E+018,22368,7095,5973,17,-13
1.52847230225975E+018,617,1.52847230225946E+018,22428,7118,5973,14,-14
1.52847230228286E+018,618,1.52847230228254E+018,22448,7127,5973,14,-14
1.52847230234176E+018,619,1.52847230234143E+018,22508,7151,5973,13,-14
1.52847230239966E+018,620,1.52847230239935E+018,22568,7176,5973,13,-14
1.52847230242187E+018,621,1.52847230242151E+018,22588,7184,5973,13,-14
1.52847230248174E+018,622,1.52847230248144E+018,22648,7205,5973,15,-15
1.52847230254201E+018,623,1.52847230254157E+018,22708,7226,5973,15,-15
1.52847230260167E+018,624,1.52847230260138E+018,22768,7250,5973,13,-15
1.52847230266175E+018,625,1.52847230266141E+018,22828,7273,5972,14,-15
1.5284723027217E+018,626,1.5284723027213E+018,22888,7297,5972,13,-15
1.52847230278169E+018,627,1.52847230278135E+018,22948,7319,5972,14,-15
1.52847230284064E+018,628,1.5284723028403E+018,23008,7340,5972,15,-16
1.52847230289855E+018,629,1.52847230289824E+018,23068,7363,5972,14,-16
1.52847230292072E+018,630,1.52847230292035E+018,23088,7369,5972,15,-16
1.52847230298064E+018,631,1.52847230298027E+018,23148,7394,5970,13,-15
1.52847230303876E+018,632,1.52847230303837E+018,23208,7418,5967,13,-15
1.52847230306063E+018,633,1.52847230306024E+018,23228,7425,5965,14,-14
1.52847230312044E+018,634,1.52847230312013E+018,23288,7449,5964,14,-16
1.52847230318134E+018,635,1.5284723031805E+018,23348,7472,5961,14,-15
1.52847230324055E+018,636,1.52847230324019E+018,23408,7496,5961,14,-16
1.52847230330045E+018,637,1.52847230330007E+018,23468,7519,5961,14,-17
1.52847230335941E+018,638,1.52847230335903E+018,23528,7541,5961,15,-17
1.52847230338115E+018,639,1.52847230338042E+018,23548,7550,5961,14,-17
1.52847230343939E+018,640,1.52847230343906E+018,23608,7573,5961,14,-17
1.52847230349732E+018,641,1.52847230349699E+018,23668,7596,5960,14,-17
1.52847230351955E+018,642,1.52847230351917E+018,23688,7604,5960,14,-17
1.52847230357754E+018,643,1.52847230357721E+018,23748,7629,5960,13,-17
1.5284723035992E+018,644,1.52847230359892E+018,23768,7637,5960,14,-17
1.52847230365733E+018,645,1.52847230365695E+018,23828,7660,5960,14,-18
1.52847230367942E+018,646,1.52847230367905E+018,23848,7668,5960,14,-18
1.52847230373924E+018,647,1.52847230373892E+018,23908,7692,5956,14,-16
1.52847230379718E+018,648,1.52847230379687E+018,23968,7717,5947,13,-13
1.52847230381913E+018,649,1.52847230381879E+018,23988,7726,5944,13,-14
1.52847230384026E+018,650,1.52847230383997E+018,24008,7734,5943,13,-15
1.52847230387811E+018,651,1.52847230387778E+018,24048,7750,5939,14,-16
1.52847230389924E+018,652,1.52847230389889E+018,24068,7758,5938,14,-16
1.52847230395811E+018,653,1.52847230395781E+018,24128,7782,5932,14,-15
1.52847230401625E+018,654,1.52847230401584E+018,24188,7806,5921,14,-13
1.52847230403833E+018,655,1.5284723040379E+018,24208,7815,5918,13,-13
1.52847230409591E+018,656,1.52847230409562E+018,24268,7841,5909,13,-14
1.52847230411791E+018,657,1.52847230411765E+018,24288,7850,5908,12,-15
1.52847230417598E+018,658,1.52847230417565E+018,24348,7873,5901,14,-15
1.52847230419799E+018,659,1.52847230419767E+018,24368,7881,5899,14,-16
1.52847230425805E+018,660,1.52847230425766E+018,24428,7904,5889,14,-14
1.52847230431797E+018,661,1.52847230431757E+018,24488,7931,5881,12,-15
1.52847230437811E+018,662,1.5284723043777E+018,24548,7955,5880,14,-18
1.52847230443585E+018,663,1.52847230443553E+018,24608,7962,5878,-3,0
1.52847230445787E+018,664,1.52847230445759E+018,24628,7961,5878,0,0
1.52847230451689E+018,665,1.52847230451649E+018,24688,7961,5878,0,0
1.52847230453766E+018,666,1.52847230453737E+018,24708,7961,5878,0,0
1.52847230459676E+018,667,1.52847230459641E+018,24768,7961,5878,0,0
1.52847230465474E+018,668,1.52847230465439E+018,24828,7961,5878,0,0
1.52847230467669E+018,669,1.52847230467639E+018,24848,7961,5878,0,0
1.52847230473463E+018,670,1.52847230473434E+018,24908,7961,5878,0,0
1.52847230475702E+018,671,1.52847230475657E+018,24928,7961,5878,0,0
1.52847230481474E+018,672,1.5284723048144E+018,24988,7961,5878,0,0
1.52847230483664E+018,673,1.52847230483631E+018,25008,7961,5878,0,0
1.52847230489749E+018,674,1.5284723048969E+018,25068,7961,5878,0,0
1.52847230495653E+018,675,1.52847230495623E+018,25128,7961,5878,0,0
1.52847230501695E+018,676,1.52847230501653E+018,25188,7961,5878,-14,14
1.52847230507508E+018,677,1.52847230507425E+018,25248,7961,5878,-14,14
1.52847230509658E+018,678,1.5284723050962E+018,25268,7960,5880,-13,12
1.52847230515556E+018,679,1.52847230515518E+018,25328,7949,5893,-8,7
1.52847230517651E+018,680,1.52847230517615E+018,25348,7949,5894,-12,11
1.52847230523571E+018,681,1.5284723052353E+018,25408,7945,5899,-12,11
1.5284723052935E+018,682,1.52847230529313E+018,25468,7940,5904,-11,11
1.52847230531538E+018,683,1.52847230531507E+018,25488,7939,5905,-11,12
1.52847230537342E+018,684,1.52847230537305E+018,25548,7936,5910,-12,11
1.52847230539546E+018,685,1.52847230539511E+018,25568,7934,5911,-11,12
1.52847230545329E+018,686,1.52847230545299E+018,25628,7929,5917,-12,11
1.52847230547559E+018,687,1.52847230547517E+018,25648,7928,5918,-12,11
1.52847230553541E+018,688,1.52847230553511E+018,25708,7921,5922,-11,12
1.52847230559536E+018,689,1.52847230559506E+018,25768,7914,5926,-11,12
1.52847230565538E+018,690,1.52847230565504E+018,25828,7909,5931,-12,12
1.52847230571541E+018,691,1.52847230571508E+018,25888,7902,5935,-11,13
1.52847230577424E+018,692,1.52847230577394E+018,25948,7896,5941,-12,12
1.52847230583215E+018,693,1.52847230583188E+018,26008,7887,5947,-10,12
1.52847230585419E+018,694,1.52847230585389E+018,26028,7885,5949,-11,11
1.52847230591399E+018,695,1.52847230591377E+018,26088,7876,5955,-11,12
1.52847230597219E+018,696,1.52847230597188E+018,26148,7869,5961,-12,12
1.52847230599407E+018,697,1.5284723059937E+018,26168,7866,5962,-12,13
1.52847230605394E+018,698,1.52847230605365E+018,26228,7860,5968,-12,12
1.52847230611413E+018,699,1.52847230611377E+018,26288,7854,5974,-12,12
1.5284723061739E+018,700,1.52847230617355E+018,26348,7849,5982,-13,12
1.52847230623393E+018,701,1.52847230623358E+018,26408,7843,5988,-13,13
1.52847230629386E+018,702,1.52847230629356E+018,26468,7837,5997,-13,11
1.52847230635205E+018,703,1.52847230635165E+018,26528,7831,6004,-13,12
1.5284723063739E+018,704,1.52847230637359E+018,26548,7829,6006,-13,12
1.52847230643274E+018,705,1.52847230643241E+018,26608,7822,6013,-12,13
1.52847230645372E+018,706,1.5284723064534E+018,26628,7819,6015,-12,13
1.52847230651281E+018,707,1.52847230651245E+018,26688,7810,6021,-12,13
1.52847230657095E+018,708,1.5284723065706E+018,26748,7802,6028,-12,13
1.52847230659306E+018,709,1.52847230659254E+018,26768,7799,6029,-11,13
1.52847230665068E+018,710,1.52847230665037E+018,26828,7789,6036,-11,13
1.52847230667371E+018,711,1.52847230667293E+018,26848,7787,6038,-12,13
1.52847230673062E+018,712,1.52847230673029E+018,26908,7777,6045,-12,13
1.52847230675256E+018,713,1.52847230675227E+018,26928,7774,6047,-12,13
1.52847230681268E+018,714,1.52847230681231E+018,26988,7763,6055,-11,13
1.52847230687325E+018,715,1.52847230687229E+018,27048,7755,6064,-13,12
1.52847230693243E+018,716,1.52847230693217E+018,27108,7746,6071,-12,13
1.52847230699044E+018,717,1.52847230699012E+018,27168,7740,6080,-14,13
1.52847230701243E+018,718,1.52847230701215E+018,27188,7737,6083,-13,13
1.5284723070716E+018,719,1.52847230707121E+018,27248,7730,6092,-14,13
1.52847230712941E+018,720,1.52847230712912E+018,27308,7721,6101,-13,13
1.52847230715156E+018,721,1.52847230715119E+018,27328,7718,6104,-13,13
1.52847230721181E+018,722,1.52847230721138E+018,27388,7707,6115,-12,12
1.52847230726932E+018,723,1.528472307269E+018,27448,7697,6124,-12,13
1.52847230729134E+018,724,1.52847230729102E+018,27468,7694,6126,-12,14
1.5284723073514E+018,725,1.52847230735106E+018,27528,7684,6134,-13,14
1.52847230741136E+018,726,1.52847230741105E+018,27588,7674,6143,-13,13
1.52847230747155E+018,727,1.52847230747117E+018,27648,7663,6151,-12,14
1.52847230753132E+018,728,1.52847230753099E+018,27708,7652,6162,-12,12
1.52847230759038E+018,729,1.52847230759008E+018,27768,7642,6172,-13,13
1.52847230764812E+018,730,1.52847230764785E+018,27828,7633,6182,-13,13
1.52847230767021E+018,731,1.52847230766992E+018,27848,7630,6185,-14,13
1.52847230772824E+018,732,1.52847230772787E+018,27908,7622,6195,-14,13
1.52847230775021E+018,733,1.5284723077499E+018,27928,7619,6197,-14,14
1.52847230781029E+018,734,1.52847230780998E+018,27988,7610,6206,-14,14
1.52847230786817E+018,735,1.52847230786788E+018,28048,7600,6214,-13,14
1.52847230789011E+018,736,1.52847230788982E+018,28068,7596,6218,-13,14
1.52847230795026E+018,737,1.5284723079499E+018,28128,7584,6227,-13,14
1.52847230800805E+018,738,1.52847230800776E+018,28188,7573,6236,-13,14
1.5284723080301E+018,739,1.52847230802978E+018,28208,7568,6240,-13,14
1.52847230809008E+018,740,1.52847230808973E+018,28268,7556,6249,-13,14
1.52847230814993E+018,741,1.52847230814964E+018,28328,7542,6261,-12,13
1.52847230820911E+018,742,1.52847230820875E+018,28388,7531,6273,-13,13
1.52847230826685E+018,743,1.5284723082666E+018,28448,7520,6285,-13,13
1.52847230828987E+018,744,1.52847230828955E+018,28468,7516,6288,-13,14
1.52847230834894E+018,745,1.52847230834856E+018,28528,7504,6302,-13,12
1.52847230840682E+018,746,1.52847230840647E+018,28588,7490,6315,-12,13
1.52847230842909E+018,747,1.52847230842871E+018,28608,7486,6320,-12,12
1.5284723084889E+018,748,1.52847230848855E+018,28668,7472,6333,-12,13
1.52847230854915E+018,749,1.52847230854879E+018,28728,7457,6344,-12,14
1.52847230860876E+018,750,1.52847230860842E+018,28788,7444,6354,-13,15
1.52847230866884E+018,751,1.52847230866847E+018,28848,7430,6367,-12,13
1.52847230872874E+018,752,1.52847230872842E+018,28908,7417,6381,-13,13
1.52847230878884E+018,753,1.52847230878845E+018,28968,7406,6394,-14,13
1.52847230884761E+018,754,1.52847230884731E+018,29028,7393,6406,-13,14
1.52847230890576E+018,755,1.52847230890544E+018,29088,7380,6421,-13,12
1.52847230892782E+018,756,1.52847230892747E+018,29108,7375,6425,-13,13
1.52847230898763E+018,757,1.52847230898731E+018,29168,7360,6437,-12,14
1.52847230904564E+018,758,1.52847230904527E+018,29228,7344,6450,-12,14
1.5284723090677E+018,759,1.52847230906734E+018,29248,7339,6454,-12,14
1.52847230912748E+018,760,1.52847230912726E+018,29308,7323,6466,-12,14
1.52847230918763E+018,761,1.52847230918729E+018,29368,7311,6481,-14,13
1.5284723092475E+018,762,1.52847230924718E+018,29428,7298,6494,-14,14
1.5284723093075E+018,763,1.52847230930711E+018,29488,7285,6508,-14,13
1.52847230936633E+018,764,1.52847230936603E+018,29548,7269,6523,-12,13
1.52847230938732E+018,765,1.52847230938702E+018,29568,7263,6528,-12,13
1.52847230944737E+018,766,1.52847230944705E+018,29628,7245,6542,-11,14
1.52847230950623E+018,767,1.52847230950592E+018,29688,7229,6554,-12,15
1.5284723095642E+018,768,1.52847230956389E+018,29748,7214,6566,-13,15
1.52847230958625E+018,769,1.52847230958594E+018,29768,7210,6571,-13,15
1.52847230964622E+018,770,1.52847230964593E+018,29828,7196,6585,-14,14
1.52847230970407E+018,771,1.52847230970373E+018,29888,7183,6600,-14,13
1.52847230972612E+018,772,1.52847230972581E+018,29908,7178,6606,-14,13
1.52847230978406E+018,773,1.52847230978376E+018,29968,7162,6619,-13,15
1.52847230980612E+018,774,1.5284723098058E+018,29988,7157,6625,-13,14
1.52847230986615E+018,775,1.5284723098658E+018,30048,7139,6641,-12,13
1.52847230992416E+018,776,1.5284723099238E+018,30108,7120,6656,-11,14
1.52847230994607E+018,777,1.5284723099458E+018,30128,7114,6660,-12,14
1.52847231000514E+018,778,1.52847231000481E+018,30188,7100,6673,-14,15
1.52847231002618E+018,779,1.52847231002579E+018,30208,7096,6678,-14,14
1.52847231008514E+018,780,1.52847231008477E+018,30268,7082,6692,-14,14
1.5284723101432E+018,781,1.52847231014279E+018,30328,7068,6708,-14,13
1.52847231016526E+018,782,1.52847231016483E+018,30348,7062,6712,-14,14
1.5284723102228E+018,783,1.5284723102225E+018,30408,7045,6728,-13,14
1.52847231024488E+018,784,1.52847231024456E+018,30428,7039,6734,-12,13
1.52847231030284E+018,785,1.52847231030251E+018,30488,7020,6752,-12,13
1.52847231032487E+018,786,1.52847231032455E+018,30508,7014,6757,-12,13
1.52847231038497E+018,787,1.52847231038455E+018,30568,6997,6772,-13,14
1.52847231044482E+018,788,1.52847231044445E+018,30628,6983,6785,-14,15
1.52847231050506E+018,789,1.52847231050453E+018,30688,6968,6800,-14,14
1.52847231056281E+018,790,1.52847231056244E+018,30748,6952,6816,-13,14
1.52847231058483E+018,791,1.52847231058445E+018,30768,6947,6822,-13,13
1.52847231064402E+018,792,1.5284723106436E+018,30828,6929,6838,-13,14
1.5284723107016E+018,793,1.52847231070127E+018,30888,6910,6856,-12,13
1.52847231072356E+018,794,1.52847231072328E+018,30908,6904,6860,-12,14
1.52847231078384E+018,795,1.52847231078337E+018,30968,6886,6875,-13,15
1.52847231084153E+018,796,1.52847231084122E+018,31028,6871,6889,-14,15
1.52847231086367E+018,797,1.52847231086333E+018,31048,6866,6894,-14,15
1.52847231092364E+018,798,1.52847231092331E+018,31108,6851,6910,-14,14
1.52847231098337E+018,799,1.52847231098311E+018,31168,6834,6927,-13,14
1.52847231104344E+018,800,1.52847231104315E+018,31228,6814,6944,-12,14
1.52847231110335E+018,801,1.52847231110304E+018,31288,6795,6962,-12,13
1.52847231116239E+018,802,1.52847231116207E+018,31348,6777,6979,-13,14
1.52847231118325E+018,803,1.528472311183E+018,31368,6772,6985,-14,14
1.52847231124239E+018,804,1.52847231124206E+018,31428,6757,7000,-15,15
1.52847231130034E+018,805,1.52847231130002E+018,31488,6741,7016,-14,15
1.52847231132234E+018,806,1.52847231132204E+018,31508,6735,7023,-14,14
1.52847231138023E+018,807,1.52847231137988E+018,31568,6717,7040,-13,14
1.52847231140226E+018,808,1.52847231140194E+018,31588,6710,7046,-13,14
1.52847231146022E+018,809,1.5284723114599E+018,31648,6689,7064,-12,14
1.52847231148236E+018,810,1.52847231148204E+018,31668,6683,7070,-12,14
1.52847231154206E+018,811,1.52847231154179E+018,31728,6667,7087,-14,14
1.52847231160212E+018,812,1.52847231160181E+018,31788,6651,7102,-14,15
1.52847231166229E+018,813,1.52847231166188E+018,31848,6635,7119,-14,14
1.52847231172207E+018,814,1.52847231172176E+018,31908,6616,7138,-13,13
1.52847231178121E+018,815,1.52847231178084E+018,31968,6595,7158,-12,13
1.52847231183896E+018,816,1.52847231183862E+018,32028,6575,7176,-13,14
1.52847231186257E+018,817,1.52847231186175E+018,32048,6569,7182,-13,14
1.52847231192111E+018,818,1.52847231192078E+018,32108,6552,7199,-14,15
1.52847231197904E+018,819,1.52847231197867E+018,32168,6534,7216,-14,15
1.52847231200121E+018,820,1.52847231200086E+018,32188,6528,7223,-14,14
1.52847231206124E+018,821,1.52847231206078E+018,32248,6510,7242,-14,14
1.52847231212102E+018,822,1.52847231212066E+018,32308,6489,7260,-12,14
1.52847231218099E+018,823,1.52847231218069E+018,32368,6469,7278,-13,14
1.52847231224115E+018,824,1.52847231224076E+018,32428,6451,7297,-14,14
1.52847231230093E+018,825,1.52847231230058E+018,32488,6433,7314,-14,15
1.5284723123611E+018,826,1.52847231236069E+018,32548,6415,7333,-14,14
1.52847231241973E+018,827,1.52847231241942E+018,32608,6412,7373,4,23
1.52847231247789E+018,828,1.52847231247754E+018,32668,6422,7414,-1,22
1.52847231250089E+018,829,1.5284723125005E+018,32688,6426,7426,-2,24
1.52847231255976E+018,830,1.52847231255943E+018,32748,6443,7470,-4,21
1.52847231261781E+018,831,1.52847231261747E+018,32808,6455,7515,-2,21
1.52847231263962E+018,832,1.52847231263934E+018,32828,6460,7535,-3,18
1.52847231269963E+018,833,1.52847231269933E+018,32888,6469,7588,-1,17
1.52847231275973E+018,834,1.52847231275934E+018,32948,6469,7638,3,18
1.52847231281961E+018,835,1.52847231281928E+018,33008,6469,7685,3,20
1.52847231287956E+018,836,1.52847231287921E+018,33068,6471,7729,2,21
1.5284723129395E+018,837,1.52847231293919E+018,33128,6477,7775,0,21
1.52847231299962E+018,838,1.52847231299923E+018,33188,6480,7823,1,20
1.5284723130585E+018,839,1.52847231305818E+018,33248,6480,7873,3,19
1.52847231311639E+018,840,1.52847231311605E+018,33308,6497,7912,10,10
1.52847231313938E+018,841,1.52847231313907E+018,33328,6507,7921,5,14
1.5284723131982E+018,842,1.52847231319798E+018,33388,6525,7949,10,16
1.52847231325603E+018,843,1.52847231325584E+018,33448,6550,7983,6,13
1.52847231327831E+018,844,1.52847231327798E+018,33468,6560,7993,8,13
1.52847231333854E+018,845,1.52847231333822E+018,33528,6586,8023,6,15
1.52847231339635E+018,846,1.5284723133959E+018,33588,6616,8053,4,15
1.52847231341816E+018,847,1.52847231341784E+018,33608,6624,8063,5,15
1.52847231347824E+018,848,1.52847231347786E+018,33668,6652,8091,5,16
1.52847231353812E+018,849,1.5284723135378E+018,33728,6678,8122,6,14
1.5284723135982E+018,850,1.52847231359787E+018,33788,6704,8150,6,16
1.528472313658E+018,851,1.52847231365771E+018,33848,6733,8179,5,15
1.52847231371721E+018,852,1.52847231371684E+018,33908,6762,8211,5,14
1.52847231373795E+018,853,1.52847231373765E+018,33928,6771,8221,4,14
1.52847231379714E+018,854,1.52847231379677E+018,33988,6797,8251,6,15
1.52847231385501E+018,855,1.52847231385464E+018,34048,6825,8281,5,15
1.52847231387778E+018,856,1.52847231387701E+018,34068,6834,8290,5,15
1.52847231393484E+018,857,1.52847231393452E+018,34128,6862,8320,5,15
1.52847231395727E+018,858,1.52847231395687E+018,34148,6872,8331,5,14
1.52847231401487E+018,859,1.52847231401451E+018,34208,6899,8361,6,15
1.5284723140369E+018,860,1.52847231403657E+018,34228,6907,8370,6,15
1.52847231409701E+018,861,1.52847231409664E+018,34288,6934,8399,6,15
1.52847231415673E+018,862,1.52847231415641E+018,34348,6963,8430,5,15
1.52847231421695E+018,863,1.52847231421648E+018,34408,6990,8462,6,14
1.52847231427681E+018,864,1.52847231427646E+018,34468,7018,8491,6,16
1.52847231433596E+018,865,1.52847231433556E+018,34528,7045,8520,6,16
1.5284723143937E+018,866,1.52847231439337E+018,34588,7073,8553,6,14
1.52847231441656E+018,867,1.52847231441627E+018,34608,7082,8563,6,14
1.52847231447571E+018,868,1.52847231447534E+018,34668,7110,8593,6,15
1.52847231453361E+018,869,1.52847231453326E+018,34728,7137,8623,6,15
1.52847231455556E+018,870,1.52847231455518E+018,34748,7146,8633,6,15
1.52847231461551E+018,871,1.52847231461519E+018,34808,7174,8667,6,13
1.52847231467342E+018,872,1.52847231467315E+018,34868,7205,8697,4,15
1.52847231469583E+018,873,1.52847231469542E+018,34888,7215,8708,5,14
1.52847231475548E+018,874,1.52847231475519E+018,34948,7241,8736,7,16
1.52847231481559E+018,875,1.52847231481523E+018,35008,7270,8768,6,14
1.52847231487537E+018,876,1.52847231487506E+018,35068,7300,8799,5,15
1.52847231493563E+018,877,1.52847231493522E+018,35128,7327,8830,7,15
1.52847231499547E+018,878,1.52847231499512E+018,35188,7354,8859,7,16
1.52847231505538E+018,879,1.52847231505499E+018,35248,7383,8891,6,14
1.52847231511383E+018,880,1.52847231511361E+018,35308,7414,8923,5,14
1.52847231513476E+018,881,1.52847231513457E+018,35328,7423,8933,5,15
1.5284723151947E+018,882,1.52847231519451E+018,35388,7450,8963,7,15
1.52847231525468E+018,883,1.52847231525444E+018,35448,7480,8996,5,14
1.52847231531475E+018,884,1.52847231531438E+018,35508,7510,9027,5,15
1.52847231537345E+018,885,1.52847231537315E+018,35568,7538,9057,6,16
1.52847231539432E+018,886,1.5284723153941E+018,35588,7547,9067,7,16
1.52847231545314E+018,887,1.52847231545298E+018,35648,7575,9100,6,14
1.52847231555394E+018,888,1.52847231555371E+018,35748,7626,9153,5,15
1.52847231561373E+018,889,1.52847231561347E+018,35808,7654,9185,6,15
1.52847231567221E+018,890,1.52847231567182E+018,35868,7683,9216,6,15
1.52847231569352E+018,891,1.52847231569338E+018,35888,7693,9227,6,15
1.52847231575347E+018,892,1.52847231575328E+018,35948,7723,9258,6,15
1.52847231581318E+018,893,1.52847231581297E+018,36008,7752,9290,6,15
1.5284723158731E+018,894,1.52847231587285E+018,36068,7780,9323,7,14
1.52847231593333E+018,895,1.52847231593293E+018,36128,7812,9355,5,15
1.52847231599311E+018,896,1.52847231599281E+018,36188,7840,9386,7,15
1.52847231605119E+018,897,1.52847231605083E+018,36248,7870,9420,6,14
1.52847231607302E+018,898,1.52847231607273E+018,36268,7879,9431,6,14
1.52847231613195E+018,899,1.52847231613168E+018,36328,7909,9463,6,15
1.52847231615301E+018,900,1.52847231615268E+018,36348,7920,9473,5,15
1.52847231621204E+018,901,1.52847231621171E+018,36408,7949,9506,6,14
1.52847231626994E+018,902,1.5284723162696E+018,36468,7978,9540,6,14
1.52847231629229E+018,903,1.52847231629186E+018,36488,7987,9551,7,14
1.52847231634971E+018,904,1.52847231634948E+018,36548,8018,9581,5,16
1.52847231637192E+018,905,1.52847231637161E+018,36568,8028,9591,5,16
1.52847231642989E+018,906,1.52847231642954E+018,36628,8058,9624,6,14
1.52847231645191E+018,907,1.52847231645159E+018,36648,8069,9637,5,13
1.52847231651177E+018,908,1.52847231651145E+018,36708,8097,9668,7,15
1.52847231657175E+018,909,1.52847231657143E+018,36768,8128,9699,6,15
1.5284723166318E+018,910,1.52847231663143E+018,36828,8158,9732,6,14
1.52847231669035E+018,911,1.52847231668966E+018,36888,8188,9765,6,14
1.52847231671163E+018,912,1.52847231671135E+018,36908,8198,9775,6,15
1.52847231677089E+018,913,1.52847231677054E+018,36968,8228,9806,6,15
1.52847231679266E+018,914,1.52847231679173E+018,36988,8238,9817,6,15
1.52847231685164E+018,915,1.52847231685129E+018,37048,8270,9851,5,14
1.52847231691067E+018,916,1.5284723169103E+018,37108,8301,9883,6,15
1.52847231696847E+018,917,1.52847231696814E+018,37168,8329,9914,7,15
1.52847231699145E+018,918,1.52847231699051E+018,37188,8340,9924,6,15
1.52847231705059E+018,919,1.52847231705024E+018,37248,8372,9958,5,14
1.5284723171084E+018,920,1.52847231710804E+018,37308,8403,9990,6,15
1.52847231713066E+018,921,1.52847231713025E+018,37328,8412,10000,6,16
1.52847231718854E+018,922,1.52847231718811E+018,37388,8442,10032,6,15
1.52847231721044E+018,923,1.52847231721013E+018,37408,8453,10044,5,15
1.52847231727059E+018,924,1.52847231727015E+018,37468,8485,10077,5,15
1.52847231732829E+018,925,1.52847231732801E+018,37528,8515,10109,6,15
1.5284723173504E+018,926,1.5284723173501E+018,37548,8523,10119,8,16
1.52847231740926E+018,927,1.52847231740895E+018,37608,8553,10152,6,15
1.52847231743009E+018,928,1.52847231742986E+018,37628,8564,10164,5,14
1.52847231749004E+018,929,1.52847231748975E+018,37688,8597,10197,5,15
1.52847231754892E+018,930,1.52847231754869E+018,37748,8625,10229,7,15
1.52847231756986E+018,931,1.52847231756963E+018,37768,8634,10239,8,16
1.52847231762915E+018,932,1.52847231762877E+018,37828,8666,10274,6,14
1.52847231768686E+018,933,1.52847231768655E+018,37888,8698,10307,6,15
1.52847231770996E+018,934,1.52847231770962E+018,37908,8709,10319,5,14
1.52847231776917E+018,935,1.52847231776877E+018,37968,8736,10349,8,16
1.52847231782687E+018,936,1.5284723178265E+018,38028,8767,10384,6,14
1.52847231784886E+018,937,1.52847231784853E+018,38048,8778,10396,6,13
1.52847231790893E+018,938,1.52847231790849E+018,38108,8810,10428,6,15
1.5284723179667E+018,939,1.52847231796638E+018,38168,8839,10460,7,15
1.5284723179888E+018,940,1.52847231798844E+018,38188,8849,10471,7,15
1.52847231804877E+018,941,1.52847231804842E+018,38248,8879,10504,7,15
1.52847231810879E+018,942,1.52847231810846E+018,38308,8913,10540,5,13
1.52847231816769E+018,943,1.52847231816736E+018,38368,8942,10571,7,16
1.52847231822568E+018,944,1.52847231822539E+018,38428,8973,10605,6,14
1.52847231824903E+018,945,1.52847231824867E+018,38448,8983,10617,6,14
1.52847231830767E+018,946,1.52847231830733E+018,38508,9017,10651,5,14
1.52847231836583E+018,947,1.52847231836543E+018,38568,9046,10682,7,16
1.52847231838798E+018,948,1.52847231838743E+018,38588,9056,10693,7,16
1.52847231844768E+018,949,1.52847231844734E+018,38648,9087,10728,6,14
1.52847231850754E+018,950,1.52847231850727E+018,38708,9120,10761,5,15
1.52847231856759E+018,951,1.52847231856724E+018,38768,9149,10793,7,15
1.52847231862752E+018,952,1.5284723186272E+018,38828,9179,10828,7,14
1.52847231868751E+018,953,1.52847231868716E+018,38888,9212,10862,5,14
1.52847231874758E+018,954,1.52847231874719E+018,38948,9243,10893,6,16
1.52847231880644E+018,955,1.5284723188061E+018,39008,9274,10927,7,14
1.52847231886453E+018,956,1.52847231886413E+018,39068,9305,10961,7,14
1.52847231888841E+018,957,1.52847231888753E+018,39088,9316,10972,6,15
1.52847231894637E+018,958,1.52847231894605E+018,39148,9347,11005,7,15
1.52847231900444E+018,959,1.52847231900411E+018,39208,9377,11039,7,14
1.52847231902637E+018,960,1.52847231902607E+018,39228,9388,11051,7,15
1.52847231908647E+018,961,1.52847231908609E+018,39288,9420,11085,6,14
1.52847231914638E+018,962,1.52847231914608E+018,39348,9451,11119,7,14
1.52847231920629E+018,963,1.52847231920598E+018,39408,9481,11153,7,14
1.52847231926633E+018,964,1.52847231926597E+018,39468,9512,11186,7,15
1.52847231932521E+018,965,1.52847231932493E+018,39528,9542,11220,7,14
1.52847231934646E+018,966,1.52847231934606E+018,39548,9554,11231,6,14
1.52847231940621E+018,967,1.52847231940586E+018,39608,9586,11266,6,14
1.52847231946514E+018,968,1.52847231946485E+018,39668,9615,11299,8,15
1.52847231952308E+018,969,1.52847231952278E+018,39728,9647,11334,6,14
1.5284723195451E+018,970,1.52847231954481E+018,39748,9657,11345,7,14
1.52847231960539E+018,971,1.528472319605E+018,39808,9680,11393,-4,22
