%time,field.transforms0.header.seq,field.transforms0.header.stamp,field.transforms0.header.frame_id,field.transforms0.child_frame_id,field.transforms0.transform.translation.x,field.transforms0.transform.translation.y,field.transforms0.transform.translation.z,field.transforms0.transform.rotation.x,field.transforms0.transform.rotation.y,field.transforms0.transform.rotation.z,field.transforms0.transform.rotation.w
1528472872471441777,0,1528472872471131606,odom,base_footprint,0.0,0.0,0.0,0.0,0.0,0.0,1.0
1528472872530325858,0,1528472872530010188,odom,base_footprint,0.0,0.0,0.0,0.0,0.0,0.0,1.0
1528472872551234844,0,1528472872550944082,odom,base_footprint,0.0,0.0,0.0,0.0,0.0,0.0,1.0
1528472872610490128,0,1528472872610088820,odom,base_footprint,0.0,0.0,0.0,0.0,0.0,0.0,1.0
1528472872670485241,0,1528472872670026150,odom,base_footprint,0.0,0.0,0.0,0.0,0.0,0.0,1.0
1528472872728361562,0,1528472872727993201,odom,base_footprint,0.0,0.0,0.0,0.0,0.0,0.0,1.0
1528472872750430801,0,1528472872750011040,odom,base_footprint,0.0,0.0,0.0,0.0,0.0,0.0,1.0
1528472872808521306,0,1528472872808091924,odom,base_footprint,0.0,0.0,0.0,0.0,0.0,0.0,1.0
1528472872830366753,0,1528472872829951864,odom,base_footprint,0.0,0.0,0.0,0.0,0.0,0.0,1.0
1528472872890358313,0,1528472872889953166,odom,base_footprint,0.0,0.0,0.0,0.0,0.0,0.0,1.0
1528472872948385262,0,1528472872947884389,odom,base_footprint,0.0,0.0,0.0,0.0,0.0,0.0,1.0
1528472872970830815,0,1528472872970171531,odom,base_footprint,0.0,0.0,0.0,0.0,0.0,0.0,1.0
1528472873029308857,0,1528472873028926779,odom,base_footprint,0.0,0.0,0.0,0.0,0.0,0.0,1.0
1528472873050468588,0,1528472873049994297,odom,base_footprint,0.0,0.0,0.0,0.0,0.0,0.0,1.0
1528472873109367503,0,1528472873108931194,odom,base_footprint,0.0,0.0,0.0,0.0,0.0,0.0,1.0
1528472873169377325,0,1528472873168918349,odom,base_footprint,0.0,0.0,0.0,0.0,0.0,0.0,1.0
1528472873227300294,0,1528472873226786526,odom,base_footprint,0.0,0.0,0.0,0.0,0.0,0.0,1.0
1528472873249166363,0,1528472873248783307,odom,base_footprint,0.0,0.0,0.0,0.0,0.0,0.0,1.0
1528472873309170447,0,1528472873308781709,odom,base_footprint,0.0,0.0,0.0,0.0,0.0,0.0,1.0
1528472873369159166,0,1528472873368804721,odom,base_footprint,0.0,0.0,0.0,0.0,0.0,0.0,1.0
1528472873429363504,0,1528472873428908617,odom,base_footprint,0.0,0.0,0.0,0.0,0.0,0.0,1.0
1528472873489124386,0,1528472873488697539,odom,base_footprint,0.0,0.0,0.0,0.0,0.0,0.0,1.0
1528472873548173778,0,1528472873547693578,odom,base_footprint,0.0,0.0,0.0,0.0,0.0,0.0,1.0
1528472873569191085,0,1528472873568742858,odom,base_footprint,0.0,0.0,0.0,0.0,0.0,0.0,1.0
1528472873627973169,0,1528472873627637413,odom,base_footprint,0.0,0.0,0.0,0.0,0.0,0.0,1.0
1528472873688161420,0,1528472873687720270,odom,base_footprint,0.0,0.0,0.0,0.0,0.0,0.0,1.0
1528472873745810795,0,1528472873745463673,odom,base_footprint,0.0,0.0,0.0,0.0,0.0,0.0,1.0
1528472873767849463,0,1528472873767523009,odom,base_footprint,0.0,0.0,0.0,0.0,0.0,0.0,1.0
1528472873827930551,0,1528472873827528020,odom,base_footprint,0.0,0.0,0.0,0.0,0.0,0.0,1.0
1528472873887911211,0,1528472873887560972,odom,base_footprint,0.0,0.0,0.0,0.0,0.0,0.0,1.0
1528472873947806093,0,1528472873947434995,odom,base_footprint,0.0,0.0,0.0,0.0,0.0,0.0,1.0
1528472874007764547,0,1528472874007398917,odom,base_footprint,0.0,0.0,0.0,0.0,0.0,0.0,1.0
1528472874066818460,0,1528472874066436863,odom,base_footprint,0.0,0.0,0.0,0.0,0.0,0.0,1.0
1528472874087764126,0,1528472874087385410,odom,base_footprint,0.0,0.0,0.0,0.0,0.0,0.0,1.0
1528472874146786516,0,1528472874146407164,odom,base_footprint,0.0,0.0,0.0,0.0,0.0,0.0,1.0
1528472874204719353,0,1528472874204241322,odom,base_footprint,0.0,0.0,0.0,0.0,0.0,0.0,1.0
1528472874227683219,0,1528472874227327792,odom,base_footprint,0.0,0.0,0.0,0.0,0.0,0.0,1.0
1528472874286819252,0,1528472874286364456,odom,base_footprint,0.0,0.0,0.0,0.0,0.0,0.0,1.0
1528472874344631535,0,1528472874344234261,odom,base_footprint,0.0,0.0,0.0,0.0,0.0,0.0,1.0
1528472874366838035,0,1528472874366357028,odom,base_footprint,0.0,0.0,0.0,0.0,0.0,0.0,1.0
1528472874426731499,0,1528472874426309067,odom,base_footprint,0.0,0.0,0.0,0.0,0.0,0.0,1.0
1528472874484695021,0,1528472874484233499,odom,base_footprint,0.0,0.0,0.0,0.0,0.0,0.0,1.0
1528472874506542432,0,1528472874506201183,odom,base_footprint,0.0,0.0,0.0,0.0,0.0,0.0,1.0
1528472874566608154,0,1528472874566189271,odom,base_footprint,0.0,0.0,0.0,0.0,0.0,0.0,1.0
1528472874626578676,0,1528472874626139270,odom,base_footprint,0.0,0.0,0.0,0.0,0.0,0.0,1.0
1528472874685492765,0,1528472874685089844,odom,base_footprint,0.0,0.0,0.0,0.0,0.0,0.0,1.0
1528472874743387774,0,1528472874743013910,odom,base_footprint,0.0,0.0,0.0,0.0,0.0,0.0,1.0
1528472874766612940,0,1528472874766184510,odom,base_footprint,0.0,0.0,0.0,0.0,0.0,0.0,1.0
1528472874825503976,0,1528472874825048784,odom,base_footprint,0.0,0.0,0.0,0.0,0.0,0.0,1.0
1528472874883346001,0,1528472874882976398,odom,base_footprint,0.0,0.0,0.0,0.0,0.0,0.0,1.0
1528472874905438836,0,1528472874904973732,odom,base_footprint,0.0,0.0,0.0,0.0,0.0,0.0,1.0
1528472874966071343,0,1528472874965359918,odom,base_footprint,0.0,0.0,0.0,0.0,0.0,0.0,1.0
1528472875023409474,0,1528472875022962657,odom,base_footprint,0.0,0.0,0.0,0.0,0.0,0.0,1.0
1528472875045259566,0,1528472875044908901,odom,base_footprint,0.0,0.0,0.0,0.0,0.0,0.0,1.0
1528472875105180649,0,1528472875104788046,odom,base_footprint,0.0,0.0,0.0,0.0,0.0,0.0,1.0
1528472875165876482,0,1528472875164957718,odom,base_footprint,0.0,0.0,0.0,0.0,0.0,0.0,1.0
1528472875225215960,0,1528472875224804384,odom,base_footprint,0.0,0.0,0.0,0.0,0.0,0.0,1.0
1528472875285367927,0,1528472875284895555,odom,base_footprint,0.0,0.0,0.0,0.0,0.0,0.0,1.0
1528472875343988543,0,1528472875343635196,odom,base_footprint,0.0,0.0,0.0,0.0,0.0,0.0,1.0
1528472875365019311,0,1528472875364719598,odom,base_footprint,0.0,0.0,0.0,0.0,0.0,0.0,1.0
1528472875424039085,0,1528472875423652797,odom,base_footprint,0.0,0.0,0.0,0.0,0.0,0.0,1.0
1528472875484001077,0,1528472875483651519,odom,base_footprint,0.0,0.0,0.0,0.0,0.0,0.0,1.0
1528472875542029449,0,1528472875541611223,odom,base_footprint,0.0,0.0,0.0,0.0,0.0,0.0,1.0
1528472875564061332,0,1528472875563691346,odom,base_footprint,0.0,0.0,0.0,0.0,0.0,0.0,1.0
1528472875622071797,0,1528472875621655615,odom,base_footprint,0.0,0.0,0.0,0.0,0.0,0.0,1.0
1528472875644165322,0,1528472875643754903,odom,base_footprint,0.0,0.0,0.0,0.0,0.0,0.0,1.0
1528472875703871969,0,1528472875703541640,odom,base_footprint,0.0,0.0,0.0,0.0,0.0,0.0,1.0
1528472875762271895,0,1528472875761733836,odom,base_footprint,0.0,0.0,0.0,0.0,0.0,0.0,1.0
1528472875783922255,0,1528472875783519684,odom,base_footprint,0.0,0.0,0.0,0.0,0.0,0.0,1.0
1528472875842882952,0,1528472875842530848,odom,base_footprint,0.0,0.0,0.0,0.0,0.0,0.0,1.0
1528472875863851186,0,1528472875863533085,odom,base_footprint,0.0,0.0,0.0,0.0,0.0,0.0,1.0
1528472875923766811,0,1528472875923411289,odom,base_footprint,0.0,0.0,0.0,0.0,0.0,0.0,1.0
1528472875982885488,0,1528472875982400778,odom,base_footprint,0.0,0.0,0.0,0.0,0.0,0.0,1.0
1528472876040785894,0,1528472876040367402,odom,base_footprint,0.0,0.0,0.0,0.0,0.0,0.0,1.0
1528472876062789802,0,1528472876062432902,odom,base_footprint,0.0,0.0,0.0,0.0,0.0,0.0,1.0
1528472876123001617,0,1528472876122561519,odom,base_footprint,0.0,0.0,0.0,0.0,0.0,0.0,1.0
1528472876182743721,0,1528472876182305397,odom,base_footprint,0.0,0.0,0.0,0.0,0.0,0.0,1.0
1528472876242861422,0,1528472876242434822,odom,base_footprint,0.0,0.0,0.0,0.0,0.0,0.0,1.0
1528472876302678961,0,1528472876302274210,odom,base_footprint,0.0,0.0,0.0,0.0,0.0,0.0,1.0
1528472876361792501,0,1528472876361394737,odom,base_footprint,0.0,0.0,0.0,0.0,0.0,0.0,1.0
1528472876382668141,0,1528472876382271168,odom,base_footprint,0.0,0.0,0.0,0.0,0.0,0.0,1.0
1528472876441699396,0,1528472876441281821,odom,base_footprint,0.0,0.0,0.0,0.0,0.0,0.0,1.0
1528472876499924814,0,1528472876499324802,odom,base_footprint,0.0,0.0,0.0,0.0,0.0,0.0,1.0
1528472876522670557,0,1528472876522302310,odom,base_footprint,0.0,0.0,0.0,0.0,0.0,0.0,1.0
1528472876581350384,0,1528472876581122565,odom,base_footprint,0.0,0.0,0.0,0.0,0.0,0.0,1.0
1528472876641656182,0,1528472876641227751,odom,base_footprint,0.0,0.0,0.0,0.0,0.0,0.0,1.0
1528472876699528543,0,1528472876699125135,odom,base_footprint,0.0,0.0,0.0,0.0,0.0,0.0,1.0
1528472876721502216,0,1528472876721153314,odom,base_footprint,0.0,0.0,0.0,0.0,0.0,0.0,1.0
1528472876779454943,0,1528472876779019251,odom,base_footprint,0.0,0.0,0.0,0.0,0.0,0.0,1.0
1528472876801410333,0,1528472876801061437,odom,base_footprint,0.0,0.0,0.0,0.0,0.0,0.0,1.0
1528472876861583689,0,1528472876861151485,odom,base_footprint,0.0,0.0,0.0,0.0,0.0,0.0,1.0
1528472876921424250,0,1528472876921061552,odom,base_footprint,0.0,0.0,0.0,0.0,0.0,0.0,1.0
1528472876980566502,0,1528472876980125593,odom,base_footprint,0.0,0.0,0.0,0.0,0.0,0.0,1.0
1528472877038236005,0,1528472877037860331,odom,base_footprint,0.0,0.0,0.0,0.0,0.0,0.0,1.0
1528472877061305651,0,1528472877060971388,odom,base_footprint,0.0,0.0,0.0,0.0,0.0,0.0,1.0
1528472877120477872,0,1528472877119979771,odom,base_footprint,0.0,0.0,0.0,0.0,0.0,0.0,1.0
1528472877178295989,0,1528472877177868295,odom,base_footprint,0.0,0.0,0.0,0.0,0.0,0.0,1.0
1528472877200161025,0,1528472877199822212,odom,base_footprint,0.0,0.0,0.0,0.0,0.0,0.0,1.0
1528472877260228681,0,1528472877259813427,odom,base_footprint,0.000213230220834,0.0,0.0,0.0,0.0,0.0,1.0
1528472877320138884,0,1528472877319767931,odom,base_footprint,0.00200436407584,0.0,0.0,0.0,0.0,0.0,1.0
1528472877380197775,0,1528472877379797886,odom,base_footprint,0.00328374540084,0.0,0.0,0.0,0.0,-0.000261799384809,0.999999965731
1528472877440038707,0,1528472877439667710,odom,base_footprint,0.00473371070375,-7.59200126644e-07,0.0,0.0,0.0,-0.00034906584331,0.999999939077
1528472877500216729,0,1528472877499744046,odom,base_footprint,0.00643955205472,-1.95010224376e-06,0.0,0.0,0.0,-0.000261799384809,0.999999965731
1528472877559989263,0,1528472877559647288,odom,base_footprint,0.00810274754924,-2.82094944785e-06,0.0,0.0,0.0,0.0,1.0
1528472877618966970,0,1528472877618566940,odom,base_footprint,0.00968065118341,-2.82094944785e-06,0.0,0.0,0.0,-8.7266462489e-05,0.999999996192
1528472877677515795,0,1528472877676867061,odom,base_footprint,0.0113438468806,-3.11123186101e-06,0.0,0.0,0.0,-0.00034906584331,0.999999939077
1528472877699723648,0,1528472877699497007,odom,base_footprint,0.0118555992859,-3.46850249614e-06,0.0,0.0,0.0,-0.000436332299153,0.999999904807
1528472877758765519,0,1528472877758417504,odom,base_footprint,0.0136893784868,-5.0687771429e-06,0.0,0.0,0.0,-0.000872664515235,0.999999619228
1528472877816730400,0,1528472877816320477,odom,base_footprint,0.0154378636345,-8.12046251658e-06,0.0,0.0,0.0,-0.000698131644088,0.999999756306
1528472877838977534,0,1528472877838525910,odom,base_footprint,0.0159496156657,-8.83500361273e-06,0.0,0.0,0.0,-0.000610865200207,0.999999813422
1528472877898810353,0,1528472877898453959,odom,base_footprint,0.0175701641346,-1.08148780507e-05,0.0,0.0,0.0,-0.000523598751674,0.999999862922
1528472877956792137,0,1528472877956377459,odom,base_footprint,0.0192333589451,-1.25565722202e-05,0.0,0.0,0.0,-0.000523598751674,0.999999862922
1528472877979230694,0,1528472877978707004,odom,base_footprint,0.0197877572153,-1.31371369433e-05,0.0,0.0,0.0,-0.000523598751674,0.999999862922
1528472878038838187,0,1528472878038456415,odom,base_footprint,0.0215362440674,-1.49681487625e-05,0.0,0.0,0.0,-0.000872664515235,0.999999619228
1528472878098769965,0,1528472878098337745,odom,base_footprint,0.0233700211736,-1.81686968373e-05,0.0,0.0,0.0,-0.00122173017247,0.999999253687
1528472878158847148,0,1528472878158387961,odom,base_footprint,0.0251611496816,-2.25452581182e-05,0.0,0.0,0.0,-0.0010471973598,0.999999451689
1528472878218843389,0,1528472878218383055,odom,base_footprint,0.0269522796082,-2.62965973493e-05,0.0,0.0,0.0,-0.000959930941173,0.999999539266
1528472878278483006,0,1528472878277362651,odom,base_footprint,0.0286581182312,-2.95715764255e-05,0.0,0.0,0.0,-0.000959930941173,0.999999539266
1528472878298827994,0,1528472878298251125,odom,base_footprint,0.0293404536803,-3.0881568056e-05,0.0,0.0,0.0,-0.0010471973598,0.999999451689
1528472878357832673,0,1528472878357381244,odom,base_footprint,0.0311315836069,-3.46329072872e-05,0.0,0.0,0.0,-0.00148352932002,0.99999889957
1528472878417597865,0,1528472878417166282,odom,base_footprint,0.0329227095779,-3.9947300619e-05,0.0,0.0,0.0,-0.00157079568083,0.9999987663
1528472878475556391,0,1528472878475148192,odom,base_footprint,0.0346711887603,-4.54403280447e-05,0.0,0.0,0.0,-0.00148352932002,0.99999889957
1528472878497540938,0,1528472878497203669,odom,base_footprint,0.0352682307506,-4.72117924887e-05,0.0,0.0,0.0,-0.00148352932002,0.99999889957
1528472878557533652,0,1528472878557198441,odom,base_footprint,0.0371446484344,-5.27792521696e-05,0.0,0.0,0.0,-0.00148352932002,0.99999889957
1528472878617484072,0,1528472878617064397,odom,base_footprint,0.0389784202618,-5.8220178676e-05,0.0,0.0,0.0,-0.00157079568083,0.9999987663
1528472878677422289,0,1528472878677043489,odom,base_footprint,0.0408548369454,-6.41151349378e-05,0.0,0.0,0.0,-0.00200712729215,0.999997985718
1528472878737476495,0,1528472878737038392,odom,base_footprint,0.0427738934707,-7.1818762944e-05,0.0,0.0,0.0,-0.00200712729215,0.999997985718
1528472878797402027,0,1528472878797016987,odom,base_footprint,0.0446076585949,-7.91800074832e-05,0.0,0.0,0.0,-0.0017453283659,0.999998476913
1528472878857394981,0,1528472878857062006,odom,base_footprint,0.0465267188907,-8.58788188323e-05,0.0,0.0,0.0,-0.00165806202968,0.999998625414
1528472878916229832,0,1528472878915894723,odom,base_footprint,0.0484031345168,-9.21012714952e-05,0.0,0.0,0.0,-0.00183259468883,0.999998320797
1528472878974289782,0,1528472878973888520,odom,base_footprint,0.050364839372,-9.92913275133e-05,0.0,0.0,0.0,-0.00218165983434,0.999997620177
1528472878996264227,0,1528472878995928912,odom,base_footprint,0.0510471695833,-0.000102268573601,0.0,0.0,0.0,-0.00226892608084,0.999997425984
1528472879054258450,0,1528472879053863196,odom,base_footprint,0.052966221812,-0.000110977016152,0.0,0.0,0.0,-0.00235619231006,0.999997224175
1528472879076484807,0,1528472879076039001,odom,base_footprint,0.0536059053718,-0.000113991476224,0.0,0.0,0.0,-0.00218165983434,0.999997620177
1528472879134243886,0,1528472879133870243,odom,base_footprint,0.0555249590911,-0.000122364980845,0.0,0.0,0.0,-0.00218165983434,0.999997620177
1528472879156074158,0,1528472879155786848,odom,base_footprint,0.0562072893024,-0.000125342226933,0.0,0.0,0.0,-0.00218165983434,0.999997620177
1528472879214218217,0,1528472879213769871,odom,base_footprint,0.0581263430218,-0.000133715731554,0.0,0.0,0.0,-0.00253072471402,0.999996797711
1528472879236201557,0,1528472879235837385,odom,base_footprint,0.0587660254904,-0.000136953483123,0.0,0.0,0.0,-0.00261799088742,0.999996573056
1528472879296127777,0,1528472879295792421,odom,base_footprint,0.0607277166313,-0.000147224967785,0.0,0.0,0.0,-0.002967055375,0.999995598282
1528472879356381954,0,1528472879355818056,odom,base_footprint,0.06264675483,-0.000158612903369,0.0,0.0,0.0,-0.00270525704088,0.999996340785
1528472879416187560,0,1528472879415786763,odom,base_footprint,0.0646510895683,-0.000169457503744,0.0,0.0,0.0,-0.00270525704088,0.999996340785
1528472879476260072,0,1528472879475812427,odom,base_footprint,0.0666127788867,-0.00018007136794,0.0,0.0,0.0,-0.002967055375,0.999995598282
1528472879535081683,0,1528472879534657182,odom,base_footprint,0.0687023982586,-0.000192471564465,0.0,0.0,0.0,-0.00331611950106,0.999994501661
1528472879593054662,0,1528472879592662957,odom,base_footprint,0.0706640731456,-0.000205482075769,0.0,0.0,0.0,-0.00349065141522,0.999993907658
1528472879615049604,0,1528472879614695215,odom,base_footprint,0.0713463932242,-0.000210245645929,0.0,0.0,0.0,-0.0034033854711,0.999994208467
1528472879675446602,0,1528472879674716329,odom,base_footprint,0.0733507108668,-0.000223888814063,0.0,0.0,0.0,-0.00314158748588,0.999995065202
1528472879733009363,0,1528472879732650733,odom,base_footprint,0.0753976805806,-0.000236750473346,0.0,0.0,0.0,-0.0034033854711,0.999994208467
1528472879754880388,0,1528472879754540061,odom,base_footprint,0.0760800014802,-0.000241394956115,0.0,0.0,0.0,-0.0034033854711,0.999994208467
1528472879815119275,0,1528472879814641591,odom,base_footprint,0.0780416740666,-0.000254747844075,0.0,0.0,0.0,-0.00357791733276,0.999993599233
1528472879875213578,0,1528472879874612389,odom,base_footprint,0.0801739216816,-0.00027000614847,0.0,0.0,0.0,-0.00392698072381,0.999992289381
1528472879935017405,0,1528472879934578630,odom,base_footprint,0.082220868667,-0.000286083163071,0.0,0.0,0.0,-0.0034033854711,0.999994208467
1528472879994860312,0,1528472879994464131,odom,base_footprint,0.0844384115908,-0.000301177732069,0.0,0.0,0.0,-0.00366518322306,0.999993283193
1528472880054032684,0,1528472880053566776,odom,base_footprint,0.0865280116119,-0.000316495574612,0.0,0.0,0.0,-0.00383971491924,0.999992628267
1528472880074823988,0,1528472880074408217,odom,base_footprint,0.0872956177719,-0.000322390482629,0.0,0.0,0.0,-0.00401424649846,0.99999194288
1528472880134703504,0,1528472880134298944,odom,base_footprint,0.0893425619202,-0.000338824756628,0.0,0.0,0.0,-0.0041887779554,0.999991227031
1528472880193652053,0,1528472880193316678,odom,base_footprint,0.0914747893024,-0.000356688080881,0.0,0.0,0.0,-0.00375244908544,0.999992959538
1528472880251600942,0,1528472880251244503,odom,base_footprint,0.0936496763045,-0.000373010731123,0.0,0.0,0.0,-0.00410151224255,0.999991588763
1528472880273628810,0,1528472880273304029,odom,base_footprint,0.0943746346635,-0.000378957732358,0.0,0.0,0.0,-0.0041887779554,0.999991227031
1528472880333665906,0,1528472880333285361,odom,base_footprint,0.0965068620456,-0.000396821056611,0.0,0.0,0.0,-0.00445057489991,0.999990096142
1528472880391630956,0,1528472880391252416,odom,base_footprint,0.0986390797823,-0.000415800810011,0.0,0.0,0.0,-0.00453784048118,0.999989703949
1528472880413883684,0,1528472880413368137,odom,base_footprint,0.0993213883876,-0.00042199341651,0.0,0.0,0.0,-0.00445057489991,0.999990096142
1528472880473786604,0,1528472880473285075,odom,base_footprint,0.101538894834,-0.000441732360046,0.0,0.0,0.0,-0.00427604363636,0.999990857684
1528472880533550649,0,1528472880533254309,odom,base_footprint,0.103756408035,-0.000460697246622,0.0,0.0,0.0,-0.00462510602789,0.99998930414
1528472880593549933,0,1528472880593169523,odom,base_footprint,0.105888619017,-0.000480421283248,0.0,0.0,0.0,-0.00488690245402,0.999988059021
1528472880652649386,0,1528472880652286622,odom,base_footprint,0.1081487514,-0.000502512167595,0.0,0.0,0.0,-0.00497416785586,0.999987628751
1528472880710513789,0,1528472880710117803,odom,base_footprint,0.110323592026,-0.000524149015289,0.0,0.0,0.0,-0.00445057489991,0.999990096142
1528472880733573983,0,1528472880733177241,odom,base_footprint,0.111133834766,-0.000531361321581,0.0,0.0,0.0,-0.00453784048118,0.999989703949
1528472880792812799,0,1528472880792259018,odom,base_footprint,0.113436626309,-0.000552261368513,0.0,0.0,0.0,-0.00488690245402,0.999988059021
1528472880850354611,0,1528472880850009839,odom,base_footprint,0.115611470678,-0.000573518634583,0.0,0.0,0.0,-0.00514869854522,0.999986745364
1528472880872353156,0,1528472880872030866,odom,base_footprint,0.116379058775,-0.000581423108331,0.0,0.0,0.0,-0.00523596383142,0.999986292247
1528472880932447569,0,1528472880932074156,odom,base_footprint,0.118639175185,-0.000605091857231,0.0,0.0,0.0,-0.00479963701497,0.999988481676
1528472880990349318,0,1528472880989994233,odom,base_footprint,0.12089931139,-0.000626788273727,0.0,0.0,0.0,-0.00506143321981,0.999987190865
1528472881012410283,0,1528472881012061501,odom,base_footprint,0.121666900854,-0.000634558777959,0.0,0.0,0.0,-0.00514869854522,0.999986745364
1528472881072621667,0,1528472881071975598,odom,base_footprint,0.123841733795,-0.000656954786911,0.0,0.0,0.0,-0.00532322907774,0.999985831516
1528472881130312494,0,1528472881129893555,odom,base_footprint,0.125973915158,-0.000679655931502,0.0,0.0,0.0,-0.00549775944811,0.999984887206
1528472881152494182,0,1528472881152069796,odom,base_footprint,0.126698854084,-0.000687627372566,0.0,0.0,0.0,-0.00532322907774,0.999985831516
1528472881212322605,0,1528472881211928945,odom,base_footprint,0.129044253583,-0.000712598631615,0.0,0.0,0.0,-0.00506143321981,0.999987190865
1528472881272469680,0,1528472881272017721,odom,base_footprint,0.131432309695,-0.000736773533671,0.0,0.0,0.0,-0.00549775944811,0.999984887206
1528472881331318053,0,1528472881330904572,odom,base_footprint,0.133692413403,-0.000761625673458,0.0,0.0,0.0,-0.00567228965101,0.999983912436
1528472881390052207,0,1528472881389112805,odom,base_footprint,0.135952508298,-0.000787266736737,0.0,0.0,0.0,-0.00567228965101,0.999983912436
1528472881411417167,0,1528472881410975647,odom,base_footprint,0.136720087696,-0.000795975022379,0.0,0.0,0.0,-0.00549775944811,0.999984887206
1528472881471490066,0,1528472881470824727,odom,base_footprint,0.139150765269,-0.000822702795358,0.0,0.0,0.0,-0.00532322907774,0.999985831516
1528472881529261644,0,1528472881528819908,odom,base_footprint,0.141496164768,-0.000847674054407,0.0,0.0,0.0,-0.00593408462972,0.999982393165
1528472881551197299,0,1528472881550817165,odom,base_footprint,0.142263739502,-0.00085678424247,0.0,0.0,0.0,-0.00602134953313,0.999981871511
1528472881611249715,0,1528472881610827068,odom,base_footprint,0.144694387752,-0.00088605739993,0.0,0.0,0.0,-0.00602134953313,0.999981871511
1528472881671155402,0,1528472881670755232,odom,base_footprint,0.146911821244,-0.00091276273656,0.0,0.0,0.0,-0.00410151224255,0.999991588763
1528472881730952067,0,1528472881730650162,odom,base_footprint,0.149214630148,-0.000931653211069,0.0,0.0,0.0,-0.00113446377045,0.999999356496
1528472881791140467,0,1528472881790721173,odom,base_footprint,0.151517510606,-0.000936878290049,0.0,0.0,0.0,0.00235619231006,0.999997224175
1528472881850879675,0,1528472881850549727,odom,base_footprint,0.153649789138,-0.000926830089809,0.0,0.0,0.0,0.00750484533293,0.999971838252
1528472881911100821,0,1528472881910662267,odom,base_footprint,0.155653927432,-0.000896746052292,0.0,0.0,0.0,0.0135258892428,0.999908520976
1528472881969914794,0,1528472881969556346,odom,base_footprint,0.157955971192,-0.000834454578811,0.0,0.0,0.0,0.0176269125136,0.999844633908
1528472882027885538,0,1528472882027535359,odom,base_footprint,0.160257426527,-0.000753281638619,0.0,0.0,0.0,0.0224256007952,0.999748514592
1528472882049887967,0,1528472882049558180,odom,base_footprint,0.160853870628,-0.000726510204403,0.0,0.0,0.0,0.0238214907434,0.999716228026
1528472882109778830,0,1528472882109402520,odom,base_footprint,0.162855959898,-0.000631043422331,0.0,0.0,0.0,0.0283577982454,0.999597836772
1528472882167793355,0,1528472882167416664,odom,base_footprint,0.165027410117,-0.000507739543091,0.0,0.0,0.0,0.0346378556028,0.999399929437
1528472882189881868,0,1528472882189440337,odom,base_footprint,0.165708109514,-0.000460498547406,0.0,0.0,0.0,0.0362948750656,0.999341123963
1528472882249796240,0,1528472882249397463,odom,base_footprint,0.167622125446,-0.000321285376047,0.0,0.0,0.0,0.0415268915247,0.999137386589
1528472882309677646,0,1528472882309289238,odom,base_footprint,0.169747073417,-0.000144342376222,0.0,0.0,0.0,0.0462347370243,0.998930602741
1528472882369815715,0,1528472882369418708,odom,base_footprint,0.17187025939,5.26196313758e-05,0.0,0.0,0.0,0.0515516183793,0.998670331312
1528472882429706368,0,1528472882429313179,odom,base_footprint,0.173991228117,0.000272174566786,0.0,0.0,0.0,0.0573897825661,0.998351848226
1528472882488986363,0,1528472882488464456,odom,base_footprint,0.176321310115,0.000540950044921,0.0,0.0,0.0,0.0621808480167,0.998064898762
1528472882509879588,0,1528472882509396391,odom,base_footprint,0.177125319167,0.00064152220353,0.0,0.0,0.0,0.0646193925731,0.997909982966
1528472882568710094,0,1528472882568313577,odom,base_footprint,0.179451263277,0.000944022410472,0.0,0.0,0.0,0.0688859084345,0.997624544415
1528472882626794005,0,1528472882626348470,odom,base_footprint,0.181816776654,0.0012722645166,0.0,0.0,0.0,0.0731511647423,0.997320864665
1528472882648730682,0,1528472882648343612,odom,base_footprint,0.182702759058,0.00140293701454,0.0,0.0,0.0,0.0746306389888,0.997211245286
1528472882706589512,0,1528472882706247161,odom,base_footprint,0.184853479552,0.0017266672413,0.0,0.0,0.0,0.0796770011589,0.996820733877
1528472882728690248,0,1528472882728332416,odom,base_footprint,0.185569257306,0.00184182884713,0.0,0.0,0.0,0.0813296822453,0.996687254251
1528472882787395791,0,1528472882786487326,odom,base_footprint,0.187589187459,0.00217369118276,0.0,0.0,0.0,0.0871557427477,0.996194698092
1528472882808718349,0,1528472882808355565,odom,base_footprint,0.188261157938,0.00229217770843,0.0,0.0,0.0,0.0890681374724,0.996025535259
1528472882869059607,0,1528472882868345331,odom,base_footprint,0.190359628471,0.00267050841871,0.0,0.0,0.0,0.094977069084,0.995479460536
1528472882928512307,0,1528472882928182700,odom,base_footprint,0.192453461203,0.00307371704938,0.0,0.0,0.0,0.100969477078,0.994889523866
1528472882989008955,0,1528472882988485430,odom,base_footprint,0.194500509966,0.00349354349577,0.0,0.0,0.0,0.106611154275,0.994300790397
1528472883046496051,0,1528472883046134315,odom,base_footprint,0.196584340944,0.00394560672444,0.0,0.0,0.0,0.112943093388,0.993601458159
1528472883068797952,0,1528472883068220788,odom,base_footprint,0.197332385775,0.0041178939795,0.0,0.0,0.0,0.114763772489,0.993392810787
1528472883127553049,0,1528472883127103255,odom,base_footprint,0.199533088115,0.00463325366937,0.0,0.0,0.0,0.120656628871,0.992694302346
1528472883185524926,0,1528472883185044876,odom,base_footprint,0.201727519198,0.00517469491214,0.0,0.0,0.0,0.126891488428,0.99191660444
1528472883207468118,0,1528472883207094304,odom,base_footprint,0.20247042812,0.00536793129751,0.0,0.0,0.0,0.1284494302,0.991716060111
1528472883267751017,0,1528472883267122184,odom,base_footprint,0.204862277833,0.00599809918747,0.0,0.0,0.0,0.134937399122,0.99085412565
1528472883325344469,0,1528472883324976689,odom,base_footprint,0.207163487913,0.00663671377112,0.0,0.0,0.0,0.140210030757,0.990121784063
1528472883347317299,0,1528472883346952907,odom,base_footprint,0.207900935306,0.00684984591495,0.0,0.0,0.0,0.141765136802,0.989900321238
1528472883407347845,0,1528472883406969676,odom,base_footprint,0.210234053541,0.00753209743224,0.0,0.0,0.0,0.147377857494,0.989080263235
1528472883467581385,0,1528472883466955453,odom,base_footprint,0.212314521029,0.0081661754518,0.0,0.0,0.0,0.152813355565,0.98825506746
1528472883527314313,0,1528472883526950191,odom,base_footprint,0.214469199459,0.00884885199367,0.0,0.0,0.0,0.159450453036,0.987205932431
1528472883587268041,0,1528472883586928160,odom,base_footprint,0.216614509078,0.00956042281589,0.0,0.0,0.0,0.166338508923,0.986068709801
1528472883646172257,0,1528472883645817728,odom,base_footprint,0.218628816081,0.0102599083451,0.0,0.0,0.0,0.172101031672,0.985079303862
1528472883667119683,0,1528472883666733515,odom,base_footprint,0.219310852645,0.010505725585,0.0,0.0,0.0,0.174937138862,0.984579604423
1528472883726354659,0,1528472883725889369,odom,base_footprint,0.221352681003,0.0112549497536,0.0,0.0,0.0,0.180862465458,0.983508397823
1528472883784114821,0,1528472883783759470,odom,base_footprint,0.223544762924,0.0120893952149,0.0,0.0,0.0,0.187381314586,0.982287250729
1528472883806151344,0,1528472883805797937,odom,base_footprint,0.224298137417,0.0123876772776,0.0,0.0,0.0,0.189352512697,0.981909173975
1528472883866284702,0,1528472883865874193,odom,base_footprint,0.226515062602,0.0132757308491,0.0,0.0,0.0,0.19474795149,0.980853320018
1528472883924101220,0,1528472883923764076,odom,base_footprint,0.229037378839,0.0143184460062,0.0,0.0,0.0,0.200137503911,0.979767819194
1528472883946111116,0,1528472883945811875,odom,base_footprint,0.229861201863,0.0146696663734,0.0,0.0,0.0,0.201761744624,0.979434632023
1528472884006058149,0,1528472884005692975,odom,base_footprint,0.232172467318,0.0156640982575,0.0,0.0,0.0,0.206716503214,0.978400882716
1528472884063999520,0,1528472884063627710,odom,base_footprint,0.234395545246,0.0166473745982,0.0,0.0,0.0,0.212689320059,0.977119876542
1528472884086228473,0,1528472884085789853,odom,base_footprint,0.235093723982,0.0169664363783,0.0,0.0,0.0,0.214650095615,0.976691013808
1528472884145097223,0,1528472884144707316,odom,base_footprint,0.237068252216,0.0178783783457,0.0,0.0,0.0,0.22120809279,0.975226629909
1528472884166079358,0,1528472884165677534,odom,base_footprint,0.237799228665,0.0182279763237,0.0,0.0,0.0,0.224185716583,0.974546440392
1528472884226304759,0,1528472884225837950,odom,base_footprint,0.239793913774,0.0191969736314,0.0,0.0,0.0,0.230389426677,0.973098510982
1528472884284935945,0,1528472884284572144,odom,base_footprint,0.241776091418,0.0201913056941,0.0,0.0,0.0,0.236583786987,0.971611090784
1528472884343098226,0,1528472884342633933,odom,base_footprint,0.243669695664,0.021171599357,0.0,0.0,0.0,0.243615011786,0.969872015285
1528472884365147694,0,1528472884364740007,odom,base_footprint,0.244421377783,0.0215746477728,0.0,0.0,0.0,0.245730362846,0.969338222075
1528472884424983033,0,1528472884424540927,odom,base_footprint,0.246483647714,0.0226920398746,0.0,0.0,0.0,0.25358912065,0.96731202716
1528472884485717426,0,1528472884484883067,odom,base_footprint,0.248490348633,0.0238218350432,0.0,0.0,0.0,0.259577601568,0.965722252392
1528472884545053742,0,1528472884544554889,odom,base_footprint,0.250482895602,0.0249764095443,0.0,0.0,0.0,0.267322467681,0.963607128592
1528472884605017203,0,1528472884604502814,odom,base_footprint,0.252602851312,0.0262507110822,0.0,0.0,0.0,0.27345561459,0.961884622421
1528472884664912536,0,1528472884664483013,odom,base_footprint,0.254633863493,0.0275070493876,0.0,0.0,0.0,0.27991279312,0.960025431042
1528472884724945211,0,1528472884724506878,odom,base_footprint,0.256827625349,0.0289051681651,0.0,0.0,0.0,0.286858965796,0.957972825159
1528472884783887266,0,1528472884783355526,odom,base_footprint,0.259072159307,0.0303817955399,0.0,0.0,0.0,0.292538606935,0.956253712909
1528472884804694847,0,1528472884804277036,odom,base_footprint,0.25974374939,0.0308351299366,0.0,0.0,0.0,0.295207826951,0.955433063541
1528472884863915455,0,1528472884863385967,odom,base_footprint,0.261821318642,0.0322544779489,0.0,0.0,0.0,0.300705799504,0.953716950748
1528472884921595442,0,1528472884921242146,odom,base_footprint,0.263707732732,0.0335753593149,0.0,0.0,0.0,0.306609142583,0.951835507682
1528472884943589838,0,1528472884943321994,odom,base_footprint,0.264331033241,0.0340234111451,0.0,0.0,0.0,0.309597904048,0.950867571121
1528472885001683506,0,1528472885001264257,odom,base_footprint,0.266192452335,0.0353792889637,0.0,0.0,0.0,0.316228613389,0.948683015593
1528472885023926060,0,1528472885023334352,odom,base_footprint,0.266840671337,0.0358654550252,0.0,0.0,0.0,0.318628456287,0.947879690069
1528472885081768557,0,1528472885081265374,odom,base_footprint,0.268709947661,0.0372822572001,0.0,0.0,0.0,0.326145678107,0.94531952093
1528472885103611794,0,1528472885103244875,odom,base_footprint,0.269314269566,0.037755595348,0.0,0.0,0.0,0.327959959121,0.944691624401
1528472885163607749,0,1528472885163227199,odom,base_footprint,0.271155241685,0.0392089858779,0.0,0.0,0.0,0.333642332174,0.942699737022
1528472885223670434,0,1528472885223228713,odom,base_footprint,0.273011729449,0.0407112673437,0.0,0.0,0.0,0.341774120655,0.939782129246
1528472885283374670,0,1528472885283049128,odom,base_footprint,0.274874666933,0.0422727960072,0.0,0.0,0.0,0.347753981862,0.937585819058
1528472885341428115,0,1528472885341018438,odom,base_footprint,0.276782221325,0.0439135516297,0.0,0.0,0.0,0.352658380374,0.935752139592
1528472885363467705,0,1528472885363082721,odom,base_footprint,0.277455028637,0.0445046272957,0.0,0.0,0.0,0.352331719779,0.935875183578
1528472885422373471,0,1528472885422032102,odom,base_footprint,0.279474688027,0.0462764447371,0.0,0.0,0.0,0.35118806988,0.936304939415
1528472885480388382,0,1528472885480025087,odom,base_footprint,0.281498670749,0.0480433219352,0.0,0.0,0.0,0.352331719779,0.935875183578
1528472885502438647,0,1528472885502095288,odom,base_footprint,0.28213983246,0.0486058036627,0.0,0.0,0.0,0.352413388954,0.935844433272
1528472885560417690,0,1528472885560041069,odom,base_footprint,0.284127129402,0.050349843893,0.0,0.0,0.0,0.352005016254,0.93599811353
1528472885582484698,0,1528472885582097112,odom,base_footprint,0.284832839067,0.0509680812656,0.0,0.0,0.0,0.352005016254,0.93599811353
1528472885640239793,0,1528472885639897332,odom,base_footprint,0.286789579502,0.0526822848896,0.0,0.0,0.0,0.351841648405,0.936059535739
1528472885662305820,0,1528472885661974494,odom,base_footprint,0.287495504929,0.0533002758854,0.0,0.0,0.0,0.351923333669,0.936028828199
1528472885720267718,0,1528472885719903822,odom,base_footprint,0.289420461903,0.0549860418679,0.0,0.0,0.0,0.352413388954,0.935844433272
1528472885742335007,0,1528472885741980377,odom,base_footprint,0.290093578609,0.0555767651718,0.0,0.0,0.0,0.352413388954,0.935844433272
1528472885802045217,0,1528472885801784163,odom,base_footprint,0.29217703508,0.0574051944455,0.0,0.0,0.0,0.352168373381,0.935936662809
1528472885862234941,0,1528472885861841757,odom,base_footprint,0.294133177026,0.0591200809963,0.0,0.0,0.0,0.352168373381,0.935936662809
1528472885922092436,0,1528472885921799174,odom,base_footprint,0.296057251071,0.0608068546529,0.0,0.0,0.0,0.352413388954,0.935844433272
1528472885980163297,0,1528472885979761558,odom,base_footprint,0.298044548013,0.0625508948832,0.0,0.0,0.0,0.352331719779,0.935875183578
1528472886002202270,0,1528472886001831884,odom,base_footprint,0.298749825895,0.0631696247834,0.0,0.0,0.0,0.352250047921,0.935905926757
1528472886061346422,0,1528472886060873022,odom,base_footprint,0.300769794494,0.0649410897008,0.0,0.0,0.0,0.352250047921,0.935905926757
1528472886119035850,0,1528472886118645162,odom,base_footprint,0.302661511118,0.0666000806551,0.0,0.0,0.0,0.352495055446,0.935813675838
1528472886141145402,0,1528472886140722550,odom,base_footprint,0.303270428181,0.0671346508809,0.0,0.0,0.0,0.352576719253,0.935782911279
1528472886201145713,0,1528472886200728403,odom,base_footprint,0.305385289638,0.0689919481749,0.0,0.0,0.0,0.352495055446,0.935813675838
1528472886259027832,0,1528472886258665374,odom,base_footprint,0.307372282157,0.0707363352274,0.0,0.0,0.0,0.350861216412,0.936427470132
1528472886281237350,0,1528472886280785876,odom,base_footprint,0.308015207789,0.0712967999135,0.0,0.0,0.0,0.350452589461,0.936580473072
1528472886340973244,0,1528472886340560385,odom,base_footprint,0.309913280521,0.0729485149857,0.0,0.0,0.0,0.350452589461,0.936580473072
1528472886401080297,0,1528472886400627470,odom,base_footprint,0.311875694701,0.0746562203993,0.0,0.0,0.0,0.348326655528,0.937373213319
1528472886461009217,0,1528472886460637448,odom,base_footprint,0.313619755956,0.0761600608297,0.0,0.0,0.0,0.343659694586,0.939094252095
1528472886520986445,0,1528472886520567912,odom,base_footprint,0.315541555827,0.0777841076362,0.0,0.0,0.0,0.340789795892,0.94013951891
1528472886580012333,0,1528472886579610273,odom,base_footprint,0.31763694261,0.0795330182488,0.0,0.0,0.0,0.339066328947,0.940762469795
1528472886600978076,0,1528472886600474165,odom,base_footprint,0.318392270799,0.0801587687871,0.0,0.0,0.0,0.337916718003,0.941176015256
1528472886659837599,0,1528472886659464030,odom,base_footprint,0.320333768227,0.0817592157597,0.0,0.0,0.0,0.335780389393,0.941940300709
1528472886717827532,0,1528472886717432905,odom,base_footprint,0.322381596713,0.0834317658937,0.0,0.0,0.0,0.33323097007,0.94284522621
1528472886739797807,0,1528472886739463219,odom,base_footprint,0.323011921049,0.083940918666,0.0,0.0,0.0,0.331831864835,0.943338546589
1528472886797998252,0,1528472886797525083,odom,base_footprint,0.324874163461,0.0854360606737,0.0,0.0,0.0,0.3265581205,0.945177123049
1528472886819811418,0,1528472886819368419,odom,base_footprint,0.325511622548,0.0859362518638,0.0,0.0,0.0,0.325238086383,0.945632162717
1528472886877704748,0,1528472886877312196,odom,base_footprint,0.327596302056,0.0875626395205,0.0,0.0,0.0,0.322678718201,0.94650855507
1528472886899684385,0,1528472886899320934,odom,base_footprint,0.32833913864,0.0881357340932,0.0,0.0,0.0,0.322100468858,0.946705491672
1528472886959705804,0,1528472886959343000,odom,base_footprint,0.330434558831,0.0897482599635,0.0,0.0,0.0,0.319455515932,0.947601273395
1528472887019651323,0,1528472887019313587,odom,base_footprint,0.332505010507,0.0913232383925,0.0,0.0,0.0,0.316642524327,0.948544944527
1528472887079748984,0,1528472887079325756,odom,base_footprint,0.33451658289,0.0928346679552,0.0,0.0,0.0,0.312169112355,0.950026549782
1528472887139617079,0,1528472887139211421,odom,base_footprint,0.336439307505,0.0942511870947,0.0,0.0,0.0,0.306276870639,0.951942476472
1528472887199604079,0,1528472887199226281,odom,base_footprint,0.338448727675,0.0956935071703,0.0,0.0,0.0,0.303534206887,0.952820541996
1528472887257366051,0,1528472887256982248,odom,base_footprint,0.340501209464,0.097148897592,0.0,0.0,0.0,0.300705799504,0.953716950748
1528472887279676797,0,1528472887279199850,odom,base_footprint,0.341269748538,0.0976870344448,0.0,0.0,0.0,0.299956659295,0.953952830356
1528472887338491407,0,1528472887338069421,odom,base_footprint,0.343612870798,0.0993222272204,0.0,0.0,0.0,0.298124649661,0.954526947375
1528472887396354918,0,1528472887396003200,odom,base_footprint,0.345716796465,0.10077851122,0.0,0.0,0.0,0.293790089132,0.95586996162
1528472887418601571,0,1528472887418131029,odom,base_footprint,0.34635191316,0.101209650119,0.0,0.0,0.0,0.292204793604,0.956355769886
1528472887478328681,0,1528472887477940794,odom,base_footprint,0.348473722865,0.10263975147,0.0,0.0,0.0,0.286942563604,0.957947788344
1528472887536571669,0,1528472887536106419,odom,base_footprint,0.35053988191,0.10399954683,0.0,0.0,0.0,0.283513268955,0.958968313515
1528472887558339922,0,1528472887557981137,odom,base_footprint,0.351219897333,0.104440142268,0.0,0.0,0.0,0.282508884416,0.959264682049
1528472887618285466,0,1528472887617932179,odom,base_footprint,0.353406062565,0.105850109917,0.0,0.0,0.0,0.27957766398,0.960123080549
1528472887678416113,0,1528472887678004923,odom,base_footprint,0.355888634369,0.107429855757,0.0,0.0,0.0,0.276811552523,0.960924224062
1528472887737965408,0,1528472887737757855,odom,base_footprint,0.357910826231,0.108700342471,0.0,0.0,0.0,0.272448181614,0.962170457006
1528472887798013667,0,1528472887797730833,odom,base_footprint,0.360089725154,0.110041858698,0.0,0.0,0.0,0.268667656032,0.963232936834
1528472887858118254,0,1528472887857683459,odom,base_footprint,0.362242603545,0.111344147992,0.0,0.0,0.0,0.263957222474,0.964534387517
1528472887918135174,0,1528472887917719738,odom,base_footprint,0.364371403823,0.112603618514,0.0,0.0,0.0,0.259493325415,0.965744901133
1528472887977618058,0,1528472887976700467,odom,base_footprint,0.366843888011,0.114035714627,0.0,0.0,0.0,0.256120665687,0.966644818229
1528472887997884900,0,1528472887997508921,odom,base_footprint,0.367659011578,0.114500275873,0.0,0.0,0.0,0.254179970591,0.967156937911
1528472888056995263,0,1528472888056560559,odom,base_footprint,0.369998550547,0.115821229508,0.0,0.0,0.0,0.250717936073,0.968060182288
1528472888114890738,0,1528472888114481277,odom,base_footprint,0.372310197455,0.117104706828,0.0,0.0,0.0,0.247252691981,0.96895103401
1528472888136963971,0,1528472888136559802,odom,base_footprint,0.373021401783,0.117492951235,0.0,0.0,0.0,0.245814952628,0.969316774365
1528472888194846947,0,1528472888194444893,odom,base_footprint,0.375120968931,0.118631026018,0.0,0.0,0.0,0.240905671828,0.970548534222
1528472888216906799,0,1528472888216483335,odom,base_footprint,0.375874890362,0.119029869985,0.0,0.0,0.0,0.239380841177,0.970925750445
1528472888274810613,0,1528472888274422010,odom,base_footprint,0.378291436644,0.120298585147,0.0,0.0,0.0,0.235057292609,0.971981516898
1528472888296884522,0,1528472888296502259,odom,base_footprint,0.379088039968,0.120707807906,0.0,0.0,0.0,0.234124149178,0.972206707841
1528472888356773881,0,1528472888356437259,odom,base_footprint,0.381594114988,0.121989127622,0.0,0.0,0.0,0.231832793321,0.972755650686
1528472888416933165,0,1528472888416504890,odom,base_footprint,0.384144262135,0.123277858342,0.0,0.0,0.0,0.229285333414,0.973359253247
1528472888477394191,0,1528472888476507045,odom,base_footprint,0.386395825363,0.124400937058,0.0,0.0,0.0,0.224610921331,0.974448528153
1528472888534734422,0,1528472888534288376,odom,base_footprint,0.388658065472,0.125502350907,0.0,0.0,0.0,0.218228405369,0.975897721634
1528472888556728176,0,1528472888556323921,odom,base_footprint,0.389468332091,0.125883806183,0.0,0.0,0.0,0.216439613938,0.97629600712
1528472888615663667,0,1528472888615276280,odom,base_footprint,0.391594106396,0.126875071021,0.0,0.0,0.0,0.211921826383,0.977286620958
1528472888636918130,0,1528472888636412476,odom,base_footprint,0.392370416458,0.127228365121,0.0,0.0,0.0,0.210471759821,0.977599937765
1528472888696552620,0,1528472888696172336,odom,base_footprint,0.394935687587,0.128386629449,0.0,0.0,0.0,0.207911690818,0.978147600734
1528472888755788108,0,1528472888755349093,odom,base_footprint,0.397506988183,0.129531446233,0.0,0.0,0.0,0.204239777954,0.978920892157
1528472888813528920,0,1528472888813168818,odom,base_footprint,0.399891367141,0.130571669372,0.0,0.0,0.0,0.200479495198,0.979697898337
1528472888835437267,0,1528472888835095547,odom,base_footprint,0.400714944767,0.13092346479,0.0,0.0,0.0,0.198940342639,0.980011602008
1528472888895641083,0,1528472888895192681,odom,base_footprint,0.403031899371,0.13190456832,0.0,0.0,0.0,0.192008136522,0.98139333374
1528472888955488596,0,1528472888955089027,odom,base_footprint,0.405322990438,0.13283674767,0.0,0.0,0.0,0.187809900403,0.982205396702
1528472889015582753,0,1528472889015138265,odom,base_footprint,0.408018345468,0.133906636022,0.0,0.0,0.0,0.184037127203,0.982919292623
1528472889075451169,0,1528472889075083895,odom,base_footprint,0.410523050944,0.134878650206,0.0,0.0,0.0,0.179832438891,0.983697257251
1528472889135438304,0,1528472889135000818,odom,base_footprint,0.413235416115,0.13590464972,0.0,0.0,0.0,0.176311700359,0.984334386434
1528472889195335752,0,1528472889194971370,odom,base_footprint,0.415635096317,0.136792794544,0.0,0.0,0.0,0.170639448257,0.985333536778
1528472889254578186,0,1528472889254136866,odom,base_footprint,0.418004685255,0.137638897988,0.0,0.0,0.0,0.166080351041,0.986112223329
1528472889275473731,0,1528472889274970122,odom,base_footprint,0.418810554446,0.137918270286,0.0,0.0,0.0,0.163498149078,0.986543640823
1528472889334286492,0,1528472889333945749,odom,base_footprint,0.421192151181,0.138729959736,0.0,0.0,0.0,0.158416566162,0.987372367228
1528472889392346326,0,1528472889391942608,odom,base_footprint,0.423784507678,0.139583787527,0.0,0.0,0.0,0.153848169873,0.988094499846
1528472889414156967,0,1528472889413835333,odom,base_footprint,0.424637679794,0.139856069481,0.0,0.0,0.0,0.152382133412,0.988321650788
1528472889472117252,0,1528472889471755205,odom,base_footprint,0.427443601712,0.140742388763,0.0,0.0,0.0,0.14780941113,0.989015863362
1528472889494396767,0,1528472889493975648,odom,base_footprint,0.428340819238,0.141016695689,0.0,0.0,0.0,0.146600990296,0.989195708464
1528472889552152253,0,1528472889551784994,odom,base_footprint,0.430993661597,0.14182066826,0.0,0.0,0.0,0.142801680073,0.989751322388
1528472889574237017,0,1528472889573856027,odom,base_footprint,0.43185270315,0.142073823809,0.0,0.0,0.0,0.141246806796,0.989974413594
1528472889634176803,0,1528472889633809870,odom,base_footprint,0.434186534559,0.142753631717,0.0,0.0,0.0,0.136320760491,0.990664751699
1528472889694347172,0,1528472889693844916,odom,base_footprint,0.436650196446,0.143444744155,0.0,0.0,0.0,0.130785747402,0.991410655721
1528472889753302943,0,1528472889752864815,odom,base_footprint,0.439080237147,0.144097235508,0.0,0.0,0.0,0.125160074975,0.992136560979
1528472889811165106,0,1528472889810777660,odom,base_footprint,0.441724073296,0.144775073631,0.0,0.0,0.0,0.119876931456,0.992788759659
1528472889834046056,0,1528472889833718674,odom,base_footprint,0.442676741485,0.14500854254,0.0,0.0,0.0,0.118403968307,0.992965508107
1528472889893120657,0,1528472889892731502,odom,base_footprint,0.445329560157,0.14565032692,0.0,0.0,0.0,0.113289918838,0.993561973049
1528472889951015039,0,1528472889950631407,odom,base_footprint,0.447988846803,0.146264760509,0.0,0.0,0.0,0.108433125601,0.994103745729
1528472889973283944,0,1528472889972881323,odom,base_footprint,0.448863354039,0.146457833591,0.0,0.0,0.0,0.106871457957,0.994272845588
1528472890033027216,0,1528472890032623452,odom,base_footprint,0.451321994951,0.146992555615,0.0,0.0,0.0,0.100535365033,0.994933485404
1528472890090910086,0,1528472890090522665,odom,base_footprint,0.453787248966,0.14749590978,0.0,0.0,0.0,0.0954982878676,0.995429594203
1528472890113226922,0,1528472890112777263,odom,base_footprint,0.454624612704,0.147658070207,0.0,0.0,0.0,0.0935870254165,0.995611103129
1528472890173090878,0,1528472890172637119,odom,base_footprint,0.457096654337,0.148126954985,0.0,0.0,0.0,0.0869818726464,0.996209894465
1528472890232930402,0,1528472890232476763,odom,base_footprint,0.459658699315,0.14857779057,0.0,0.0,0.0,0.0821124534196,0.996623070671
1528472890292841837,0,1528472890292469346,odom,base_footprint,0.462435383078,0.149038463452,0.0,0.0,0.0,0.0755878585332,0.997139145577
1528472890353236530,0,1528472890352790172,odom,base_footprint,0.465260017703,0.149469179803,0.0,0.0,0.0,0.0712363124992,0.997459466736
1528472890411781085,0,1528472890411449423,odom,base_footprint,0.468003876996,0.149863109563,0.0,0.0,0.0,0.0667092671,0.997772455865
1528472890432813857,0,1528472890432457343,odom,base_footprint,0.468933739635,0.14998800573,0.0,0.0,0.0,0.0639227042887,0.997954852624
1528472890491918763,0,1528472890491504926,odom,base_footprint,0.471429293972,0.150309021814,0.0,0.0,0.0,0.0582609869454,0.998301386055
1528472890549711942,0,1528472890549397930,odom,base_footprint,0.473928329454,0.150601706683,0.0,0.0,0.0,0.0515516183793,0.998670331312
1528472890572788469,0,1528472890572429920,odom,base_footprint,0.474691878195,0.15068074646,0.0,0.0,0.0,0.0497213738687,0.998763127564
1528472890631763339,0,1528472890631333500,odom,base_footprint,0.477237989222,0.150934882126,0.0,0.0,0.0,0.0447527433084,0.998998094075
1528472890689542299,0,1528472890689222325,odom,base_footprint,0.479828977672,0.151167489193,0.0,0.0,0.0,0.037515773182,0.999296035598
1528472890711670464,0,1528472890711319994,odom,base_footprint,0.480679497697,0.151231440115,0.0,0.0,0.0,0.0355971945589,0.999366219031
1528472890771677591,0,1528472890771327777,odom,base_footprint,0.48352954138,0.151434733847,0.0,0.0,0.0,0.0306257388542,0.999530922043
1528472890829390655,0,1528472890829225699,odom,base_footprint,0.486381466439,0.151609664678,0.0,0.0,0.0,0.0244321781527,0.999701489781
1528472890851776027,0,1528472890851394097,odom,base_footprint,0.487318559314,0.151655496166,0.0,0.0,0.0,0.0228618212284,0.999738634409
1528472890911609453,0,1528472890911205229,odom,base_footprint,0.490045053084,0.151780259227,0.0,0.0,0.0,0.0184994347345,0.999828870815
1528472890971797252,0,1528472890971331360,odom,base_footprint,0.492729914932,0.151879647107,0.0,0.0,0.0,0.0123042607385,0.999924299719
1528472891031608862,0,1528472891031227600,odom,base_footprint,0.495287902815,0.151942609706,0.0,0.0,0.0,0.00689399593551,0.999976236128
1528472891089752425,0,1528472891089252615,odom,base_footprint,0.497931706225,0.151979065045,0.0,0.0,0.0,-0.000698131644088,0.999999756306
1528472891111752644,0,1528472891111319538,odom,base_footprint,0.498784626276,0.151977874143,0.0,0.0,0.0,-0.00287978928534,0.999995853398
1528472891170452338,0,1528472891170052008,odom,base_footprint,0.501471282496,0.151962399943,0.0,0.0,0.0,-0.0086392723255,0.99996268079
1528472891228467149,0,1528472891228065701,odom,base_footprint,0.504328140937,0.15191303206,0.0,0.0,0.0,-0.0146602405297,0.999892532899
1528472891250481992,0,1528472891250086267,odom,base_footprint,0.505351206048,0.151883025624,0.0,0.0,0.0,-0.0161435942865,0.999869683691
1528472891310462020,0,1528472891310066717,odom,base_footprint,0.508249625517,0.151789407207,0.0,0.0,0.0,-0.0214659009304,0.999769581002
1528472891368361299,0,1528472891367890000,odom,base_footprint,0.510933850317,0.151674088879,0.0,0.0,0.0,-0.0276599404535,0.999617390652
1528472891391180447,0,1528472891390316780,odom,base_footprint,0.511742885318,0.151629281721,0.0,0.0,0.0,-0.0299279272249,0.999552059261
1528472891450367512,0,1528472891449944599,odom,base_footprint,0.514297064299,0.151476193402,0.0,0.0,0.0,-0.0376901826699,0.999289472641
1528472891510378958,0,1528472891510001812,odom,base_footprint,0.516763507484,0.151289874766,0.0,0.0,0.0,-0.0442296630188,0.999021389615
1528472891570537921,0,1528472891570089825,odom,base_footprint,0.51943969648,0.151052443606,0.0,0.0,0.0,-0.0512901653343,0.99868379327
1528472891630222993,0,1528472891629856561,odom,base_footprint,0.521984996553,0.150790310363,0.0,0.0,0.0,-0.0577382695995,0.99833175459
1528472891689294697,0,1528472891688826319,odom,base_footprint,0.52469614569,0.150475660627,0.0,0.0,0.0,-0.0637485273363,0.997965994041
1528472891710349009,0,1528472891709908707,odom,base_footprint,0.525584433674,0.150361710729,0.0,0.0,0.0,-0.0667963389185,0.997766630584
1528472891769245799,0,1528472891768864448,odom,base_footprint,0.528458487138,0.149975166409,0.0,0.0,0.0,-0.072715994473,0.997352687943
1528472891827342123,0,1528472891826873249,odom,base_footprint,0.531327750699,0.14955454016,0.0,0.0,0.0,-0.0788070807377,0.996889885607
1528472891849225823,0,1528472891848857812,odom,base_footprint,0.532296426355,0.149400423704,0.0,0.0,0.0,-0.0804598776777,0.996757848268
1528472891909180684,0,1528472891908806388,odom,base_footprint,0.534948340854,0.148969482194,0.0,0.0,0.0,-0.0857647080445,0.99631541936
1528472891967229157,0,1528472891966810429,odom,base_footprint,0.537553498453,0.148517620108,0.0,0.0,0.0,-0.093152599226,0.995651843396
1528472891989636287,0,1528472891988774114,odom,base_footprint,0.538433522983,0.148351496819,0.0,0.0,0.0,-0.0954114198846,0.99543792421
1528472892049125686,0,1528472892048733966,odom,base_footprint,0.540903829464,0.147873554704,0.0,0.0,0.0,-0.102271697543,0.994756502809
1528472892107085304,0,1528472892106653832,odom,base_footprint,0.543450819289,0.147344243807,0.0,0.0,0.0,-0.110254732764,0.993903362457
1528472892129142480,0,1528472892128746014,odom,base_footprint,0.544283003779,0.147157313317,0.0,0.0,0.0,-0.112336115762,0.99367026578
1528472892189332114,0,1528472892188871293,odom,base_footprint,0.546901895442,0.146557507056,0.0,0.0,0.0,-0.11814400649,0.992996472164
1528472892249018879,0,1528472892248621827,odom,base_footprint,0.549720871935,0.145877087071,0.0,0.0,0.0,-0.124813746365,0.992180189642
1528472892308161758,0,1528472892307671084,odom,base_footprint,0.552489132631,0.145169407724,0.0,0.0,0.0,-0.13052619222,0.991444861374
1528472892366089052,0,1528472892365679770,odom,base_footprint,0.555166672135,0.144451963176,0.0,0.0,0.0,-0.138222447879,0.990401209057
1528472892387928654,0,1528472892387564187,odom,base_footprint,0.556028018653,0.14420676469,0.0,0.0,0.0,-0.140296434649,0.990109544659
1528472892448325171,0,1528472892447864691,odom,base_footprint,0.558608954291,0.143460351717,0.0,0.0,0.0,-0.146169358303,0.989259581047
1528472892505898140,0,1528472892505544903,odom,base_footprint,0.561221673501,0.142671027682,0.0,0.0,0.0,-0.152554625759,0.988295040036
1528472892527943574,0,1528472892527587616,odom,base_footprint,0.562116216573,0.142388120856,0.0,0.0,0.0,-0.154451733713,0.988000334996
1528472892587814337,0,1528472892587568917,odom,base_footprint,0.564634121672,0.141581163998,0.0,0.0,0.0,-0.161776057456,0.986827496189
1528472892647796790,0,1528472892647442631,odom,base_footprint,0.567220606337,0.140709710513,0.0,0.0,0.0,-0.167887216182,0.985806209477
1528472892707970431,0,1528472892707546065,odom,base_footprint,0.569836335776,0.139792157254,0.0,0.0,0.0,-0.17390599378,0.984762258277
1528472892767789403,0,1528472892767438185,odom,base_footprint,0.572600926374,0.138784288956,0.0,0.0,0.0,-0.180004123711,0.983665855587
1528472892826983845,0,1528472892826524293,odom,base_footprint,0.575273050784,0.137772444861,0.0,0.0,0.0,-0.184894815915,0.982758315685
1528472892847784065,0,1528472892847433710,odom,base_footprint,0.576147116084,0.137431485286,0.0,0.0,0.0,-0.187467034606,0.982270894884
1528472892906545553,0,1528472892906267120,odom,base_footprint,0.57884321738,0.136363478908,0.0,0.0,0.0,-0.193035743749,0.981191725217
1528472892964630099,0,1528472892964257152,odom,base_footprint,0.581053415428,0.135458812665,0.0,0.0,0.0,-0.200479495198,0.979697898337
1528472892987856954,0,1528472892987359804,odom,base_footprint,0.581916211035,0.135090265083,0.0,0.0,0.0,-0.204325204139,0.978903065147
1528472893046933454,0,1528472893046484060,odom,base_footprint,0.584183152796,0.134100804789,0.0,0.0,0.0,-0.210898298214,0.977508009077
1528472893106759060,0,1528472893106382696,odom,base_footprint,0.586553150098,0.133028219137,0.0,0.0,0.0,-0.218994806262,0.975726024471
1528472893164501507,0,1528472893164160799,odom,base_footprint,0.588827927215,0.131952936921,0.0,0.0,0.0,-0.225886278675,0.974153678383
1528472893186616967,0,1528472893186214246,odom,base_footprint,0.589670396283,0.13154003324,0.0,0.0,0.0,-0.228011013058,0.973658553048
1528472893244478233,0,1528472893244132880,odom,base_footprint,0.592115950964,0.130328176648,0.0,0.0,0.0,-0.234972470325,0.972002025815
1528472893266607159,0,1528472893266098463,odom,base_footprint,0.592874688807,0.129938573106,0.0,0.0,0.0,-0.236838146066,0.971549119998
1528472893326568475,0,1528472893326123827,odom,base_footprint,0.595335706725,0.128662902584,0.0,0.0,0.0,-0.243191802109,0.969978220058
1528472893384415107,0,1528472893384008237,odom,base_footprint,0.597855019146,0.127314888392,0.0,0.0,0.0,-0.250211026602,0.968191325187
1528472893406529660,0,1528472893406095948,odom,base_footprint,0.598713063711,0.12683965799,0.0,0.0,0.0,-0.251984908727,0.967731163998
1528472893465486859,0,1528472893465076691,odom,base_footprint,0.601170263781,0.12546693805,0.0,0.0,0.0,-0.257301453681,0.966331186464
1528472893486484767,0,1528472893486068619,odom,base_footprint,0.602058248505,0.12495797269,0.0,0.0,0.0,-0.260251739574,0.965540797713
1528472893546405569,0,1528472893546080031,odom,base_footprint,0.604270396213,0.12367202214,0.0,0.0,0.0,-0.266733783743,0.963770246796
1528472893605460584,0,1528472893605098176,odom,base_footprint,0.606574796071,0.122290681345,0.0,0.0,0.0,-0.274462747688,0.961597733011
1528472893663468774,0,1528472893663042809,odom,base_footprint,0.608675614548,0.12098507101,0.0,0.0,0.0,-0.2811692233,0.959658203669
1528472893685423423,0,1528472893685025458,odom,base_footprint,0.609321871816,0.120570818056,0.0,0.0,0.0,-0.283513268955,0.958968313515
1528472893745285900,0,1528472893744958393,odom,base_footprint,0.611791401509,0.11897076094,0.0,0.0,0.0,-0.291286623481,0.956635825683
1528472893803287756,0,1528472893802905547,odom,base_footprint,0.613951362089,0.117520968718,0.0,0.0,0.0,-0.295624685155,0.95530416388
1528472893825367844,0,1528472893824985992,odom,base_footprint,0.614866354903,0.116894694603,0.0,0.0,0.0,-0.295374576981,0.955381525503
1528472893883209716,0,1528472893882869724,odom,base_footprint,0.617154656413,0.115330207251,0.0,0.0,0.0,-0.294540736955,0.955638924633
1528472893905376645,0,1528472893904929125,odom,base_footprint,0.617894834874,0.114826048578,0.0,0.0,0.0,-0.295041067928,0.955484572474
1528472893965249962,0,1528472893964833509,odom,base_footprint,0.620325113779,0.113166981332,0.0,0.0,0.0,-0.295958131198,0.9552009132
1528472894023172038,0,1528472894022808092,odom,base_footprint,0.622787378233,0.111479139318,0.0,0.0,0.0,-0.295874773066,0.955226736782
1528472894045173691,0,1528472894044767667,odom,base_footprint,0.623526145933,0.110972915645,0.0,0.0,0.0,-0.295958131198,0.9552009132
1528472894104042416,0,1528472894103708799,odom,base_footprint,0.625777359148,0.109429745803,0.0,0.0,0.0,-0.295708050044,0.955278362122
1528472894125081297,0,1528472894124720258,odom,base_footprint,0.626551491335,0.108899686432,0.0,0.0,0.0,-0.296124840699,0.955149244213
1528472894185154231,0,1528472894184754988,odom,base_footprint,0.628977999683,0.107235109333,0.0,0.0,0.0,-0.296958252795,0.954890462879
1528472894244026268,0,1528472894243683661,odom,base_footprint,0.631296225214,0.105638856656,0.0,0.0,0.0,-0.296791588447,0.954942277327
1528472894302199049,0,1528472894301689511,odom,base_footprint,0.63368527394,0.103995066521,0.0,0.0,0.0,-0.296874921752,0.954916373739
1528472894324036241,0,1528472894323632854,odom,base_footprint,0.634458108638,0.103463117172,0.0,0.0,0.0,-0.297041581577,0.954864544747
1528472894384096105,0,1528472894383706800,odom,base_footprint,0.636846296351,0.10181807636,0.0,0.0,0.0,-0.297708130344,0.954656937924
1528472894443967362,0,1528472894443586421,odom,base_footprint,0.63926727142,0.100145461822,0.0,0.0,0.0,-0.297708130344,0.954656937924
1528472894503986065,0,1528472894503606318,odom,base_footprint,0.6416180733,0.0985213288651,0.0,0.0,0.0,-0.297791438745,0.954630954354
1528472894563991558,0,1528472894563597252,odom,base_footprint,0.643968591679,0.0968967856406,0.0,0.0,0.0,-0.298124649661,0.954526947375
1528472894623905319,0,1528472894623589950,odom,base_footprint,0.64631797534,0.0952706018408,0.0,0.0,0.0,-0.298374534012,0.954448865814
1528472894683857483,0,1528472894683452542,odom,base_footprint,0.648701559926,0.0936188983726,0.0,0.0,0.0,-0.298624397913,0.954370718836
1528472894742832378,0,1528472894742442742,odom,base_footprint,0.651014199372,0.0920145633032,0.0,0.0,0.0,-0.299040792256,0.954240328516
1528472894800891597,0,1528472894800404260,odom,base_footprint,0.653430494187,0.0903351946582,0.0,0.0,0.0,-0.299207334056,0.954188121518
1528472894822709134,0,1528472894822355296,odom,base_footprint,0.65423573034,0.0897751239954,0.0,0.0,0.0,-0.299290601539,0.95416200712
1528472894880885648,0,1528472894880415160,odom,base_footprint,0.656581133475,0.0881432044286,0.0,0.0,0.0,-0.299873410064,0.953979002881
1528472894902847909,0,1528472894902404138,odom,base_footprint,0.657350610603,0.0876064097484,0.0,0.0,0.0,-0.299956659295,0.953952830356
1528472894960681391,0,1528472894960313130,odom,base_footprint,0.659588816941,0.0860444345598,0.0,0.0,0.0,-0.300123150903,0.953900463514
1528472894982635338,0,1528472894982323282,odom,base_footprint,0.660427939804,0.0854584009193,0.0,0.0,0.0,-0.300206393279,0.953874269196
1528472895040667313,0,1528472895040268621,odom,base_footprint,0.66291004232,0.083724284831,0.0,0.0,0.0,-0.300372871173,0.953821858768
1528472895062798761,0,1528472895062350895,odom,base_footprint,0.663678956897,0.0831866846507,0.0,0.0,0.0,-0.300456106688,0.953795642658
1528472895122743212,0,1528472895122318165,odom,base_footprint,0.665915526311,0.0816223664749,0.0,0.0,0.0,-0.30095547171,0.953638193472
1528472895182599049,0,1528472895182227450,odom,base_footprint,0.668325060258,0.0799333117578,0.0,0.0,0.0,-0.30095547171,0.953638193472
1528472895242576016,0,1528472895242210511,odom,base_footprint,0.670769514987,0.0782197779868,0.0,0.0,0.0,-0.301205123289,0.953559370834
1528472895300571807,0,1528472895300190285,odom,base_footprint,0.672968716458,0.0766764458822,0.0,0.0,0.0,-0.301621163369,0.953427854537
1528472895322547675,0,1528472895322234656,odom,base_footprint,0.673701334399,0.0761613623216,0.0,0.0,0.0,-0.301704364497,0.953401529495
1528472895381675785,0,1528472895381242748,odom,base_footprint,0.676212859075,0.0743949231715,0.0,0.0,0.0,-0.301870759858,0.953348857629
1528472895439561793,0,1528472895439191932,odom,base_footprint,0.678619145832,0.0727012455969,0.0,0.0,0.0,-0.30220352299,0.953243426776
1528472895461476028,0,1528472895461109676,odom,base_footprint,0.679385990509,0.072160696967,0.0,0.0,0.0,-0.302286708021,0.953217050914
1528472895521510302,0,1528472895521118912,odom,base_footprint,0.681581684612,0.0706123790094,0.0,0.0,0.0,-0.302619425119,0.953111474876
