%time,field.header.seq,field.header.stamp,field.pose.pose.position.x,field.pose.pose.position.y,field.pose.pose.position.z,field.pose.pose.orientation.x,field.pose.pose.orientation.y,field.pose.pose.orientation.z,field.pose.pose.orientation.w,field.pose.covariance0,field.pose.covariance1,field.pose.covariance2,field.pose.covariance3,field.pose.covariance4,field.pose.covariance5,field.pose.covariance6,field.pose.covariance7,field.pose.covariance8,field.pose.covariance9,field.pose.covariance10,field.pose.covariance11,field.pose.covariance12,field.pose.covariance13,field.pose.covariance14,field.pose.covariance15,field.pose.covariance16,field.pose.covariance17,field.pose.covariance18,field.pose.covariance19,field.pose.covariance20,field.pose.covariance21,field.pose.covariance22,field.pose.covariance23,field.pose.covariance24,field.pose.covariance25,field.pose.covariance26,field.pose.covariance27,field.pose.covariance28,field.pose.covariance29,field.pose.covariance30,field.pose.covariance31,field.pose.covariance32,field.pose.covariance33,field.pose.covariance34,field.pose.covariance35,field.twist.twist.linear.x,field.twist.twist.linear.y,field.twist.twist.angular.z
1.52847287247149E+018,425,1.52847287247116E+018,0,0,0,0,0,0,1,0.1,0,0,0,0,0,0,0.1,0,0,0,0,0,0,10000000000,0,0,0,0,0,0,10000000000,0,0,0,0,0,0,10000000000,0,0,0,0,0,0,0.05,0,0,0
1.52847287253043E+018,426,1.52847287253004E+018,0,0,0,0,0,0,1,0.1,0,0,0,0,0,0,0.1,0,0,0,0,0,0,10000000000,0,0,0,0,0,0,10000000000,0,0,0,0,0,0,10000000000,0,0,0,0,0,0,0.05,0,0,0
1.52847287255136E+018,427,1.52847287255097E+018,0,0,0,0,0,0,1,0.1,0,0,0,0,0,0,0.1,0,0,0,0,0,0,10000000000,0,0,0,0,0,0,10000000000,0,0,0,0,0,0,10000000000,0,0,0,0,0,0,0.05,0,0,0
1.52847287261053E+018,428,1.52847287261012E+018,0,0,0,0,0,0,1,0.1,0,0,0,0,0,0,0.1,0,0,0,0,0,0,10000000000,0,0,0,0,0,0,10000000000,0,0,0,0,0,0,10000000000,0,0,0,0,0,0,0.05,0,0,0
1.52847287267052E+018,429,1.52847287267006E+018,0,0,0,0,0,0,1,0.1,0,0,0,0,0,0,0.1,0,0,0,0,0,0,10000000000,0,0,0,0,0,0,10000000000,0,0,0,0,0,0,10000000000,0,0,0,0,0,0,0.05,0,0,0
1.52847287272843E+018,430,1.52847287272803E+018,0,0,0,0,0,0,1,0.1,0,0,0,0,0,0,0.1,0,0,0,0,0,0,10000000000,0,0,0,0,0,0,10000000000,0,0,0,0,0,0,10000000000,0,0,0,0,0,0,0.05,0,0,0
1.52847287275047E+018,431,1.52847287275003E+018,0,0,0,0,0,0,1,0.1,0,0,0,0,0,0,0.1,0,0,0,0,0,0,10000000000,0,0,0,0,0,0,10000000000,0,0,0,0,0,0,10000000000,0,0,0,0,0,0,0.05,0,0,0
1.52847287280855E+018,432,1.52847287280814E+018,0,0,0,0,0,0,1,0.1,0,0,0,0,0,0,0.1,0,0,0,0,0,0,10000000000,0,0,0,0,0,0,10000000000,0,0,0,0,0,0,10000000000,0,0,0,0,0,0,0.05,0,0,0
1.52847287283042E+018,433,1.52847287282998E+018,0,0,0,0,0,0,1,0.1,0,0,0,0,0,0,0.1,0,0,0,0,0,0,10000000000,0,0,0,0,0,0,10000000000,0,0,0,0,0,0,10000000000,0,0,0,0,0,0,0.05,0,0,0
1.5284728728904E+018,434,1.52847287288998E+018,0,0,0,0,0,0,1,0.1,0,0,0,0,0,0,0.1,0,0,0,0,0,0,10000000000,0,0,0,0,0,0,10000000000,0,0,0,0,0,0,10000000000,0,0,0,0,0,0,0.05,0,0,0
1.52847287294843E+018,435,1.52847287294793E+018,0,0,0,0,0,0,1,0.1,0,0,0,0,0,0,0.1,0,0,0,0,0,0,10000000000,0,0,0,0,0,0,10000000000,0,0,0,0,0,0,10000000000,0,0,0,0,0,0,0.05,0,0,0
1.52847287297098E+018,436,1.52847287297023E+018,0,0,0,0,0,0,1,0.1,0,0,0,0,0,0,0.1,0,0,0,0,0,0,10000000000,0,0,0,0,0,0,10000000000,0,0,0,0,0,0,10000000000,0,0,0,0,0,0,0.05,0,0,0
1.52847287302936E+018,437,1.52847287302895E+018,0,0,0,0,0,0,1,0.1,0,0,0,0,0,0,0.1,0,0,0,0,0,0,10000000000,0,0,0,0,0,0,10000000000,0,0,0,0,0,0,10000000000,0,0,0,0,0,0,0.05,0,0,0
1.52847287305054E+018,438,1.52847287305004E+018,0,0,0,0,0,0,1,0.1,0,0,0,0,0,0,0.1,0,0,0,0,0,0,10000000000,0,0,0,0,0,0,10000000000,0,0,0,0,0,0,10000000000,0,0,0,0,0,0,0.05,0,0,0
1.52847287310943E+018,439,1.52847287310896E+018,0,0,0,0,0,0,1,0.1,0,0,0,0,0,0,0.1,0,0,0,0,0,0,10000000000,0,0,0,0,0,0,10000000000,0,0,0,0,0,0,10000000000,0,0,0,0,0,0,0.05,0,0,0
1.52847287316943E+018,440,1.52847287316895E+018,0,0,0,0,0,0,1,0.1,0,0,0,0,0,0,0.1,0,0,0,0,0,0,10000000000,0,0,0,0,0,0,10000000000,0,0,0,0,0,0,10000000000,0,0,0,0,0,0,0.05,0,0,0
1.52847287322734E+018,441,1.52847287322682E+018,0,0,0,0,0,0,1,0.1,0,0,0,0,0,0,0.1,0,0,0,0,0,0,10000000000,0,0,0,0,0,0,10000000000,0,0,0,0,0,0,10000000000,0,0,0,0,0,0,0.05,0,0,0
1.52847287324928E+018,442,1.5284728732488E+018,0,0,0,0,0,0,1,0.1,0,0,0,0,0,0,0.1,0,0,0,0,0,0,10000000000,0,0,0,0,0,0,10000000000,0,0,0,0,0,0,10000000000,0,0,0,0,0,0,0.05,0,0,0
1.52847287330919E+018,443,1.52847287330881E+018,0,0,0,0,0,0,1,0.1,0,0,0,0,0,0,0.1,0,0,0,0,0,0,10000000000,0,0,0,0,0,0,10000000000,0,0,0,0,0,0,10000000000,0,0,0,0,0,0,0.05,0,0,0
1.52847287336927E+018,444,1.52847287336883E+018,0,0,0,0,0,0,1,0.1,0,0,0,0,0,0,0.1,0,0,0,0,0,0,10000000000,0,0,0,0,0,0,10000000000,0,0,0,0,0,0,10000000000,0,0,0,0,0,0,0.05,0,0,0
1.52847287342944E+018,445,1.52847287342895E+018,0,0,0,0,0,0,1,0.1,0,0,0,0,0,0,0.1,0,0,0,0,0,0,10000000000,0,0,0,0,0,0,10000000000,0,0,0,0,0,0,10000000000,0,0,0,0,0,0,0.05,0,0,0
1.5284728734892E+018,446,1.52847287348873E+018,0,0,0,0,0,0,1,0.1,0,0,0,0,0,0,0.1,0,0,0,0,0,0,10000000000,0,0,0,0,0,0,10000000000,0,0,0,0,0,0,10000000000,0,0,0,0,0,0,0.05,0,0,0
1.52847287354821E+018,447,1.52847287354773E+018,0,0,0,0,0,0,1,0.1,0,0,0,0,0,0,0.1,0,0,0,0,0,0,10000000000,0,0,0,0,0,0,10000000000,0,0,0,0,0,0,10000000000,0,0,0,0,0,0,0.05,0,0,0
1.52847287356927E+018,448,1.52847287356878E+018,0,0,0,0,0,0,1,0.1,0,0,0,0,0,0,0.1,0,0,0,0,0,0,10000000000,0,0,0,0,0,0,10000000000,0,0,0,0,0,0,10000000000,0,0,0,0,0,0,0.05,0,0,0
1.52847287362801E+018,449,1.52847287362766E+018,0,0,0,0,0,0,1,0.1,0,0,0,0,0,0,0.1,0,0,0,0,0,0,10000000000,0,0,0,0,0,0,10000000000,0,0,0,0,0,0,10000000000,0,0,0,0,0,0,0.05,0,0,0
1.52847287368823E+018,450,1.52847287368775E+018,0,0,0,0,0,0,1,0.1,0,0,0,0,0,0,0.1,0,0,0,0,0,0,10000000000,0,0,0,0,0,0,10000000000,0,0,0,0,0,0,10000000000,0,0,0,0,0,0,0.05,0,0,0
1.52847287374589E+018,451,1.52847287374549E+018,0,0,0,0,0,0,1,0.1,0,0,0,0,0,0,0.1,0,0,0,0,0,0,10000000000,0,0,0,0,0,0,10000000000,0,0,0,0,0,0,10000000000,0,0,0,0,0,0,0.05,0,0,0
1.5284728737679E+018,452,1.52847287376755E+018,0,0,0,0,0,0,1,0.1,0,0,0,0,0,0,0.1,0,0,0,0,0,0,10000000000,0,0,0,0,0,0,10000000000,0,0,0,0,0,0,10000000000,0,0,0,0,0,0,0.05,0,0,0
1.52847287382797E+018,453,1.52847287382756E+018,0,0,0,0,0,0,1,0.1,0,0,0,0,0,0,0.1,0,0,0,0,0,0,10000000000,0,0,0,0,0,0,10000000000,0,0,0,0,0,0,10000000000,0,0,0,0,0,0,0.05,0,0,0
1.52847287388795E+018,454,1.52847287388758E+018,0,0,0,0,0,0,1,0.1,0,0,0,0,0,0,0.1,0,0,0,0,0,0,10000000000,0,0,0,0,0,0,10000000000,0,0,0,0,0,0,10000000000,0,0,0,0,0,0,0.05,0,0,0
1.52847287394787E+018,455,1.52847287394746E+018,0,0,0,0,0,0,1,0.1,0,0,0,0,0,0,0.1,0,0,0,0,0,0,10000000000,0,0,0,0,0,0,10000000000,0,0,0,0,0,0,10000000000,0,0,0,0,0,0,0.05,0,0,0
1.52847287400778E+018,456,1.52847287400742E+018,0,0,0,0,0,0,1,0.1,0,0,0,0,0,0,0.1,0,0,0,0,0,0,10000000000,0,0,0,0,0,0,10000000000,0,0,0,0,0,0,10000000000,0,0,0,0,0,0,0.05,0,0,0
1.52847287406693E+018,457,1.52847287406646E+018,0,0,0,0,0,0,1,0.1,0,0,0,0,0,0,0.1,0,0,0,0,0,0,10000000000,0,0,0,0,0,0,10000000000,0,0,0,0,0,0,10000000000,0,0,0,0,0,0,0.05,0,0,0
1.52847287408783E+018,458,1.52847287408742E+018,0,0,0,0,0,0,1,0.1,0,0,0,0,0,0,0.1,0,0,0,0,0,0,10000000000,0,0,0,0,0,0,10000000000,0,0,0,0,0,0,10000000000,0,0,0,0,0,0,0.05,0,0,0
1.52847287414688E+018,459,1.52847287414643E+018,0,0,0,0,0,0,1,0.1,0,0,0,0,0,0,0.1,0,0,0,0,0,0,10000000000,0,0,0,0,0,0,10000000000,0,0,0,0,0,0,10000000000,0,0,0,0,0,0,0.05,0,0,0
1.52847287420477E+018,460,1.52847287420427E+018,0,0,0,0,0,0,1,0.1,0,0,0,0,0,0,0.1,0,0,0,0,0,0,10000000000,0,0,0,0,0,0,10000000000,0,0,0,0,0,0,10000000000,0,0,0,0,0,0,0.05,0,0,0
1.52847287422773E+018,461,1.52847287422735E+018,0,0,0,0,0,0,1,0.1,0,0,0,0,0,0,0.1,0,0,0,0,0,0,10000000000,0,0,0,0,0,0,10000000000,0,0,0,0,0,0,10000000000,0,0,0,0,0,0,0.05,0,0,0
1.52847287428696E+018,462,1.52847287428639E+018,0,0,0,0,0,0,1,0.1,0,0,0,0,0,0,0.1,0,0,0,0,0,0,10000000000,0,0,0,0,0,0,10000000000,0,0,0,0,0,0,10000000000,0,0,0,0,0,0,0.05,0,0,0
1.52847287434473E+018,463,1.52847287434427E+018,0,0,0,0,0,0,1,0.1,0,0,0,0,0,0,0.1,0,0,0,0,0,0,10000000000,0,0,0,0,0,0,10000000000,0,0,0,0,0,0,10000000000,0,0,0,0,0,0,0.05,0,0,0
1.52847287436688E+018,464,1.52847287436639E+018,0,0,0,0,0,0,1,0.1,0,0,0,0,0,0,0.1,0,0,0,0,0,0,10000000000,0,0,0,0,0,0,10000000000,0,0,0,0,0,0,10000000000,0,0,0,0,0,0,0.05,0,0,0
1.52847287442676E+018,465,1.52847287442634E+018,0,0,0,0,0,0,1,0.1,0,0,0,0,0,0,0.1,0,0,0,0,0,0,10000000000,0,0,0,0,0,0,10000000000,0,0,0,0,0,0,10000000000,0,0,0,0,0,0,0.05,0,0,0
1.52847287448484E+018,466,1.52847287448426E+018,0,0,0,0,0,0,1,0.1,0,0,0,0,0,0,0.1,0,0,0,0,0,0,10000000000,0,0,0,0,0,0,10000000000,0,0,0,0,0,0,10000000000,0,0,0,0,0,0,0.05,0,0,0
1.52847287450661E+018,467,1.52847287450623E+018,0,0,0,0,0,0,1,0.1,0,0,0,0,0,0,0.1,0,0,0,0,0,0,10000000000,0,0,0,0,0,0,10000000000,0,0,0,0,0,0,10000000000,0,0,0,0,0,0,0.05,0,0,0
1.52847287456665E+018,468,1.52847287456622E+018,0,0,0,0,0,0,1,0.1,0,0,0,0,0,0,0.1,0,0,0,0,0,0,10000000000,0,0,0,0,0,0,10000000000,0,0,0,0,0,0,10000000000,0,0,0,0,0,0,0.05,0,0,0
1.52847287462662E+018,469,1.52847287462617E+018,0,0,0,0,0,0,1,0.1,0,0,0,0,0,0,0.1,0,0,0,0,0,0,10000000000,0,0,0,0,0,0,10000000000,0,0,0,0,0,0,10000000000,0,0,0,0,0,0,0.05,0,0,0
1.52847287468552E+018,470,1.52847287468512E+018,0,0,0,0,0,0,1,0.1,0,0,0,0,0,0,0.1,0,0,0,0,0,0,10000000000,0,0,0,0,0,0,10000000000,0,0,0,0,0,0,10000000000,0,0,0,0,0,0,0.05,0,0,0
1.52847287474343E+018,471,1.52847287474305E+018,0,0,0,0,0,0,1,0.1,0,0,0,0,0,0,0.1,0,0,0,0,0,0,10000000000,0,0,0,0,0,0,10000000000,0,0,0,0,0,0,10000000000,0,0,0,0,0,0,0.05,0,0,0
1.52847287476666E+018,472,1.52847287476622E+018,0,0,0,0,0,0,1,0.1,0,0,0,0,0,0,0.1,0,0,0,0,0,0,10000000000,0,0,0,0,0,0,10000000000,0,0,0,0,0,0,10000000000,0,0,0,0,0,0,0.05,0,0,0
1.52847287482555E+018,473,1.52847287482508E+018,0,0,0,0,0,0,1,0.1,0,0,0,0,0,0,0.1,0,0,0,0,0,0,10000000000,0,0,0,0,0,0,10000000000,0,0,0,0,0,0,10000000000,0,0,0,0,0,0,0.05,0,0,0
1.52847287488339E+018,474,1.52847287488301E+018,0,0,0,0,0,0,1,0.1,0,0,0,0,0,0,0.1,0,0,0,0,0,0,10000000000,0,0,0,0,0,0,10000000000,0,0,0,0,0,0,10000000000,0,0,0,0,0,0,0.05,0,0,0
1.52847287490554E+018,475,1.528472874905E+018,0,0,0,0,0,0,1,0.1,0,0,0,0,0,0,0.1,0,0,0,0,0,0,10000000000,0,0,0,0,0,0,10000000000,0,0,0,0,0,0,10000000000,0,0,0,0,0,0,0.05,0,0,0
1.52847287496613E+018,476,1.52847287496542E+018,0,0,0,0,0,0,1,0.1,0,0,0,0,0,0,0.1,0,0,0,0,0,0,10000000000,0,0,0,0,0,0,10000000000,0,0,0,0,0,0,10000000000,0,0,0,0,0,0,0.05,0,0,0
1.52847287502359E+018,477,1.52847287502299E+018,0,0,0,0,0,0,1,0.1,0,0,0,0,0,0,0.1,0,0,0,0,0,0,10000000000,0,0,0,0,0,0,10000000000,0,0,0,0,0,0,10000000000,0,0,0,0,0,0,0.05,0,0,0
1.52847287504533E+018,478,1.52847287504493E+018,0,0,0,0,0,0,1,0.1,0,0,0,0,0,0,0.1,0,0,0,0,0,0,10000000000,0,0,0,0,0,0,10000000000,0,0,0,0,0,0,10000000000,0,0,0,0,0,0,0.05,0,0,0
1.52847287510526E+018,479,1.52847287510481E+018,0,0,0,0,0,0,1,0.1,0,0,0,0,0,0,0.1,0,0,0,0,0,0,10000000000,0,0,0,0,0,0,10000000000,0,0,0,0,0,0,10000000000,0,0,0,0,0,0,0.05,0,0,0
1.52847287516592E+018,480,1.528472875165E+018,0,0,0,0,0,0,1,0.1,0,0,0,0,0,0,0.1,0,0,0,0,0,0,10000000000,0,0,0,0,0,0,10000000000,0,0,0,0,0,0,10000000000,0,0,0,0,0,0,0.05,0,0,0
1.52847287522526E+018,481,1.52847287522483E+018,0,0,0,0,0,0,1,0.1,0,0,0,0,0,0,0.1,0,0,0,0,0,0,10000000000,0,0,0,0,0,0,10000000000,0,0,0,0,0,0,10000000000,0,0,0,0,0,0,0.05,0,0,0
1.52847287528548E+018,482,1.52847287528494E+018,0,0,0,0,0,0,1,0.1,0,0,0,0,0,0,0.1,0,0,0,0,0,0,10000000000,0,0,0,0,0,0,10000000000,0,0,0,0,0,0,10000000000,0,0,0,0,0,0,0.05,0,0,0
1.52847287534408E+018,483,1.52847287534366E+018,0,0,0,0,0,0,1,0.1,0,0,0,0,0,0,0.1,0,0,0,0,0,0,10000000000,0,0,0,0,0,0,10000000000,0,0,0,0,0,0,10000000000,0,0,0,0,0,0,0.05,0,0,0
1.52847287536505E+018,484,1.52847287536474E+018,0,0,0,0,0,0,1,0.1,0,0,0,0,0,0,0.1,0,0,0,0,0,0,10000000000,0,0,0,0,0,0,10000000000,0,0,0,0,0,0,10000000000,0,0,0,0,0,0,0.05,0,0,0
1.52847287542413E+018,485,1.52847287542368E+018,0,0,0,0,0,0,1,0.1,0,0,0,0,0,0,0.1,0,0,0,0,0,0,10000000000,0,0,0,0,0,0,10000000000,0,0,0,0,0,0,10000000000,0,0,0,0,0,0,0.05,0,0,0
1.52847287548411E+018,486,1.52847287548368E+018,0,0,0,0,0,0,1,0.1,0,0,0,0,0,0,0.1,0,0,0,0,0,0,10000000000,0,0,0,0,0,0,10000000000,0,0,0,0,0,0,10000000000,0,0,0,0,0,0,0.05,0,0,0
1.52847287554207E+018,487,1.52847287554164E+018,0,0,0,0,0,0,1,0.1,0,0,0,0,0,0,0.1,0,0,0,0,0,0,10000000000,0,0,0,0,0,0,10000000000,0,0,0,0,0,0,10000000000,0,0,0,0,0,0,0.05,0,0,0
1.52847287556415E+018,488,1.52847287556371E+018,0,0,0,0,0,0,1,0.1,0,0,0,0,0,0,0.1,0,0,0,0,0,0,10000000000,0,0,0,0,0,0,10000000000,0,0,0,0,0,0,10000000000,0,0,0,0,0,0,0.05,0,0,0
1.52847287562211E+018,489,1.52847287562169E+018,0,0,0,0,0,0,1,0.1,0,0,0,0,0,0,0.1,0,0,0,0,0,0,10000000000,0,0,0,0,0,0,10000000000,0,0,0,0,0,0,10000000000,0,0,0,0,0,0,0.05,0,0,0
1.52847287564427E+018,490,1.52847287564379E+018,0,0,0,0,0,0,1,0.1,0,0,0,0,0,0,0.1,0,0,0,0,0,0,10000000000,0,0,0,0,0,0,10000000000,0,0,0,0,0,0,10000000000,0,0,0,0,0,0,0.05,0,0,0
1.52847287570397E+018,491,1.52847287570357E+018,0,0,0,0,0,0,1,0.1,0,0,0,0,0,0,0.1,0,0,0,0,0,0,10000000000,0,0,0,0,0,0,10000000000,0,0,0,0,0,0,10000000000,0,0,0,0,0,0,0.05,0,0,0
1.52847287576232E+018,492,1.52847287576178E+018,0,0,0,0,0,0,1,0.1,0,0,0,0,0,0,0.1,0,0,0,0,0,0,10000000000,0,0,0,0,0,0,10000000000,0,0,0,0,0,0,10000000000,0,0,0,0,0,0,0.05,0,0,0
1.52847287578401E+018,493,1.52847287578355E+018,0,0,0,0,0,0,1,0.1,0,0,0,0,0,0,0.1,0,0,0,0,0,0,10000000000,0,0,0,0,0,0,10000000000,0,0,0,0,0,0,10000000000,0,0,0,0,0,0,0.05,0,0,0
1.52847287584292E+018,494,1.52847287584256E+018,0,0,0,0,0,0,1,0.1,0,0,0,0,0,0,0.1,0,0,0,0,0,0,10000000000,0,0,0,0,0,0,10000000000,0,0,0,0,0,0,10000000000,0,0,0,0,0,0,0.05,0,0,0
1.5284728758639E+018,495,1.52847287586356E+018,0,0,0,0,0,0,1,0.1,0,0,0,0,0,0,0.1,0,0,0,0,0,0,10000000000,0,0,0,0,0,0,10000000000,0,0,0,0,0,0,10000000000,0,0,0,0,0,0,0.05,0,0,0
1.52847287592381E+018,496,1.52847287592344E+018,0,0,0,0,0,0,1,0.1,0,0,0,0,0,0,0.1,0,0,0,0,0,0,10000000000,0,0,0,0,0,0,10000000000,0,0,0,0,0,0,10000000000,0,0,0,0,0,0,0.05,0,0,0
1.52847287598317E+018,497,1.52847287598243E+018,0,0,0,0,0,0,1,0.1,0,0,0,0,0,0,0.1,0,0,0,0,0,0,10000000000,0,0,0,0,0,0,10000000000,0,0,0,0,0,0,10000000000,0,0,0,0,0,0,0.05,0,0,0
1.52847287604083E+018,498,1.5284728760404E+018,0,0,0,0,0,0,1,0.1,0,0,0,0,0,0,0.1,0,0,0,0,0,0,10000000000,0,0,0,0,0,0,10000000000,0,0,0,0,0,0,10000000000,0,0,0,0,0,0,0.05,0,0,0
1.52847287606287E+018,499,1.52847287606245E+018,0,0,0,0,0,0,1,0.1,0,0,0,0,0,0,0.1,0,0,0,0,0,0,10000000000,0,0,0,0,0,0,10000000000,0,0,0,0,0,0,10000000000,0,0,0,0,0,0,0.05,0,0,0
1.52847287612306E+018,500,1.5284728761226E+018,0,0,0,0,0,0,1,0.1,0,0,0,0,0,0,0.1,0,0,0,0,0,0,10000000000,0,0,0,0,0,0,10000000000,0,0,0,0,0,0,10000000000,0,0,0,0,0,0,0.05,0,0,0
1.52847287618287E+018,501,1.52847287618234E+018,0,0,0,0,0,0,1,0.1,0,0,0,0,0,0,0.1,0,0,0,0,0,0,10000000000,0,0,0,0,0,0,10000000000,0,0,0,0,0,0,10000000000,0,0,0,0,0,0,0.05,0,0,0
1.52847287624295E+018,502,1.52847287624247E+018,0,0,0,0,0,0,1,0.1,0,0,0,0,0,0,0.1,0,0,0,0,0,0,10000000000,0,0,0,0,0,0,10000000000,0,0,0,0,0,0,10000000000,0,0,0,0,0,0,0.05,0,0,0
1.52847287630272E+018,503,1.5284728763023E+018,0,0,0,0,0,0,1,0.1,0,0,0,0,0,0,0.1,0,0,0,0,0,0,10000000000,0,0,0,0,0,0,10000000000,0,0,0,0,0,0,10000000000,0,0,0,0,0,0,0.05,0,0,0
1.52847287636189E+018,504,1.52847287636142E+018,0,0,0,0,0,0,1,0.1,0,0,0,0,0,0,0.1,0,0,0,0,0,0,10000000000,0,0,0,0,0,0,10000000000,0,0,0,0,0,0,10000000000,0,0,0,0,0,0,0.05,0,0,0
1.52847287638277E+018,505,1.5284728763823E+018,0,0,0,0,0,0,1,0.1,0,0,0,0,0,0,0.1,0,0,0,0,0,0,10000000000,0,0,0,0,0,0,10000000000,0,0,0,0,0,0,10000000000,0,0,0,0,0,0,0.05,0,0,0
1.52847287644173E+018,506,1.52847287644131E+018,0,0,0,0,0,0,1,0.1,0,0,0,0,0,0,0.1,0,0,0,0,0,0,10000000000,0,0,0,0,0,0,10000000000,0,0,0,0,0,0,10000000000,0,0,0,0,0,0,0.05,0,0,0
1.52847287650001E+018,507,1.52847287649939E+018,0,0,0,0,0,0,1,0.1,0,0,0,0,0,0,0.1,0,0,0,0,0,0,10000000000,0,0,0,0,0,0,10000000000,0,0,0,0,0,0,10000000000,0,0,0,0,0,0,0.05,0,0,0
1.52847287652278E+018,508,1.52847287652233E+018,0,0,0,0,0,0,1,0.1,0,0,0,0,0,0,0.1,0,0,0,0,0,0,10000000000,0,0,0,0,0,0,10000000000,0,0,0,0,0,0,10000000000,0,0,0,0,0,0,0.05,0,0,0
1.52847287658143E+018,509,1.52847287658121E+018,0,0,0,0,0,0,1,0.1,0,0,0,0,0,0,0.1,0,0,0,0,0,0,10000000000,0,0,0,0,0,0,10000000000,0,0,0,0,0,0,10000000000,0,0,0,0,0,0,0.05,0,0,0
1.52847287664173E+018,510,1.52847287664126E+018,0,0,0,0,0,0,1,0.1,0,0,0,0,0,0,0.1,0,0,0,0,0,0,10000000000,0,0,0,0,0,0,10000000000,0,0,0,0,0,0,10000000000,0,0,0,0,0,0,0.05,0,0,0
1.52847287669958E+018,511,1.52847287669916E+018,0,0,0,0,0,0,1,0.1,0,0,0,0,0,0,0.1,0,0,0,0,0,0,10000000000,0,0,0,0,0,0,10000000000,0,0,0,0,0,0,10000000000,0,0,0,0,0,0,0.05,0,0,0
1.52847287672156E+018,512,1.52847287672117E+018,0,0,0,0,0,0,1,0.1,0,0,0,0,0,0,0.1,0,0,0,0,0,0,10000000000,0,0,0,0,0,0,10000000000,0,0,0,0,0,0,10000000000,0,0,0,0,0,0,0.05,0,0,0
1.52847287677954E+018,513,1.52847287677906E+018,0,0,0,0,0,0,1,0.1,0,0,0,0,0,0,0.1,0,0,0,0,0,0,10000000000,0,0,0,0,0,0,10000000000,0,0,0,0,0,0,10000000000,0,0,0,0,0,0,0.05,0,0,0
1.52847287680148E+018,514,1.52847287680108E+018,0,0,0,0,0,0,1,0.1,0,0,0,0,0,0,0.1,0,0,0,0,0,0,10000000000,0,0,0,0,0,0,10000000000,0,0,0,0,0,0,10000000000,0,0,0,0,0,0,0.05,0,0,0
1.52847287686166E+018,515,1.52847287686118E+018,0,0,0,0,0,0,1,0.1,0,0,0,0,0,0,0.1,0,0,0,0,0,0,10000000000,0,0,0,0,0,0,10000000000,0,0,0,0,0,0,10000000000,0,0,0,0,0,0,0.05,0,0,0
1.52847287692153E+018,516,1.52847287692109E+018,0,0,0,0,0,0,1,0.1,0,0,0,0,0,0,0.1,0,0,0,0,0,0,10000000000,0,0,0,0,0,0,10000000000,0,0,0,0,0,0,10000000000,0,0,0,0,0,0,0.05,0,0,0
1.52847287698065E+018,517,1.52847287698016E+018,0,0,0,0,0,0,1,0.1,0,0,0,0,0,0,0.1,0,0,0,0,0,0,10000000000,0,0,0,0,0,0,10000000000,0,0,0,0,0,0,10000000000,0,0,0,0,0,0,0.05,0,0,0
1.52847287703834E+018,518,1.52847287703789E+018,0,0,0,0,0,0,1,0.1,0,0,0,0,0,0,0.1,0,0,0,0,0,0,10000000000,0,0,0,0,0,0,10000000000,0,0,0,0,0,0,10000000000,0,0,0,0,0,0,0.05,0,0,0
1.52847287706141E+018,519,1.52847287706099E+018,0,0,0,0,0,0,1,0.1,0,0,0,0,0,0,0.1,0,0,0,0,0,0,10000000000,0,0,0,0,0,0,10000000000,0,0,0,0,0,0,10000000000,0,0,0,0,0,0,0.05,0,0,0
1.52847287712054E+018,520,1.52847287712002E+018,0,0,0,0,0,0,1,0.1,0,0,0,0,0,0,0.1,0,0,0,0,0,0,10000000000,0,0,0,0,0,0,10000000000,0,0,0,0,0,0,10000000000,0,0,0,0,0,0,0.05,0,0,0
1.52847287717837E+018,521,1.52847287717789E+018,0,0,0,0,0,0,1,0.1,0,0,0,0,0,0,0.1,0,0,0,0,0,0,10000000000,0,0,0,0,0,0,10000000000,0,0,0,0,0,0,10000000000,0,0,0,0,0,0,0.05,0,0,0.0006981317
1.5284728772002E+018,522,1.52847287719984E+018,0,0,0,0,0,0,1,0.1,0,0,0,0,0,0,0.1,0,0,0,0,0,0,10000000000,0,0,0,0,0,0,10000000000,0,0,0,0,0,0,10000000000,0,0,0,0,0,0,0.05,0,0,0.0003490659
1.52847287726029E+018,523,1.52847287725984E+018,0.0002132302,0,0,0,0,0,1,0.1,0,0,0,0,0,0,0.1,0,0,0,0,0,0,10000000000,0,0,0,0,0,0,10000000000,0,0,0,0,0,0,10000000000,0,0,0,0,0,0,0.05,0.003553837,0,-0.0036651914
1.52847287732019E+018,524,1.5284728773198E+018,0.0020043641,0,0,0,0,0,1,0.1,0,0,0,0,0,0,0.1,0,0,0,0,0,0,10000000000,0,0,0,0,0,0,10000000000,0,0,0,0,0,0,10000000000,0,0,0,0,0,0,0.05,0.0298522309,0,-0.0031415927
1.52847287738021E+018,525,1.52847287737983E+018,0.0032837454,0,0,0,0,-0.0002617994,0.9999999657,0.1,0,0,0,0,0,0,0.1,0,0,0,0,0,0,10000000000,0,0,0,0,0,0,10000000000,0,0,0,0,0,0,10000000000,0,0,0,0,0,0,0.05,0.0213230221,0,-0.0132645023
1.52847287744008E+018,526,1.5284728774397E+018,0.0047337107,-7.59200126644E-07,0,0,0,-0.0003490658,0.9999999391,0.1,0,0,0,0,0,0,0.1,0,0,0,0,0,0,10000000000,0,0,0,0,0,0,10000000000,0,0,0,0,0,0,10000000000,0,0,0,0,0,0,0.05,0.0241660917,0,0.0012217305
1.52847287750026E+018,527,1.52847287749977E+018,0.0064395521,-1.95010224376E-06,0,0,0,-0.0002617994,0.9999999657,0.1,0,0,0,0,0,0,0.1,0,0,0,0,0,0,10000000000,0,0,0,0,0,0,10000000000,0,0,0,0,0,0,10000000000,0,0,0,0,0,0,0.05,0.0284306961,0,0.0073303829
1.52847287756003E+018,528,1.52847287755967E+018,0.0081027475,-2.82094944785E-06,0,0,0,0,1,0.1,0,0,0,0,0,0,0.1,0,0,0,0,0,0,10000000000,0,0,0,0,0,0,10000000000,0,0,0,0,0,0,10000000000,0,0,0,0,0,0,0.05,0.0277199287,0,0.0019198622
1.52847287761901E+018,529,1.52847287761859E+018,0.0096806512,-2.82094944785E-06,0,0,0,-8.7266462489E-05,0.9999999962,0.1,0,0,0,0,0,0,0.1,0,0,0,0,0,0,10000000000,0,0,0,0,0,0,10000000000,0,0,0,0,0,0,10000000000,0,0,0,0,0,0,0.05,0.0262983939,0,-0.0090757121
1.5284728776776E+018,530,1.52847287767695E+018,0.0113438469,-3.11123186101E-06,0,0,0,-0.0003490658,0.9999999391,0.1,0,0,0,0,0,0,0.1,0,0,0,0,0,0,10000000000,0,0,0,0,0,0,10000000000,0,0,0,0,0,0,10000000000,0,0,0,0,0,0,0.05,0.0277199287,0,-0.0122173048
1.52847287769977E+018,531,1.52847287769951E+018,0.0118555993,-3.46850249614E-06,0,0,0,-0.0004363323,0.9999999048,0.1,0,0,0,0,0,0,0.1,0,0,0,0,0,0,10000000000,0,0,0,0,0,0,10000000000,0,0,0,0,0,0,10000000000,0,0,0,0,0,0,0.05,0.0255876265,0,-0.0169296937
1.52847287775887E+018,532,1.52847287775844E+018,0.0136893785,-5.0687771429E-06,0,0,0,-0.0008726645,0.9999996192,0.1,0,0,0,0,0,0,0.1,0,0,0,0,0,0,10000000000,0,0,0,0,0,0,10000000000,0,0,0,0,0,0,10000000000,0,0,0,0,0,0,0.05,0.0305629983,0,-0.0062831853
1.52847287781677E+018,533,1.52847287781635E+018,0.0154378636,-8.12046251658E-06,0,0,0,-0.0006981316,0.9999997563,0.1,0,0,0,0,0,0,0.1,0,0,0,0,0,0,10000000000,0,0,0,0,0,0,10000000000,0,0,0,0,0,0,10000000000,0,0,0,0,0,0,0.05,0.0291414635,0,0.0090757121
1.52847287783904E+018,534,1.52847287783856E+018,0.0159496157,-0.000008835,0,0,0,-0.0006108652,0.9999998134,0.1,0,0,0,0,0,0,0.1,0,0,0,0,0,0,10000000000,0,0,0,0,0,0,10000000000,0,0,0,0,0,0,10000000000,0,0,0,0,0,0,0.05,0.0255876265,0,0.0073303829
1.52847287789885E+018,535,1.52847287789848E+018,0.0175701641,-1.08148780507E-05,0,0,0,-0.0005235988,0.9999998629,0.1,0,0,0,0,0,0,0.1,0,0,0,0,0,0,10000000000,0,0,0,0,0,0,10000000000,0,0,0,0,0,0,10000000000,0,0,0,0,0,0,0.05,0.0270091613,0,0.0013962634
1.52847287795688E+018,536,1.52847287795641E+018,0.0192333589,-1.25565722202E-05,0,0,0,-0.0005235988,0.9999998629,0.1,0,0,0,0,0,0,0.1,0,0,0,0,0,0,10000000000,0,0,0,0,0,0,10000000000,0,0,0,0,0,0,10000000000,0,0,0,0,0,0,0.05,0.0277199287,0,-0.0003490659
1.52847287797933E+018,537,1.52847287797875E+018,0.0197877572,-1.31371369433E-05,0,0,0,-0.0005235988,0.9999998629,0.1,0,0,0,0,0,0,0.1,0,0,0,0,0,0,10000000000,0,0,0,0,0,0,10000000000,0,0,0,0,0,0,10000000000,0,0,0,0,0,0,0.05,0.0277199287,0,-0.0062831853
1.52847287803887E+018,538,1.52847287803848E+018,0.0215362441,-1.49681487625E-05,0,0,0,-0.0008726645,0.9999996192,0.1,0,0,0,0,0,0,0.1,0,0,0,0,0,0,10000000000,0,0,0,0,0,0,10000000000,0,0,0,0,0,0,10000000000,0,0,0,0,0,0,0.05,0.0291414635,0,-0.0127409035
1.52847287809884E+018,539,1.52847287809837E+018,0.0233700212,-1.81686968373E-05,0,0,0,-0.0012217302,0.9999992537,0.1,0,0,0,0,0,0,0.1,0,0,0,0,0,0,10000000000,0,0,0,0,0,0,10000000000,0,0,0,0,0,0,10000000000,0,0,0,0,0,0,0.05,0.0305629983,0,-0.0085521133
1.52847287815889E+018,540,1.52847287815842E+018,0.0251611497,-2.25452581182E-05,0,0,0,-0.0010471974,0.9999994517,0.1,0,0,0,0,0,0,0.1,0,0,0,0,0,0,10000000000,0,0,0,0,0,0,10000000000,0,0,0,0,0,0,10000000000,0,0,0,0,0,0,0.05,0.0298522309,0,0.0115191731
1.52847287821897E+018,541,1.52847287821842E+018,0.0269522796,-2.62965973493E-05,0,0,0,-0.0009599309,0.9999995393,0.1,0,0,0,0,0,0,0.1,0,0,0,0,0,0,10000000000,0,0,0,0,0,0,10000000000,0,0,0,0,0,0,10000000000,0,0,0,0,0,0,0.05,0.0298522309,0,0
1.52847287827855E+018,542,1.52847287827741E+018,0.0286581182,-2.95715764255E-05,0,0,0,-0.0009599309,0.9999995393,0.1,0,0,0,0,0,0,0.1,0,0,0,0,0,0,10000000000,0,0,0,0,0,0,10000000000,0,0,0,0,0,0,10000000000,0,0,0,0,0,0,0.05,0.0284306961,0,0
1.52847287829904E+018,543,1.52847287829828E+018,0.0293404537,-3.0881568056E-05,0,0,0,-0.0010471974,0.9999994517,0.1,0,0,0,0,0,0,0.1,0,0,0,0,0,0,10000000000,0,0,0,0,0,0,10000000000,0,0,0,0,0,0,10000000000,0,0,0,0,0,0,0.05,0.0341168353,0,-0.0078539816
1.52847287835804E+018,544,1.52847287835743E+018,0.0311315836,-3.46329072872E-05,0,0,0,-0.0014835293,0.9999988996,0.1,0,0,0,0,0,0,0.1,0,0,0,0,0,0,10000000000,0,0,0,0,0,0,10000000000,0,0,0,0,0,0,10000000000,0,0,0,0,0,0,0.05,0.0298522309,0,-0.0137881011
1.52847287841764E+018,545,1.5284728784172E+018,0.0329227096,-3.9947300619E-05,0,0,0,-0.0015707957,0.9999987663,0.1,0,0,0,0,0,0,0.1,0,0,0,0,0,0,10000000000,0,0,0,0,0,0,10000000000,0,0,0,0,0,0,10000000000,0,0,0,0,0,0,0.05,0.0298522309,0,0.0040142573
1.52847287847562E+018,546,1.52847287847518E+018,0.0346711888,-4.54403280447E-05,0,0,0,-0.0014835293,0.9999988996,0.1,0,0,0,0,0,0,0.1,0,0,0,0,0,0,10000000000,0,0,0,0,0,0,10000000000,0,0,0,0,0,0,10000000000,0,0,0,0,0,0,0.05,0.0291414635,0,-0.0010471976
1.52847287849764E+018,547,1.52847287849723E+018,0.0352682308,-4.72117924887E-05,0,0,0,-0.0014835293,0.9999988996,0.1,0,0,0,0,0,0,0.1,0,0,0,0,0,0,10000000000,0,0,0,0,0,0,10000000000,0,0,0,0,0,0,10000000000,0,0,0,0,0,0,0.05,0.0298522309,0,-0.0005235988
1.52847287855757E+018,548,1.52847287855722E+018,0.0371446484,-5.27792521696E-05,0,0,0,-0.0014835293,0.9999988996,0.1,0,0,0,0,0,0,0.1,0,0,0,0,0,0,10000000000,0,0,0,0,0,0,10000000000,0,0,0,0,0,0,10000000000,0,0,0,0,0,0,0.05,0.0312737657,0,0.0020943951
1.52847287861753E+018,549,1.52847287861711E+018,0.0389784203,-5.8220178676E-05,0,0,0,-0.0015707957,0.9999987663,0.1,0,0,0,0,0,0,0.1,0,0,0,0,0,0,10000000000,0,0,0,0,0,0,10000000000,0,0,0,0,0,0,10000000000,0,0,0,0,0,0,0.05,0.0305629983,0,-0.0099483767
1.52847287867747E+018,550,1.52847287867707E+018,0.0408548369,-6.41151349378E-05,0,0,0,-0.0020071273,0.9999979857,0.1,0,0,0,0,0,0,0.1,0,0,0,0,0,0,10000000000,0,0,0,0,0,0,10000000000,0,0,0,0,0,0,10000000000,0,0,0,0,0,0,0.05,0.0312737657,0,-0.009250245
1.52847287873752E+018,551,1.52847287873707E+018,0.0427738935,-7.1818762944E-05,0,0,0,-0.0020071273,0.9999979857,0.1,0,0,0,0,0,0,0.1,0,0,0,0,0,0,10000000000,0,0,0,0,0,0,10000000000,0,0,0,0,0,0,10000000000,0,0,0,0,0,0,0.05,0.0319845331,0,0.0054105207
1.52847287879744E+018,552,1.52847287879704E+018,0.0446076586,-0.00007918,0,0,0,-0.0017453284,0.9999984769,0.1,0,0,0,0,0,0,0.1,0,0,0,0,0,0,10000000000,0,0,0,0,0,0,10000000000,0,0,0,0,0,0,10000000000,0,0,0,0,0,0,0.05,0.0305629983,0,0.0057595865
1.52847287885743E+018,553,1.52847287885709E+018,0.0465267189,-8.58788188323E-05,0,0,0,-0.001658062,0.9999986254,0.1,0,0,0,0,0,0,0.1,0,0,0,0,0,0,10000000000,0,0,0,0,0,0,10000000000,0,0,0,0,0,0,10000000000,0,0,0,0,0,0,0.05,0.0319845331,0,0.0036651914
1.52847287891635E+018,554,1.52847287891592E+018,0.0484031345,-9.21012714952E-05,0,0,0,-0.0018325947,0.9999983208,0.1,0,0,0,0,0,0,0.1,0,0,0,0,0,0,10000000000,0,0,0,0,0,0,10000000000,0,0,0,0,0,0,10000000000,0,0,0,0,0,0,0.05,0.0312737657,0,-0.0089011792
1.52847287897432E+018,555,1.52847287897392E+018,0.0503648394,-9.92913275133E-05,0,0,0,-0.0021816598,0.9999976202,0.1,0,0,0,0,0,0,0.1,0,0,0,0,0,0,10000000000,0,0,0,0,0,0,10000000000,0,0,0,0,0,0,10000000000,0,0,0,0,0,0,0.05,0.0326953005,0,-0.0130899694
1.52847287899635E+018,556,1.52847287899595E+018,0.0510471696,-0.0001022686,0,0,0,-0.0022689261,0.999997426,0.1,0,0,0,0,0,0,0.1,0,0,0,0,0,0,10000000000,0,0,0,0,0,0,10000000000,0,0,0,0,0,0,10000000000,0,0,0,0,0,0,0.05,0.0341168353,0,-0.0083775804
1.5284728790543E+018,557,1.52847287905389E+018,0.0529662218,-0.000110977,0,0,0,-0.0023561923,0.9999972242,0.1,0,0,0,0,0,0,0.1,0,0,0,0,0,0,10000000000,0,0,0,0,0,0,10000000000,0,0,0,0,0,0,10000000000,0,0,0,0,0,0,0.05,0.0319845331,0,0.009250245
1.52847287907658E+018,558,1.52847287907607E+018,0.0536059054,-0.0001139915,0,0,0,-0.0021816598,0.9999976202,0.1,0,0,0,0,0,0,0.1,0,0,0,0,0,0,10000000000,0,0,0,0,0,0,10000000000,0,0,0,0,0,0,10000000000,0,0,0,0,0,0,0.05,0.0319845331,0,0.0115191731
1.52847287913437E+018,559,1.52847287913389E+018,0.0555249591,-0.000122365,0,0,0,-0.0021816598,0.9999976202,0.1,0,0,0,0,0,0,0.1,0,0,0,0,0,0,10000000000,0,0,0,0,0,0,10000000000,0,0,0,0,0,0,10000000000,0,0,0,0,0,0,0.05,0.0319845331,0,-0.0048869219
1.52847287915624E+018,560,1.52847287915581E+018,0.0562072893,-0.0001253422,0,0,0,-0.0021816598,0.9999976202,0.1,0,0,0,0,0,0,0.1,0,0,0,0,0,0,10000000000,0,0,0,0,0,0,10000000000,0,0,0,0,0,0,10000000000,0,0,0,0,0,0,0.05,0.0341168353,0,-0.0064577182
1.52847287921425E+018,561,1.5284728792138E+018,0.058126343,-0.0001337157,0,0,0,-0.0025307247,0.9999967977,0.1,0,0,0,0,0,0,0.1,0,0,0,0,0,0,10000000000,0,0,0,0,0,0,10000000000,0,0,0,0,0,0,10000000000,0,0,0,0,0,0,0.05,0.0319845331,0,-0.009424778
1.5284728792363E+018,562,1.52847287923586E+018,0.0587660255,-0.0001369535,0,0,0,-0.0026179909,0.9999965731,0.1,0,0,0,0,0,0,0.1,0,0,0,0,0,0,10000000000,0,0,0,0,0,0,10000000000,0,0,0,0,0,0,10000000000,0,0,0,0,0,0,0.05,0.0319845331,0,-0.0101229097
1.52847287929627E+018,563,1.52847287929582E+018,0.0607277166,-0.000147225,0,0,0,-0.0029670554,0.9999955983,0.1,0,0,0,0,0,0,0.1,0,0,0,0,0,0,10000000000,0,0,0,0,0,0,10000000000,0,0,0,0,0,0,10000000000,0,0,0,0,0,0,0.05,0.0326953005,0,-0.006981317
1.52847287935657E+018,564,1.52847287935585E+018,0.0626467548,-0.0001586129,0,0,0,-0.002705257,0.9999963408,0.1,0,0,0,0,0,0,0.1,0,0,0,0,0,0,10000000000,0,0,0,0,0,0,10000000000,0,0,0,0,0,0,10000000000,0,0,0,0,0,0,0.05,0.0319845331,0,0.0106465084
1.52847287941633E+018,565,1.52847287941582E+018,0.0646510896,-0.0001694575,0,0,0,-0.002705257,0.9999963408,0.1,0,0,0,0,0,0,0.1,0,0,0,0,0,0,10000000000,0,0,0,0,0,0,10000000000,0,0,0,0,0,0,10000000000,0,0,0,0,0,0,0.05,0.0334060679,0,-0.002443461
1.52847287947639E+018,566,1.52847287947585E+018,0.0666127789,-0.0001800714,0,0,0,-0.0029670554,0.9999955983,0.1,0,0,0,0,0,0,0.1,0,0,0,0,0,0,10000000000,0,0,0,0,0,0,10000000000,0,0,0,0,0,0,10000000000,0,0,0,0,0,0,0.05,0.0326953005,0,-0.0132645023
1.52847287953513E+018,567,1.52847287953469E+018,0.0687023983,-0.0001924716,0,0,0,-0.0033161195,0.9999945017,0.1,0,0,0,0,0,0,0.1,0,0,0,0,0,0,10000000000,0,0,0,0,0,0,10000000000,0,0,0,0,0,0,10000000000,0,0,0,0,0,0,0.05,0.0348276027,0,-0.0102974426
1.52847287959319E+018,568,1.52847287959269E+018,0.0706640731,-0.0002054821,0,0,0,-0.0034906514,0.9999939077,0.1,0,0,0,0,0,0,0.1,0,0,0,0,0,0,10000000000,0,0,0,0,0,0,10000000000,0,0,0,0,0,0,10000000000,0,0,0,0,0,0,0.05,0.0326953005,0,-0.0005235988
1.52847287961516E+018,569,1.52847287961472E+018,0.0713463932,-0.0002102456,0,0,0,-0.0034033855,0.9999942085,0.1,0,0,0,0,0,0,0.1,0,0,0,0,0,0,10000000000,0,0,0,0,0,0,10000000000,0,0,0,0,0,0,10000000000,0,0,0,0,0,0,0.05,0.0341168353,0,0.009250245
1.52847287967555E+018,570,1.52847287967475E+018,0.0733507109,-0.0002238888,0,0,0,-0.0031415875,0.9999950652,0.1,0,0,0,0,0,0,0.1,0,0,0,0,0,0,10000000000,0,0,0,0,0,0,10000000000,0,0,0,0,0,0,10000000000,0,0,0,0,0,0,0.05,0.0334060679,0,0.0026179939
1.52847287973306E+018,571,1.52847287973268E+018,0.0753976806,-0.0002367505,0,0,0,-0.0034033855,0.9999942085,0.1,0,0,0,0,0,0,0.1,0,0,0,0,0,0,10000000000,0,0,0,0,0,0,10000000000,0,0,0,0,0,0,10000000000,0,0,0,0,0,0,0.05,0.0341168353,0,-0.0040142573
1.52847287975492E+018,572,1.52847287975456E+018,0.0760800015,-0.000241395,0,0,0,-0.0034033855,0.9999942085,0.1,0,0,0,0,0,0,0.1,0,0,0,0,0,0,10000000000,0,0,0,0,0,0,10000000000,0,0,0,0,0,0,10000000000,0,0,0,0,0,0,0.05,0.0341168353,0,-0.004712389
1.52847287981537E+018,573,1.52847287981468E+018,0.0780416741,-0.0002547478,0,0,0,-0.0035779173,0.9999935992,0.1,0,0,0,0,0,0,0.1,0,0,0,0,0,0,10000000000,0,0,0,0,0,0,10000000000,0,0,0,0,0,0,10000000000,0,0,0,0,0,0,0.05,0.0326953005,0,-0.0087266463
1.52847287987528E+018,574,1.52847287987464E+018,0.0801739217,-0.0002700061,0,0,0,-0.0039269807,0.9999922894,0.1,0,0,0,0,0,0,0.1,0,0,0,0,0,0,10000000000,0,0,0,0,0,0,10000000000,0,0,0,0,0,0,10000000000,0,0,0,0,0,0,0.05,0.0355383701,0,0.0006981317
1.52847287993514E+018,575,1.5284728799346E+018,0.0822208687,-0.0002860832,0,0,0,-0.0034033855,0.9999942085,0.1,0,0,0,0,0,0,0.1,0,0,0,0,0,0,10000000000,0,0,0,0,0,0,10000000000,0,0,0,0,0,0,10000000000,0,0,0,0,0,0,0.05,0.0341168353,0,0.013962634
1.5284728799949E+018,576,1.52847287999449E+018,0.0844384116,-0.0003011777,0,0,0,-0.0036651832,0.9999932832,0.1,0,0,0,0,0,0,0.1,0,0,0,0,0,0,10000000000,0,0,0,0,0,0,10000000000,0,0,0,0,0,0,10000000000,0,0,0,0,0,0,0.05,0.0369599049,0,-0.0136135682
1.52847288005409E+018,577,1.5284728800536E+018,0.0865280116,-0.0003164956,0,0,0,-0.0038397149,0.9999926283,0.1,0,0,0,0,0,0,0.1,0,0,0,0,0,0,10000000000,0,0,0,0,0,0,10000000000,0,0,0,0,0,0,10000000000,0,0,0,0,0,0,0.05,0.0348276027,0,-0.0064577182
1.52847288007488E+018,578,1.52847288007444E+018,0.0872956178,-0.0003223905,0,0,0,-0.0040142465,0.9999919429,0.1,0,0,0,0,0,0,0.1,0,0,0,0,0,0,10000000000,0,0,0,0,0,0,10000000000,0,0,0,0,0,0,10000000000,0,0,0,0,0,0,0.05,0.0383814398,0,-0.0171042267
1.52847288013477E+018,579,1.52847288013433E+018,0.0893425619,-0.0003388248,0,0,0,-0.004188778,0.999991227,0.1,0,0,0,0,0,0,0.1,0,0,0,0,0,0,10000000000,0,0,0,0,0,0,10000000000,0,0,0,0,0,0,10000000000,0,0,0,0,0,0,0.05,0.0341168353,0,0.009250245
1.52847288019371E+018,580,1.52847288019334E+018,0.0914747893,-0.0003566881,0,0,0,-0.0037524491,0.9999929595,0.1,0,0,0,0,0,0,0.1,0,0,0,0,0,0,10000000000,0,0,0,0,0,0,10000000000,0,0,0,0,0,0,10000000000,0,0,0,0,0,0,0.05,0.0355383701,0,0.0090757121
1.52847288025169E+018,581,1.52847288025127E+018,0.0936496763,-0.0003730107,0,0,0,-0.0041015122,0.9999915888,0.1,0,0,0,0,0,0,0.1,0,0,0,0,0,0,10000000000,0,0,0,0,0,0,10000000000,0,0,0,0,0,0,10000000000,0,0,0,0,0,0,0.05,0.0362491375,0,-0.0141371669
1.52847288027367E+018,582,1.52847288027333E+018,0.0943746347,-0.0003789577,0,0,0,-0.004188778,0.999991227,0.1,0,0,0,0,0,0,0.1,0,0,0,0,0,0,10000000000,0,0,0,0,0,0,10000000000,0,0,0,0,0,0,10000000000,0,0,0,0,0,0,0.05,0.0362491375,0,-0.0073303829
1.52847288033371E+018,583,1.52847288033331E+018,0.096506862,-0.0003968211,0,0,0,-0.0044505749,0.9999900961,0.1,0,0,0,0,0,0,0.1,0,0,0,0,0,0,10000000000,0,0,0,0,0,0,10000000000,0,0,0,0,0,0,10000000000,0,0,0,0,0,0,0.05,0.0355383701,0,-0.0127409035
1.52847288039167E+018,584,1.52847288039128E+018,0.0986390798,-0.0004158008,0,0,0,-0.0045378405,0.9999897039,0.1,0,0,0,0,0,0,0.1,0,0,0,0,0,0,10000000000,0,0,0,0,0,0,10000000000,0,0,0,0,0,0,10000000000,0,0,0,0,0,0,0.05,0.0355383701,0,0.0055850536
1.52847288041394E+018,585,1.5284728804134E+018,0.0993213884,-0.0004219934,0,0,0,-0.0044505749,0.9999900961,0.1,0,0,0,0,0,0,0.1,0,0,0,0,0,0,10000000000,0,0,0,0,0,0,10000000000,0,0,0,0,0,0,10000000000,0,0,0,0,0,0,0.05,0.0341168353,0,0.0172787596
1.52847288047382E+018,586,1.52847288047332E+018,0.1015388948,-0.0004417324,0,0,0,-0.0042760436,0.9999908577,0.1,0,0,0,0,0,0,0.1,0,0,0,0,0,0,10000000000,0,0,0,0,0,0,10000000000,0,0,0,0,0,0,10000000000,0,0,0,0,0,0,0.05,0.0369599049,0,-0.0122173048
1.52847288053361E+018,587,1.52847288053328E+018,0.103756408,-0.0004606972,0,0,0,-0.004625106,0.9999893041,0.1,0,0,0,0,0,0,0.1,0,0,0,0,0,0,10000000000,0,0,0,0,0,0,10000000000,0,0,0,0,0,0,10000000000,0,0,0,0,0,0,0.05,0.0369599049,0,-0.0097738438
1.52847288059356E+018,588,1.5284728805932E+018,0.105888619,-0.0004804213,0,0,0,-0.0048869025,0.999988059,0.1,0,0,0,0,0,0,0.1,0,0,0,0,0,0,10000000000,0,0,0,0,0,0,10000000000,0,0,0,0,0,0,10000000000,0,0,0,0,0,0,0.05,0.0355383701,0,-0.0090757121
1.52847288065269E+018,589,1.52847288065231E+018,0.1081487514,-0.0005025122,0,0,0,-0.0049741679,0.9999876288,0.1,0,0,0,0,0,0,0.1,0,0,0,0,0,0,10000000000,0,0,0,0,0,0,10000000000,0,0,0,0,0,0,10000000000,0,0,0,0,0,0,0.05,0.0376706723,0,0.0111701072
1.52847288071055E+018,590,1.52847288071015E+018,0.110323592,-0.000524149,0,0,0,-0.0044505749,0.9999900961,0.1,0,0,0,0,0,0,0.1,0,0,0,0,0,0,10000000000,0,0,0,0,0,0,10000000000,0,0,0,0,0,0,10000000000,0,0,0,0,0,0,0.05,0.0362491375,0,-0.0003490659
1.52847288073371E+018,591,1.5284728807332E+018,0.1111338348,-0.0005313613,0,0,0,-0.0045378405,0.9999897039,0.1,0,0,0,0,0,0,0.1,0,0,0,0,0,0,10000000000,0,0,0,0,0,0,10000000000,0,0,0,0,0,0,10000000000,0,0,0,0,0,0,0.05,0.040513742,0,-0.0108210414
1.52847288079285E+018,592,1.52847288079229E+018,0.1134366263,-0.0005522614,0,0,0,-0.0048869025,0.999988059,0.1,0,0,0,0,0,0,0.1,0,0,0,0,0,0,10000000000,0,0,0,0,0,0,10000000000,0,0,0,0,0,0,10000000000,0,0,0,0,0,0,0.05,0.0383814398,0,-0.0102974426
1.5284728808504E+018,593,1.52847288085003E+018,0.1156114707,-0.0005735186,0,0,0,-0.0051486985,0.9999867454,0.1,0,0,0,0,0,0,0.1,0,0,0,0,0,0,10000000000,0,0,0,0,0,0,10000000000,0,0,0,0,0,0,10000000000,0,0,0,0,0,0,0.05,0.0362491375,0,-0.0099483767
1.52847288087239E+018,594,1.52847288087206E+018,0.1163790588,-0.0005814231,0,0,0,-0.0052359638,0.9999862922,0.1,0,0,0,0,0,0,0.1,0,0,0,0,0,0,10000000000,0,0,0,0,0,0,10000000000,0,0,0,0,0,0,10000000000,0,0,0,0,0,0,0.05,0.0383814398,0,-0.0075049158
1.5284728809325E+018,595,1.5284728809321E+018,0.1186391752,-0.0006050919,0,0,0,-0.004799637,0.9999884817,0.1,0,0,0,0,0,0,0.1,0,0,0,0,0,0,10000000000,0,0,0,0,0,0,10000000000,0,0,0,0,0,0,10000000000,0,0,0,0,0,0,0.05,0.0376706723,0,0.0249582083
1.52847288099041E+018,596,1.52847288099002E+018,0.1208993114,-0.0006267883,0,0,0,-0.0050614332,0.9999871909,0.1,0,0,0,0,0,0,0.1,0,0,0,0,0,0,10000000000,0,0,0,0,0,0,10000000000,0,0,0,0,0,0,10000000000,0,0,0,0,0,0,0.05,0.0376706723,0,-0.0179768913
1.52847288101244E+018,597,1.52847288101208E+018,0.1216669009,-0.0006345588,0,0,0,-0.0051486985,0.9999867454,0.1,0,0,0,0,0,0,0.1,0,0,0,0,0,0,10000000000,0,0,0,0,0,0,10000000000,0,0,0,0,0,0,10000000000,0,0,0,0,0,0,0.05,0.0383814398,0,-0.0127409035
1.52847288107268E+018,598,1.52847288107201E+018,0.1238417338,-0.0006569548,0,0,0,-0.0053232291,0.9999858315,0.1,0,0,0,0,0,0,0.1,0,0,0,0,0,0,10000000000,0,0,0,0,0,0,10000000000,0,0,0,0,0,0,10000000000,0,0,0,0,0,0,0.05,0.0362491375,0,-0.0076794487
1.5284728811304E+018,599,1.52847288112993E+018,0.1259739152,-0.0006796559,0,0,0,-0.0054977594,0.9999848872,0.1,0,0,0,0,0,0,0.1,0,0,0,0,0,0,10000000000,0,0,0,0,0,0,10000000000,0,0,0,0,0,0,10000000000,0,0,0,0,0,0,0.05,0.0355383701,0,0.0064577182
1.52847288115255E+018,600,1.52847288115211E+018,0.1266988541,-0.0006876274,0,0,0,-0.0053232291,0.9999858315,0.1,0,0,0,0,0,0,0.1,0,0,0,0,0,0,10000000000,0,0,0,0,0,0,10000000000,0,0,0,0,0,0,10000000000,0,0,0,0,0,0,0.05,0.0362491375,0,0.0172787596
1.52847288121239E+018,601,1.52847288121196E+018,0.1290442536,-0.0007125986,0,0,0,-0.0050614332,0.9999871909,0.1,0,0,0,0,0,0,0.1,0,0,0,0,0,0,10000000000,0,0,0,0,0,0,10000000000,0,0,0,0,0,0,10000000000,0,0,0,0,0,0,0.05,0.0390922072,0,-0.0027925268
1.52847288127258E+018,602,1.52847288127206E+018,0.1314323097,-0.0007367735,0,0,0,-0.0054977594,0.9999848872,0.1,0,0,0,0,0,0,0.1,0,0,0,0,0,0,10000000000,0,0,0,0,0,0,10000000000,0,0,0,0,0,0,10000000000,0,0,0,0,0,0,0.05,0.0398029746,0,-0.0083775804
1.52847288133139E+018,603,1.52847288133093E+018,0.1336924134,-0.0007616257,0,0,0,-0.0056722897,0.9999839124,0.1,0,0,0,0,0,0,0.1,0,0,0,0,0,0,10000000000,0,0,0,0,0,0,10000000000,0,0,0,0,0,0,10000000000,0,0,0,0,0,0,0.05,0.0376706723,0,-0.0132645023
1.52847288139018E+018,604,1.52847288138919E+018,0.1359525083,-0.0007872667,0,0,0,-0.0056722897,0.9999839124,0.1,0,0,0,0,0,0,0.1,0,0,0,0,0,0,10000000000,0,0,0,0,0,0,10000000000,0,0,0,0,0,0,10000000000,0,0,0,0,0,0,0.05,0.0376706723,0,0.0125663706
1.52847288141145E+018,605,1.528472881411E+018,0.1367200877,-0.000795975,0,0,0,-0.0054977594,0.9999848872,0.1,0,0,0,0,0,0,0.1,0,0,0,0,0,0,10000000000,0,0,0,0,0,0,10000000000,0,0,0,0,0,0,10000000000,0,0,0,0,0,0,0.05,0.0383814398,0,0.0207694181
1.52847288147153E+018,606,1.52847288147086E+018,0.1391507653,-0.0008227028,0,0,0,-0.0053232291,0.9999858315,0.1,0,0,0,0,0,0,0.1,0,0,0,0,0,0,10000000000,0,0,0,0,0,0,10000000000,0,0,0,0,0,0,10000000000,0,0,0,0,0,0,0.05,0.040513742,0,-0.0151843645
1.52847288152932E+018,607,1.52847288152885E+018,0.1414961648,-0.0008476741,0,0,0,-0.0059340846,0.9999823932,0.1,0,0,0,0,0,0,0.1,0,0,0,0,0,0,10000000000,0,0,0,0,0,0,10000000000,0,0,0,0,0,0,10000000000,0,0,0,0,0,0,0.05,0.0390922072,0,-0.011693706
1.52847288155125E+018,608,1.52847288155084E+018,0.1422637395,-0.0008567842,0,0,0,-0.0060213495,0.9999818715,0.1,0,0,0,0,0,0,0.1,0,0,0,0,0,0,10000000000,0,0,0,0,0,0,10000000000,0,0,0,0,0,0,10000000000,0,0,0,0,0,0,0.05,0.0383814398,0,-0.0045378561
1.52847288161131E+018,609,1.52847288161085E+018,0.1446943878,-0.0008860574,0,0,0,-0.0060213495,0.9999818715,0.1,0,0,0,0,0,0,0.1,0,0,0,0,0,0,10000000000,0,0,0,0,0,0,10000000000,0,0,0,0,0,0,10000000000,0,0,0,0,0,0,0.05,0.040513742,0,0.0101229097
1.52847288167129E+018,610,1.52847288167079E+018,0.1469118212,-0.0009127627,0,0,0,-0.0041015122,0.9999915888,0.1,0,0,0,0,0,0,0.1,0,0,0,0,0,0,10000000000,0,0,0,0,0,0,10000000000,0,0,0,0,0,0,10000000000,0,0,0,0,0,0,0.05,0.0369599049,0,0.107337749
1.52847288173104E+018,611,1.52847288173067E+018,0.1492146301,-0.0009316532,0,0,0,-0.0011344638,0.9999993565,0.1,0,0,0,0,0,0,0.1,0,0,0,0,0,0,10000000000,0,0,0,0,0,0,10000000000,0,0,0,0,0,0,10000000000,0,0,0,0,0,0,0.05,0.0383814398,0,0.0895353906
1.52847288179119E+018,612,1.52847288179075E+018,0.1515175106,-0.0009368783,0,0,0,0.0023561923,0.9999972242,0.1,0,0,0,0,0,0,0.1,0,0,0,0,0,0,10000000000,0,0,0,0,0,0,10000000000,0,0,0,0,0,0,10000000000,0,0,0,0,0,0,0.05,0.0383814398,0,0.1384046097
1.52847288185093E+018,613,1.52847288185058E+018,0.1536497891,-0.0009268301,0,0,0,0.0075048453,0.9999718383,0.1,0,0,0,0,0,0,0.1,0,0,0,0,0,0,10000000000,0,0,0,0,0,0,10000000000,0,0,0,0,0,0,10000000000,0,0,0,0,0,0,0.05,0.0355383701,0,0.2120575041
1.52847288191117E+018,614,1.52847288191069E+018,0.1556539274,-0.0008967461,0,0,0,0.0135258892,0.999908521,0.1,0,0,0,0,0,0,0.1,0,0,0,0,0,0,10000000000,0,0,0,0,0,0,10000000000,0,0,0,0,0,0,10000000000,0,0,0,0,0,0,0.05,0.0334060679,0,0.1551597705
1.52847288196999E+018,615,1.52847288196958E+018,0.1579559712,-0.0008344546,0,0,0,0.0176269125,0.9998446339,0.1,0,0,0,0,0,0,0.1,0,0,0,0,0,0,10000000000,0,0,0,0,0,0,10000000000,0,0,0,0,0,0,10000000000,0,0,0,0,0,0,0.05,0.0383814398,0,0.1464331242
1.52847288202796E+018,616,1.52847288202756E+018,0.1602574265,-0.0007532816,0,0,0,0.0224256008,0.9997485146,0.1,0,0,0,0,0,0,0.1,0,0,0,0,0,0,10000000000,0,0,0,0,0,0,10000000000,0,0,0,0,0,0,10000000000,0,0,0,0,0,0,0.05,0.0383814398,0,0.1453859267
1.52847288204998E+018,617,1.52847288204958E+018,0.1608538706,-0.0007265102,0,0,0,0.0238214907,0.999716228,0.1,0,0,0,0,0,0,0.1,0,0,0,0,0,0,10000000000,0,0,0,0,0,0,10000000000,0,0,0,0,0,0,10000000000,0,0,0,0,0,0,0.05,0.0298522309,0,0.1527163096
1.52847288210984E+018,618,1.52847288210943E+018,0.1628559599,-0.0006310434,0,0,0,0.0283577982,0.9995978368,0.1,0,0,0,0,0,0,0.1,0,0,0,0,0,0,10000000000,0,0,0,0,0,0,10000000000,0,0,0,0,0,0,10000000000,0,0,0,0,0,0,0.05,0.0334060679,0,0.1752310569
1.52847288216782E+018,619,1.52847288216745E+018,0.1650274101,-0.0005077395,0,0,0,0.0346378556,0.9993999294,0.1,0,0,0,0,0,0,0.1,0,0,0,0,0,0,10000000000,0,0,0,0,0,0,10000000000,0,0,0,0,0,0,10000000000,0,0,0,0,0,0,0.05,0.0362491375,0,0.1973967384
1.52847288218994E+018,620,1.52847288218947E+018,0.1657081095,-0.0004604985,0,0,0,0.0362948751,0.999341124,0.1,0,0,0,0,0,0,0.1,0,0,0,0,0,0,10000000000,0,0,0,0,0,0,10000000000,0,0,0,0,0,0,10000000000,0,0,0,0,0,0,0.05,0.0341168353,0,0.1790707813
1.52847288224985E+018,621,1.52847288224943E+018,0.1676221254,-0.0003212854,0,0,0,0.0415268915,0.9991373866,0.1,0,0,0,0,0,0,0.1,0,0,0,0,0,0,10000000000,0,0,0,0,0,0,10000000000,0,0,0,0,0,0,10000000000,0,0,0,0,0,0,0.05,0.0319845331,0,0.1562069681
1.52847288230972E+018,622,1.52847288230931E+018,0.1697470734,-0.0001443424,0,0,0,0.046234737,0.9989306027,0.1,0,0,0,0,0,0,0.1,0,0,0,0,0,0,10000000000,0,0,0,0,0,0,10000000000,0,0,0,0,0,0,10000000000,0,0,0,0,0,0,0.05,0.0355383701,0,0.1850049007
1.52847288236996E+018,623,1.52847288236945E+018,0.1718702594,5.26196313758E-05,0,0,0,0.0515516184,0.9986703313,0.1,0,0,0,0,0,0,0.1,0,0,0,0,0,0,10000000000,0,0,0,0,0,0,10000000000,0,0,0,0,0,0,10000000000,0,0,0,0,0,0,0.05,0.0355383701,0,0.1942551457
1.52847288242979E+018,624,1.52847288242934E+018,0.1739912281,0.0002721746,0,0,0,0.0573897826,0.9983518482,0.1,0,0,0,0,0,0,0.1,0,0,0,0,0,0,10000000000,0,0,0,0,0,0,10000000000,0,0,0,0,0,0,10000000000,0,0,0,0,0,0,0.05,0.0355383701,0,0.1713913325
1.52847288248904E+018,625,1.5284728824885E+018,0.1763213101,0.00054095,0,0,0,0.062180848,0.9980648988,0.1,0,0,0,0,0,0,0.1,0,0,0,0,0,0,10000000000,0,0,0,0,0,0,10000000000,0,0,0,0,0,0,10000000000,0,0,0,0,0,0,0.05,0.0390922072,0,0.1696460033
1.52847288250996E+018,626,1.52847288250943E+018,0.1771253192,0.0006415222,0,0,0,0.0646193926,0.997909983,0.1,0,0,0,0,0,0,0.1,0,0,0,0,0,0,10000000000,0,0,0,0,0,0,10000000000,0,0,0,0,0,0,10000000000,0,0,0,0,0,0,0.05,0.040513742,0,0.170344135
1.52847288256884E+018,627,1.52847288256834E+018,0.1794512633,0.0009440224,0,0,0,0.0688859084,0.9976245444,0.1,0,0,0,0,0,0,0.1,0,0,0,0,0,0,10000000000,0,0,0,0,0,0,10000000000,0,0,0,0,0,0,10000000000,0,0,0,0,0,0,0.05,0.0390922072,0,0.1436405974
1.52847288262683E+018,628,1.52847288262638E+018,0.1818167767,0.0012722645,0,0,0,0.0731511647,0.9973208647,0.1,0,0,0,0,0,0,0.1,0,0,0,0,0,0,10000000000,0,0,0,0,0,0,10000000000,0,0,0,0,0,0,10000000000,0,0,0,0,0,0,0.05,0.0398029746,0,0.1455604596
1.52847288264885E+018,629,1.52847288264837E+018,0.1827027591,0.001402937,0,0,0,0.074630639,0.9972112453,0.1,0,0,0,0,0,0,0.1,0,0,0,0,0,0,10000000000,0,0,0,0,0,0,10000000000,0,0,0,0,0,0,10000000000,0,0,0,0,0,0,0.05,0.0447783464,0,0.1626646863
1.52847288270663E+018,630,1.52847288270627E+018,0.1848534796,0.0017266672,0,0,0,0.0796770012,0.9968207339,0.1,0,0,0,0,0,0,0.1,0,0,0,0,0,0,10000000000,0,0,0,0,0,0,10000000000,0,0,0,0,0,0,10000000000,0,0,0,0,0,0,0.05,0.0362491375,0,0.1830850385
1.52847288274895E+018,631,1.52847288272836E+018,0.1855692573,0.0018418288,0,0,0,0.0813296822,0.9966872543,0.1,0,0,0,0,0,0,0.1,0,0,0,0,0,0,10000000000,0,0,0,0,0,0,10000000000,0,0,0,0,0,0,10000000000,0,0,0,0,0,0,0.05,0.0362491375,0,0.1811651764
1.52847288279283E+018,632,1.52847288278661E+018,0.1875891875,0.0021736912,0,0,0,0.0871557427,0.9961946981,0.1,0,0,0,0,0,0,0.1,0,0,0,0,0,0,10000000000,0,0,0,0,0,0,10000000000,0,0,0,0,0,0,10000000000,0,0,0,0,0,0,0.05,0.0341168353,0,0.1961750079
1.52847288283679E+018,633,1.52847288280838E+018,0.1882611579,0.0022921777,0,0,0,0.0890681375,0.9960255353,0.1,0,0,0,0,0,0,0.1,0,0,0,0,0,0,10000000000,0,0,0,0,0,0,10000000000,0,0,0,0,0,0,10000000000,0,0,0,0,0,0,0.05,0.0341168353,0,0.2127556358
1.52847288288083E+018,634,1.52847288286838E+018,0.1903596285,0.0026705084,0,0,0,0.0949770691,0.9954794605,0.1,0,0,0,0,0,0,0.1,0,0,0,0,0,0,10000000000,0,0,0,0,0,0,10000000000,0,0,0,0,0,0,10000000000,0,0,0,0,0,0,0.05,0.0355383701,0,0.1980948701
1.52847288292881E+018,635,1.52847288292821E+018,0.1924534612,0.003073717,0,0,0,0.1009694771,0.9948895239,0.1,0,0,0,0,0,0,0.1,0,0,0,0,0,0,10000000000,0,0,0,0,0,0,10000000000,0,0,0,0,0,0,10000000000,0,0,0,0,0,0,0.05,0.0355383701,0,0.1909390202
1.52847288298905E+018,636,1.52847288298853E+018,0.19450051,0.0034935435,0,0,0,0.1066111543,0.9943007904,0.1,0,0,0,0,0,0,0.1,0,0,0,0,0,0,10000000000,0,0,0,0,0,0,10000000000,0,0,0,0,0,0,10000000000,0,0,0,0,0,0,0.05,0.0348276027,0,0.2083923127
1.52847288304656E+018,637,1.52847288304616E+018,0.1965843409,0.0039456067,0,0,0,0.1129430934,0.9936014582,0.1,0,0,0,0,0,0,0.1,0,0,0,0,0,0,10000000000,0,0,0,0,0,0,10000000000,0,0,0,0,0,0,10000000000,0,0,0,0,0,0,0.05,0.0355383701,0,0.186575697
1.52847288308883E+018,638,1.52847288306825E+018,0.1973323858,0.004117894,0,0,0,0.1147637725,0.9933928108,0.1,0,0,0,0,0,0,0.1,0,0,0,0,0,0,10000000000,0,0,0,0,0,0,10000000000,0,0,0,0,0,0,10000000000,0,0,0,0,0,0,0.05,0.0383814398,0,0.2008873969
1.52847288313279E+018,639,1.52847288312713E+018,0.1995330881,0.0046332537,0,0,0,0.1206566289,0.9926943023,0.1,0,0,0,0,0,0,0.1,0,0,0,0,0,0,10000000000,0,0,0,0,0,0,10000000000,0,0,0,0,0,0,10000000000,0,0,0,0,0,0,0.05,0.0376706723,0,0.2139773663
1.52847288318556E+018,640,1.5284728831851E+018,0.2017275192,0.0051746949,0,0,0,0.1268914884,0.9919166044,0.1,0,0,0,0,0,0,0.1,0,0,0,0,0,0,10000000000,0,0,0,0,0,0,10000000000,0,0,0,0,0,0,10000000000,0,0,0,0,0,0,0.05,0.0376706723,0,0.1748819911
1.52847288322894E+018,641,1.52847288320712E+018,0.2024704281,0.0053679313,0,0,0,0.1284494302,0.9917160601,0.1,0,0,0,0,0,0,0.1,0,0,0,0,0,0,10000000000,0,0,0,0,0,0,10000000000,0,0,0,0,0,0,10000000000,0,0,0,0,0,0,0.05,0.0383814398,0,0.1712167996
1.5284728832731E+018,642,1.52847288326716E+018,0.2048622778,0.0059980992,0,0,0,0.1349373991,0.9908541257,0.1,0,0,0,0,0,0,0.1,0,0,0,0,0,0,10000000000,0,0,0,0,0,0,10000000000,0,0,0,0,0,0,10000000000,0,0,0,0,0,0,0.05,0.0412245094,0,0.2092649773
1.52847288332541E+018,643,1.52847288332501E+018,0.2071634879,0.0066367138,0,0,0,0.1402100308,0.9901217841,0.1,0,0,0,0,0,0,0.1,0,0,0,0,0,0,10000000000,0,0,0,0,0,0,10000000000,0,0,0,0,0,0,10000000000,0,0,0,0,0,0,0.05,0.0398029746,0,0.1682497399
1.52847288336883E+018,644,1.52847288334698E+018,0.2079009353,0.0068498459,0,0,0,0.1417651368,0.9899003212,0.1,0,0,0,0,0,0,0.1,0,0,0,0,0,0,10000000000,0,0,0,0,0,0,10000000000,0,0,0,0,0,0,10000000000,0,0,0,0,0,0,0.05,0.0383814398,0,0.163362818
1.52847288341282E+018,645,1.528472883407E+018,0.2102340535,0.0075320974,0,0,0,0.1473778575,0.9890802632,0.1,0,0,0,0,0,0,0.1,0,0,0,0,0,0,10000000000,0,0,0,0,0,0,10000000000,0,0,0,0,0,0,10000000000,0,0,0,0,0,0,0.05,0.040513742,0,0.1986184689
1.52847288346771E+018,646,1.52847288346699E+018,0.212314521,0.0081661755,0,0,0,0.1528133556,0.9882550675,0.1,0,0,0,0,0,0,0.1,0,0,0,0,0,0,10000000000,0,0,0,0,0,0,10000000000,0,0,0,0,0,0,10000000000,0,0,0,0,0,0,0.05,0.0362491375,0,0.1841322361
1.52847288352736E+018,647,1.52847288352698E+018,0.2144691995,0.008848852,0,0,0,0.159450453,0.9872059324,0.1,0,0,0,0,0,0,0.1,0,0,0,0,0,0,10000000000,0,0,0,0,0,0,10000000000,0,0,0,0,0,0,10000000000,0,0,0,0,0,0,0.05,0.0376706723,0,0.2391101075
1.52847288358733E+018,648,1.52847288358695E+018,0.2166145091,0.0095604228,0,0,0,0.1663385089,0.9860687098,0.1,0,0,0,0,0,0,0.1,0,0,0,0,0,0,10000000000,0,0,0,0,0,0,10000000000,0,0,0,0,0,0,10000000000,0,0,0,0,0,0,0.05,0.0376706723,0,0.2347467844
1.52847288364627E+018,649,1.52847288364585E+018,0.2186288161,0.0102599083,0,0,0,0.1721010317,0.9850793039,0.1,0,0,0,0,0,0,0.1,0,0,0,0,0,0,10000000000,0,0,0,0,0,0,10000000000,0,0,0,0,0,0,10000000000,0,0,0,0,0,0,0.05,0.0355383701,0,0.1961750079
1.52847288368877E+018,650,1.52847288366676E+018,0.2193108526,0.0105057256,0,0,0,0.1749371389,0.9845796044,0.1,0,0,0,0,0,0,0.1,0,0,0,0,0,0,10000000000,0,0,0,0,0,0,10000000000,0,0,0,0,0,0,10000000000,0,0,0,0,0,0,0.05,0.0362491375,0,0.2096140432
1.52847288373285E+018,651,1.52847288372594E+018,0.221352681,0.0112549498,0,0,0,0.1808624655,0.9835083978,0.1,0,0,0,0,0,0,0.1,0,0,0,0,0,0,10000000000,0,0,0,0,0,0,10000000000,0,0,0,0,0,0,10000000000,0,0,0,0,0,0,0.05,0.0362491375,0,0.2106612407
1.52847288378422E+018,652,1.52847288378379E+018,0.2235447629,0.0120893952,0,0,0,0.1873813146,0.9822872507,0.1,0,0,0,0,0,0,0.1,0,0,0,0,0,0,10000000000,0,0,0,0,0,0,10000000000,0,0,0,0,0,0,10000000000,0,0,0,0,0,0,0.05,0.0390922072,0,0.2064724505
1.5284728838248E+018,653,1.52847288380582E+018,0.2242981374,0.0123876773,0,0,0,0.1893525127,0.981909174,0.1,0,0,0,0,0,0,0.1,0,0,0,0,0,0,10000000000,0,0,0,0,0,0,10000000000,0,0,0,0,0,0,10000000000,0,0,0,0,0,0,0.05,0.040513742,0,0.2073451151
1.52847288386881E+018,654,1.5284728838659E+018,0.2265150626,0.0132757308,0,0,0,0.1947479515,0.98085332,0.1,0,0,0,0,0,0,0.1,0,0,0,0,0,0,10000000000,0,0,0,0,0,0,10000000000,0,0,0,0,0,0,10000000000,0,0,0,0,0,0,0.05,0.0398029746,0,0.1830850385
1.52847288392415E+018,655,1.52847288392379E+018,0.2290373788,0.014318446,0,0,0,0.2001375039,0.9797678192,0.1,0,0,0,0,0,0,0.1,0,0,0,0,0,0,10000000000,0,0,0,0,0,0,10000000000,0,0,0,0,0,0,10000000000,0,0,0,0,0,0,0.05,0.0454891138,0,0.1713913325
1.52847288396894E+018,656,1.52847288394583E+018,0.2298612019,0.0146696664,0,0,0,0.2017617446,0.979434632,0.1,0,0,0,0,0,0,0.1,0,0,0,0,0,0,10000000000,0,0,0,0,0,0,10000000000,0,0,0,0,0,0,10000000000,0,0,0,0,0,0,0.05,0.0447783464,0,0.1839577032
1.52847288401277E+018,657,1.52847288400572E+018,0.2321724673,0.0156640983,0,0,0,0.2067165032,0.9784008827,0.1,0,0,0,0,0,0,0.1,0,0,0,0,0,0,10000000000,0,0,0,0,0,0,10000000000,0,0,0,0,0,0,10000000000,0,0,0,0,0,0,0.05,0.0419352768,0,0.1741838593
1.52847288406405E+018,658,1.52847288406365E+018,0.2343955452,0.0166473746,0,0,0,0.2126893201,0.9771198765,0.1,0,0,0,0,0,0,0.1,0,0,0,0,0,0,10000000000,0,0,0,0,0,0,10000000000,0,0,0,0,0,0,10000000000,0,0,0,0,0,0,0.05,0.040513742,0,0.2024581932
1.52847288410893E+018,659,1.52847288408583E+018,0.235093724,0.0169664364,0,0,0,0.2146500956,0.9766910138,0.1,0,0,0,0,0,0,0.1,0,0,0,0,0,0,10000000000,0,0,0,0,0,0,10000000000,0,0,0,0,0,0,10000000000,0,0,0,0,0,0,0.05,0.0383814398,0,0.2234021443
1.52847288415284E+018,660,1.52847288414473E+018,0.2370682522,0.0178783783,0,0,0,0.2212080928,0.9752266299,0.1,0,0,0,0,0,0,0.1,0,0,0,0,0,0,10000000000,0,0,0,0,0,0,10000000000,0,0,0,0,0,0,10000000000,0,0,0,0,0,0,0.05,0.0362491375,0,0.2326523893
1.52847288419681E+018,661,1.52847288416571E+018,0.2377992287,0.0182279763,0,0,0,0.2241857166,0.9745464404,0.1,0,0,0,0,0,0,0.1,0,0,0,0,0,0,10000000000,0,0,0,0,0,0,10000000000,0,0,0,0,0,0,10000000000,0,0,0,0,0,0,0.05,0.040513742,0,0.2195624199
1.52847288424086E+018,662,1.52847288422587E+018,0.2397939138,0.0191969736,0,0,0,0.2303894267,0.973098511,0.1,0,0,0,0,0,0,0.1,0,0,0,0,0,0,10000000000,0,0,0,0,0,0,10000000000,0,0,0,0,0,0,10000000000,0,0,0,0,0,0,0.05,0.0369599049,0,0.2281145332
1.52847288428504E+018,663,1.52847288428467E+018,0.2417760914,0.0201913057,0,0,0,0.236583787,0.9716110908,0.1,0,0,0,0,0,0,0.1,0,0,0,0,0,0,10000000000,0,0,0,0,0,0,10000000000,0,0,0,0,0,0,10000000000,0,0,0,0,0,0,0.05,0.0369599049,0,0.2225294796
1.52847288434316E+018,664,1.52847288434267E+018,0.2436696957,0.0211715994,0,0,0,0.2436150118,0.9698720153,0.1,0,0,0,0,0,0,0.1,0,0,0,0,0,0,10000000000,0,0,0,0,0,0,10000000000,0,0,0,0,0,0,10000000000,0,0,0,0,0,0,0.05,0.0355383701,0,0.2275909345
1.52847288438478E+018,665,1.52847288436477E+018,0.2444213778,0.0215746478,0,0,0,0.2457303628,0.9693382221,0.1,0,0,0,0,0,0,0.1,0,0,0,0,0,0,10000000000,0,0,0,0,0,0,10000000000,0,0,0,0,0,0,10000000000,0,0,0,0,0,0,0.05,0.0426460442,0,0.2349213173
1.52847288442881E+018,666,1.52847288442457E+018,0.2464836477,0.0226920399,0,0,0,0.2535891207,0.9673120272,0.1,0,0,0,0,0,0,0.1,0,0,0,0,0,0,10000000000,0,0,0,0,0,0,10000000000,0,0,0,0,0,0,10000000000,0,0,0,0,0,0,0.05,0.0390922072,0,0.2371902453
1.52847288448578E+018,667,1.52847288448495E+018,0.2484903486,0.023821835,0,0,0,0.2595776016,0.9657222524,0.1,0,0,0,0,0,0,0.1,0,0,0,0,0,0,10000000000,0,0,0,0,0,0,10000000000,0,0,0,0,0,0,10000000000,0,0,0,0,0,0,0.05,0.0383814398,0,0.2267182698
1.52847288454514E+018,668,1.52847288454458E+018,0.2504828956,0.0249764095,0,0,0,0.2673224677,0.9636071286,0.1,0,0,0,0,0,0,0.1,0,0,0,0,0,0,10000000000,0,0,0,0,0,0,10000000000,0,0,0,0,0,0,10000000000,0,0,0,0,0,0,0.05,0.0383814398,0,0.2481858196
1.52847288460506E+018,669,1.52847288460453E+018,0.2526028513,0.0262507111,0,0,0,0.2734556146,0.9618846224,0.1,0,0,0,0,0,0,0.1,0,0,0,0,0,0,10000000000,0,0,0,0,0,0,10000000000,0,0,0,0,0,0,10000000000,0,0,0,0,0,0,0.05,0.0412245094,0,0.2195624199
1.52847288466498E+018,670,1.52847288466451E+018,0.2546338635,0.0275070494,0,0,0,0.2799127931,0.960025431,0.1,0,0,0,0,0,0,0.1,0,0,0,0,0,0,10000000000,0,0,0,0,0,0,10000000000,0,0,0,0,0,0,10000000000,0,0,0,0,0,0,0.05,0.0398029746,0,0.2441715624
1.52847288472503E+018,671,1.52847288472453E+018,0.2568276253,0.0289051682,0,0,0,0.2868589658,0.9579728252,0.1,0,0,0,0,0,0,0.1,0,0,0,0,0,0,10000000000,0,0,0,0,0,0,10000000000,0,0,0,0,0,0,10000000000,0,0,0,0,0,0,0.05,0.0433568116,0,0.2101376419
1.52847288478405E+018,672,1.52847288478339E+018,0.2590721593,0.0303817955,0,0,0,0.2925386069,0.9562537129,0.1,0,0,0,0,0,0,0.1,0,0,0,0,0,0,10000000000,0,0,0,0,0,0,10000000000,0,0,0,0,0,0,10000000000,0,0,0,0,0,0,0.05,0.0447783464,0,0.2110103066
1.52847288482493E+018,673,1.5284728848043E+018,0.2597437494,0.0308351299,0,0,0,0.295207827,0.9554330635,0.1,0,0,0,0,0,0,0.1,0,0,0,0,0,0,10000000000,0,0,0,0,0,0,10000000000,0,0,0,0,0,0,10000000000,0,0,0,0,0,0,0.05,0.040513742,0,0.2024581932
1.52847288486883E+018,674,1.52847288486342E+018,0.2618213186,0.0322544779,0,0,0,0.3007057995,0.9537169507,0.1,0,0,0,0,0,0,0.1,0,0,0,0,0,0,10000000000,0,0,0,0,0,0,10000000000,0,0,0,0,0,0,10000000000,0,0,0,0,0,0,0.05,0.0419352768,0,0.2108357736
1.52847288492164E+018,675,1.52847288492127E+018,0.2637077327,0.0335753593,0,0,0,0.3066091426,0.9518355077,0.1,0,0,0,0,0,0,0.1,0,0,0,0,0,0,10000000000,0,0,0,0,0,0,10000000000,0,0,0,0,0,0,10000000000,0,0,0,0,0,0,0.05,0.0383814398,0,0.2232276113
1.52847288496486E+018,676,1.52847288494334E+018,0.2643310332,0.0340234111,0,0,0,0.309597904,0.9508675711,0.1,0,0,0,0,0,0,0.1,0,0,0,0,0,0,10000000000,0,0,0,0,0,0,10000000000,0,0,0,0,0,0,10000000000,0,0,0,0,0,0,0.05,0.0383814398,0,0.2261946711
1.5284728850128E+018,677,1.52847288500129E+018,0.2661924523,0.035379289,0,0,0,0.3162286134,0.9486830156,0.1,0,0,0,0,0,0,0.1,0,0,0,0,0,0,10000000000,0,0,0,0,0,0,10000000000,0,0,0,0,0,0,10000000000,0,0,0,0,0,0,0.05,0.0383814398,0,0.268257106
1.52847288505678E+018,678,1.52847288502337E+018,0.2668406713,0.035865455,0,0,0,0.3186284563,0.9478796901,0.1,0,0,0,0,0,0,0.1,0,0,0,0,0,0,10000000000,0,0,0,0,0,0,10000000000,0,0,0,0,0,0,10000000000,0,0,0,0,0,0,0.05,0.040513742,0,0.2675589743
1.52847288510083E+018,679,1.52847288508131E+018,0.2687099477,0.0372822572,0,0,0,0.3261456781,0.9453195209,0.1,0,0,0,0,0,0,0.1,0,0,0,0,0,0,10000000000,0,0,0,0,0,0,10000000000,0,0,0,0,0,0,10000000000,0,0,0,0,0,0,0.05,0.0390922072,0,0.2148500309
1.5284728851448E+018,680,1.52847288510327E+018,0.2693142696,0.0377555953,0,0,0,0.3279599591,0.9446916244,0.1,0,0,0,0,0,0,0.1,0,0,0,0,0,0,10000000000,0,0,0,0,0,0,10000000000,0,0,0,0,0,0,10000000000,0,0,0,0,0,0,0.05,0.0383814398,0,0.2080432468
1.52847288518884E+018,681,1.52847288516325E+018,0.2711552417,0.0392089859,0,0,0,0.3336423322,0.942699737,0.1,0,0,0,0,0,0,0.1,0,0,0,0,0,0,10000000000,0,0,0,0,0,0,10000000000,0,0,0,0,0,0,10000000000,0,0,0,0,0,0,0.05,0.0390922072,0,0.2417281014
1.52847288523284E+018,682,1.52847288522326E+018,0.2730117294,0.0407112673,0,0,0,0.3417741207,0.9397821292,0.1,0,0,0,0,0,0,0.1,0,0,0,0,0,0,10000000000,0,0,0,0,0,0,10000000000,0,0,0,0,0,0,10000000000,0,0,0,0,0,0,0.05,0.0398029746,0,0.2515019452
1.5284728852834E+018,683,1.52847288528307E+018,0.2748746669,0.042272796,0,0,0,0.3477539819,0.9375858191,0.1,0,0,0,0,0,0,0.1,0,0,0,0,0,0,10000000000,0,0,0,0,0,0,10000000000,0,0,0,0,0,0,10000000000,0,0,0,0,0,0,0.05,0.040513742,0,0.2195624199
1.52847288534147E+018,684,1.52847288534105E+018,0.2767822213,0.0439135516,0,0,0,0.3526583804,0.9357521396,0.1,0,0,0,0,0,0,0.1,0,0,0,0,0,0,10000000000,0,0,0,0,0,0,10000000000,0,0,0,0,0,0,10000000000,0,0,0,0,0,0,0.05,0.0419352768,0,0.0237364778
1.52847288538479E+018,685,1.52847288536311E+018,0.2774550286,0.0445046273,0,0,0,0.3523317198,0.9358751836,0.1,0,0,0,0,0,0,0.1,0,0,0,0,0,0,10000000000,0,0,0,0,0,0,10000000000,0,0,0,0,0,0,10000000000,0,0,0,0,0,0,0.05,0.0447783464,0,-0.0542797397
1.52847288542878E+018,686,1.52847288542206E+018,0.279474688,0.0462764447,0,0,0,0.3511880699,0.9363049394,0.1,0,0,0,0,0,0,0.1,0,0,0,0,0,0,10000000000,0,0,0,0,0,0,10000000000,0,0,0,0,0,0,10000000000,0,0,0,0,0,0,0.05,0.0447783464,0,0.0090757121
1.52847288548043E+018,687,1.52847288548006E+018,0.2814986707,0.0480433219,0,0,0,0.3523317198,0.9358751836,0.1,0,0,0,0,0,0,0.1,0,0,0,0,0,0,10000000000,0,0,0,0,0,0,10000000000,0,0,0,0,0,0,10000000000,0,0,0,0,0,0,0.05,0.0447783464,0,0.0228638132
1.52847288552081E+018,688,1.52847288550212E+018,0.2821398325,0.0486058037,0,0,0,0.352413389,0.9358444333,0.1,0,0,0,0,0,0,0.1,0,0,0,0,0,0,10000000000,0,0,0,0,0,0,10000000000,0,0,0,0,0,0,10000000000,0,0,0,0,0,0,0.05,0.0426460442,0,0.0019198622
1.52847288556495E+018,689,1.52847288556007E+018,0.2841271294,0.0503498439,0,0,0,0.3520050163,0.9359981135,0.1,0,0,0,0,0,0,0.1,0,0,0,0,0,0,10000000000,0,0,0,0,0,0,10000000000,0,0,0,0,0,0,10000000000,0,0,0,0,0,0,0.05,0.044067579,0,-0.0108210414
1.52847288560879E+018,690,1.52847288558212E+018,0.2848328391,0.0509680813,0,0,0,0.3520050163,0.9359981135,0.1,0,0,0,0,0,0,0.1,0,0,0,0,0,0,10000000000,0,0,0,0,0,0,10000000000,0,0,0,0,0,0,10000000000,0,0,0,0,0,0,0.05,0.0469106486,0,-0.002443461
1.52847288565676E+018,691,1.52847288563992E+018,0.2867895795,0.0526822849,0,0,0,0.3518416484,0.9360595357,0.1,0,0,0,0,0,0,0.1,0,0,0,0,0,0,10000000000,0,0,0,0,0,0,10000000000,0,0,0,0,0,0,10000000000,0,0,0,0,0,0,0.05,0.0433568116,0,-0.0001745329
1.52847288570484E+018,692,1.528472885662E+018,0.2874955049,0.0533002759,0,0,0,0.3519233337,0.9360288282,0.1,0,0,0,0,0,0,0.1,0,0,0,0,0,0,10000000000,0,0,0,0,0,0,10000000000,0,0,0,0,0,0,10000000000,0,0,0,0,0,0,0.05,0.0469106486,0,0.0101229097
