%time,field.header.seq,field.header.stamp,field.time_stamp,field.left_encoder,field.right_encoder,field.left_pwm,field.right_pwm
1.5284728724715E+018,0,1.5284728724712E+018,33340,0,0,0,0
1.52847287253053E+018,1,1.52847287253014E+018,33400,0,0,0,0
1.52847287255139E+018,2,1.52847287255101E+018,33420,0,0,0,0
1.52847287261067E+018,3,1.52847287261017E+018,33480,0,0,0,0
1.52847287267082E+018,4,1.52847287267035E+018,33540,0,0,0,0
1.52847287272855E+018,5,1.52847287272808E+018,33600,0,0,0,0
1.52847287275047E+018,6,1.52847287275007E+018,33620,0,0,0,0
1.52847287280867E+018,7,1.52847287280821E+018,33680,0,0,0,0
1.52847287283041E+018,8,1.52847287283002E+018,33700,0,0,0,0
1.52847287289053E+018,9,1.52847287289003E+018,33760,0,0,0,0
1.5284728729485E+018,10,1.528472872948E+018,33820,0,0,0,0
1.52847287297088E+018,11,1.52847287297034E+018,33840,0,0,0,0
1.52847287302941E+018,12,1.52847287302899E+018,33900,0,0,0,0
1.52847287305051E+018,13,1.52847287305009E+018,33920,0,0,0,0
1.52847287310941E+018,14,1.528472873109E+018,33980,0,0,0,0
1.52847287316942E+018,15,1.528472873169E+018,34040,0,0,0,0
1.52847287322736E+018,16,1.52847287322688E+018,34100,0,0,0,0
1.52847287324922E+018,17,1.52847287324884E+018,34120,0,0,0,0
1.52847287330928E+018,18,1.52847287330886E+018,34180,0,0,0,0
1.52847287336919E+018,19,1.52847287336886E+018,34240,0,0,0,0
1.52847287342942E+018,20,1.52847287342899E+018,34300,0,0,0,0
1.52847287348916E+018,21,1.52847287348877E+018,34360,0,0,0,0
1.52847287354822E+018,22,1.52847287354777E+018,34420,0,0,0,0
1.52847287356923E+018,23,1.52847287356883E+018,34440,0,0,0,0
1.52847287362811E+018,24,1.52847287362771E+018,34500,0,0,0,0
1.52847287368822E+018,25,1.52847287368779E+018,34560,0,0,0,0
1.52847287374585E+018,26,1.52847287374552E+018,34620,0,0,0,0
1.52847287376807E+018,27,1.52847287376764E+018,34640,0,0,0,0
1.5284728738281E+018,28,1.52847287382761E+018,34700,0,0,0,0
1.52847287388807E+018,29,1.52847287388768E+018,34760,0,0,0,0
1.52847287394791E+018,30,1.52847287394751E+018,34820,0,0,0,0
1.5284728740078E+018,31,1.52847287400747E+018,34880,0,0,0,0
1.52847287406686E+018,32,1.5284728740665E+018,34940,0,0,0,0
1.5284728740878E+018,33,1.52847287408745E+018,34960,0,0,0,0
1.52847287414682E+018,34,1.52847287414646E+018,35020,0,0,0,0
1.52847287420476E+018,35,1.52847287420432E+018,35080,0,0,0,0
1.52847287422785E+018,36,1.52847287422738E+018,35100,0,0,0,0
1.52847287428686E+018,37,1.52847287428643E+018,35160,0,0,0,0
1.52847287434471E+018,38,1.5284728743443E+018,35220,0,0,0,0
1.52847287436691E+018,39,1.52847287436647E+018,35240,0,0,0,0
1.52847287442683E+018,40,1.52847287442639E+018,35300,0,0,0,0
1.52847287448486E+018,41,1.52847287448432E+018,35360,0,0,0,0
1.52847287450675E+018,42,1.52847287450628E+018,35380,0,0,0,0
1.52847287456668E+018,43,1.52847287456627E+018,35440,0,0,0,0
1.52847287462664E+018,44,1.52847287462624E+018,35500,0,0,0,0
1.52847287468556E+018,45,1.52847287468518E+018,35560,0,0,0,0
1.52847287474353E+018,46,1.5284728747431E+018,35620,0,0,0,0
1.52847287476669E+018,47,1.52847287476634E+018,35640,0,0,0,0
1.52847287482555E+018,48,1.52847287482512E+018,35700,0,0,0,0
1.52847287488338E+018,49,1.52847287488305E+018,35760,0,0,0,0
1.52847287490548E+018,50,1.52847287490504E+018,35780,0,0,0,0
1.52847287496616E+018,51,1.52847287496556E+018,35840,0,0,0,0
1.52847287502356E+018,52,1.52847287502306E+018,35900,0,0,0,0
1.52847287504529E+018,53,1.52847287504496E+018,35920,0,0,0,0
1.52847287510522E+018,54,1.52847287510485E+018,35980,0,0,0,0
1.52847287516591E+018,55,1.52847287516517E+018,36040,0,0,0,0
1.52847287522527E+018,56,1.52847287522488E+018,36100,0,0,0,0
1.52847287528543E+018,57,1.52847287528498E+018,36160,0,0,0,0
1.52847287534406E+018,58,1.52847287534369E+018,36220,0,0,0,0
1.52847287536525E+018,59,1.52847287536478E+018,36240,0,0,0,0
1.52847287542408E+018,60,1.52847287542371E+018,36300,0,0,0,0
1.52847287548409E+018,61,1.52847287548371E+018,36360,0,0,0,0
1.52847287554208E+018,62,1.52847287554168E+018,36420,0,0,0,0
1.5284728755641E+018,63,1.52847287556374E+018,36440,0,0,0,0
1.52847287562212E+018,64,1.52847287562172E+018,36500,0,0,0,0
1.5284728756442E+018,65,1.52847287564383E+018,36520,0,0,0,0
1.52847287570395E+018,66,1.5284728757036E+018,36580,0,0,0,0
1.52847287576235E+018,67,1.52847287576201E+018,36640,0,0,0,0
1.528472875784E+018,68,1.5284728757836E+018,36660,0,0,0,0
1.52847287584306E+018,69,1.5284728758427E+018,36720,0,0,0,0
1.52847287586403E+018,70,1.52847287586365E+018,36740,0,0,0,0
1.52847287592398E+018,71,1.52847287592348E+018,36800,0,0,0,0
1.52847287598306E+018,72,1.52847287598247E+018,36860,0,0,0,0
1.52847287604086E+018,73,1.52847287604045E+018,36920,0,0,0,0
1.52847287606282E+018,74,1.5284728760625E+018,36940,0,0,0,0
1.52847287612304E+018,75,1.52847287612264E+018,37000,0,0,0,0
1.52847287618279E+018,76,1.52847287618238E+018,37060,0,0,0,0
1.5284728762429E+018,77,1.52847287624251E+018,37120,0,0,0,0
1.52847287630278E+018,78,1.52847287630235E+018,37180,0,0,0,0
1.52847287636183E+018,79,1.52847287636146E+018,37240,0,0,0,0
1.5284728763827E+018,80,1.52847287638234E+018,37260,0,0,0,0
1.52847287644176E+018,81,1.52847287644135E+018,37320,0,0,0,0
1.52847287649997E+018,82,1.52847287649946E+018,37380,0,0,0,0
1.52847287652274E+018,83,1.52847287652236E+018,37400,0,0,0,0
1.52847287658137E+018,84,1.52847287658125E+018,37460,0,0,0,0
1.52847287664169E+018,85,1.5284728766413E+018,37520,0,0,0,0
1.52847287669958E+018,86,1.5284728766992E+018,37580,0,0,0,0
1.52847287672154E+018,87,1.52847287672121E+018,37600,0,0,0,0
1.52847287677951E+018,88,1.5284728767791E+018,37660,0,0,0,0
1.52847287680146E+018,89,1.52847287680111E+018,37680,0,0,0,0
1.52847287686163E+018,90,1.52847287686123E+018,37740,0,0,0,0
1.5284728769215E+018,91,1.52847287692112E+018,37800,0,0,0,0
1.52847287698064E+018,92,1.52847287698019E+018,37860,0,0,0,0
1.52847287703828E+018,93,1.52847287703792E+018,37920,0,0,0,0
1.52847287706134E+018,94,1.52847287706102E+018,37940,0,0,0,0
1.52847287712052E+018,95,1.52847287712007E+018,38000,0,0,0,0
1.5284728771784E+018,96,1.52847287717793E+018,38060,0,0,18,18
1.5284728772003E+018,97,1.52847287719989E+018,38080,0,0,18,18
1.52847287726027E+018,98,1.52847287725988E+018,38140,2,3,17,17
1.52847287732022E+018,99,1.52847287731984E+018,38200,25,22,7,9
1.52847287738027E+018,100,1.52847287737987E+018,38260,41,36,11,12
1.52847287744016E+018,101,1.52847287743979E+018,38320,58,53,10,10
1.52847287750026E+018,102,1.52847287749983E+018,38380,77,74,9,9
1.5284728775601E+018,103,1.52847287755971E+018,38440,97,93,9,10
1.52847287761903E+018,104,1.52847287761864E+018,38500,116,111,10,10
1.52847287767758E+018,105,1.52847287767711E+018,38560,137,129,9,10
1.52847287769978E+018,106,1.52847287769954E+018,38580,143,135,9,11
1.52847287775903E+018,107,1.5284728777585E+018,38640,165,156,8,9
1.52847287781685E+018,108,1.52847287781639E+018,38700,185,177,9,9
1.52847287783901E+018,109,1.5284728778386E+018,38720,191,183,9,10
1.52847287789892E+018,110,1.52847287789861E+018,38780,210,202,10,10
1.52847287795685E+018,111,1.52847287795644E+018,38840,229,222,10,10
1.52847287797927E+018,112,1.52847287797881E+018,38860,236,228,10,10
1.52847287803903E+018,113,1.52847287803852E+018,38920,258,247,9,10
1.52847287809881E+018,114,1.52847287809841E+018,38980,279,269,9,9
1.52847287815917E+018,115,1.52847287815875E+018,39040,299,291,10,9
1.52847287821888E+018,116,1.52847287821846E+018,39100,320,312,10,10
1.52847287827855E+018,117,1.52847287827759E+018,39160,341,331,10,11
1.52847287829893E+018,118,1.52847287829839E+018,39180,349,339,9,10
1.528472878358E+018,119,1.52847287835748E+018,39240,370,360,10,10
1.52847287841772E+018,120,1.52847287841724E+018,39300,391,381,10,10
1.5284728784756E+018,121,1.52847287847522E+018,39360,412,401,10,10
1.5284728784976E+018,122,1.52847287849726E+018,39380,419,408,10,10
1.52847287855766E+018,123,1.52847287855726E+018,39440,441,430,9,10
1.52847287861755E+018,124,1.52847287861716E+018,39500,463,451,10,10
1.52847287867754E+018,125,1.52847287867712E+018,39560,486,472,9,10
1.52847287873755E+018,126,1.52847287873711E+018,39620,508,495,10,9
1.52847287879747E+018,127,1.52847287879708E+018,39680,529,517,10,10
1.52847287885749E+018,128,1.5284728788572E+018,39740,552,539,9,10
1.52847287891631E+018,129,1.52847287891595E+018,39800,575,560,9,11
1.52847287897433E+018,130,1.52847287897406E+018,39860,598,583,10,10
1.52847287899633E+018,131,1.52847287899598E+018,39880,606,591,10,10
1.5284728790543E+018,132,1.52847287905392E+018,39940,628,614,10,10
1.52847287907655E+018,133,1.52847287907611E+018,39960,635,622,10,10
1.5284728791343E+018,134,1.52847287913392E+018,40020,658,644,10,10
1.52847287915627E+018,135,1.52847287915591E+018,40040,666,652,9,10
1.52847287921428E+018,136,1.52847287921387E+018,40100,689,674,10,10
1.52847287923626E+018,137,1.5284728792359E+018,40120,697,681,10,11
1.52847287929617E+018,138,1.52847287929585E+018,40180,719,705,10,10
1.52847287935654E+018,139,1.52847287935597E+018,40240,741,728,10,10
1.52847287941624E+018,140,1.52847287941585E+018,40300,765,751,10,10
1.5284728794763E+018,141,1.52847287947589E+018,40360,789,773,10,11
1.52847287953513E+018,142,1.52847287953473E+018,40420,814,797,9,10
1.52847287959309E+018,143,1.52847287959273E+018,40480,836,821,11,10
1.52847287961508E+018,144,1.52847287961475E+018,40500,844,829,10,10
1.52847287967552E+018,145,1.52847287967485E+018,40560,867,853,10,10
1.52847287973316E+018,146,1.52847287973277E+018,40620,892,876,9,10
1.52847287975502E+018,147,1.52847287975466E+018,40640,900,884,9,10
1.52847287981556E+018,148,1.52847287981475E+018,40700,924,906,10,11
1.52847287987526E+018,149,1.52847287987471E+018,40760,948,932,10,9
1.52847287993506E+018,150,1.52847287993465E+018,40820,972,956,10,10
1.52847287999503E+018,151,1.52847287999454E+018,40880,999,981,9,10
1.52847288005408E+018,152,1.52847288005365E+018,40940,1025,1004,9,11
1.52847288007504E+018,153,1.52847288007448E+018,40960,1034,1013,9,10
1.52847288013474E+018,154,1.52847288013436E+018,41020,1057,1038,11,10
1.52847288019394E+018,155,1.52847288019339E+018,41080,1082,1063,10,10
1.52847288025164E+018,156,1.5284728802513E+018,41140,1108,1088,9,10
1.5284728802737E+018,157,1.52847288027343E+018,41160,1117,1096,9,10
1.52847288033374E+018,158,1.52847288033335E+018,41220,1143,1120,10,11
1.52847288039169E+018,159,1.52847288039135E+018,41280,1166,1147,11,9
1.52847288041393E+018,160,1.52847288041344E+018,41300,1174,1155,11,10
1.52847288047382E+018,161,1.52847288047342E+018,41360,1200,1181,10,10
1.52847288053372E+018,162,1.52847288053338E+018,41420,1227,1206,9,10
1.52847288059377E+018,163,1.52847288059324E+018,41480,1253,1230,10,11
1.52847288065275E+018,164,1.52847288065236E+018,41540,1278,1258,10,9
1.52847288071056E+018,165,1.52847288071018E+018,41600,1304,1283,10,10
1.52847288073361E+018,166,1.52847288073323E+018,41620,1314,1292,9,11
1.52847288079285E+018,167,1.52847288079234E+018,41680,1341,1319,9,10
1.5284728808504E+018,168,1.52847288085006E+018,41740,1366,1345,10,10
1.52847288087243E+018,169,1.52847288087216E+018,41760,1375,1354,11,10
1.52847288093253E+018,170,1.52847288093214E+018,41820,1401,1381,10,10
1.5284728809904E+018,171,1.52847288099005E+018,41880,1428,1407,10,10
1.52847288101246E+018,172,1.52847288101219E+018,41900,1437,1416,10,10
1.52847288107266E+018,173,1.52847288107206E+018,41960,1464,1440,10,11
1.52847288113036E+018,174,1.52847288112998E+018,42020,1487,1467,12,10
1.52847288115253E+018,175,1.52847288115215E+018,42040,1496,1475,11,10
1.52847288121242E+018,176,1.52847288121201E+018,42100,1523,1503,10,9
1.52847288127251E+018,177,1.52847288127211E+018,42160,1552,1530,9,10
1.52847288133142E+018,178,1.52847288133098E+018,42220,1578,1557,10,10
1.52847288139014E+018,179,1.52847288138929E+018,42280,1604,1584,10,10
1.52847288141146E+018,180,1.52847288141104E+018,42300,1613,1593,10,10
1.5284728814715E+018,181,1.528472881471E+018,42360,1641,1622,10,9
1.5284728815293E+018,182,1.5284728815289E+018,42420,1669,1649,10,10
1.52847288155123E+018,183,1.52847288155087E+018,42440,1678,1658,10,10
1.52847288161129E+018,184,1.5284728816109E+018,42500,1689,1704,2,15
1.52847288167153E+018,185,1.52847288167084E+018,42560,1704,1741,0,20
1.52847288173103E+018,186,1.52847288173071E+018,42620,1721,1778,0,20
1.52847288179122E+018,187,1.52847288179081E+018,42680,1733,1820,2,17
1.52847288185104E+018,188,1.52847288185062E+018,42740,1743,1860,3,18
1.52847288191114E+018,189,1.52847288191073E+018,42800,1752,1898,3,20
1.52847288196995E+018,190,1.52847288196961E+018,42860,1766,1938,1,19
1.52847288202792E+018,191,1.5284728820276E+018,42920,1778,1980,2,18
1.52847288204995E+018,192,1.52847288204961E+018,42940,1781,1991,2,19
1.52847288210993E+018,193,1.52847288210953E+018,43000,1787,2032,5,18
1.52847288216792E+018,194,1.5284728821675E+018,43060,1797,2073,3,19
1.52847288218991E+018,195,1.52847288218951E+018,43080,1800,2086,3,19
1.52847288225E+018,196,1.52847288224954E+018,43140,1807,2124,4,20
1.52847288230981E+018,197,1.52847288230942E+018,43200,1816,2165,3,19
1.52847288236984E+018,198,1.52847288236949E+018,43260,1825,2206,3,19
1.52847288242975E+018,199,1.52847288242938E+018,43320,1833,2248,4,19
1.52847288248903E+018,200,1.52847288248854E+018,43380,1846,2290,1,19
1.52847288250994E+018,201,1.52847288250948E+018,43400,1851,2304,1,18
1.52847288256882E+018,202,1.52847288256837E+018,43460,1866,2344,0,20
1.52847288262684E+018,203,1.52847288262643E+018,43520,1880,2386,0,19
1.52847288264876E+018,204,1.5284728826484E+018,43540,1885,2402,0,18
1.52847288270665E+018,205,1.52847288270637E+018,43600,1894,2444,3,19
1.52847288272876E+018,206,1.52847288272844E+018,43620,1897,2458,3,19
1.52847288278747E+018,207,1.52847288278672E+018,43680,1903,2500,4,19
1.52847288280878E+018,208,1.52847288280841E+018,43700,1905,2514,4,19
1.52847288286913E+018,209,1.52847288286851E+018,43760,1912,2557,4,19
1.52847288292863E+018,210,1.52847288292824E+018,43820,1919,2600,4,19
1.52847288298905E+018,211,1.52847288298857E+018,43880,1926,2642,4,20
1.52847288304654E+018,212,1.52847288304619E+018,43940,1933,2685,4,19
1.52847288306884E+018,213,1.52847288306832E+018,43960,1935,2701,3,19
1.52847288312759E+018,214,1.52847288312717E+018,44020,1945,2744,2,19
1.52847288318559E+018,215,1.52847288318523E+018,44080,1954,2788,3,19
1.52847288320751E+018,216,1.52847288320717E+018,44100,1957,2803,2,19
1.5284728832678E+018,217,1.52847288326726E+018,44160,1970,2848,1,19
1.52847288332555E+018,218,1.52847288332506E+018,44220,1982,2892,1,19
1.52847288334735E+018,219,1.52847288334701E+018,44240,1986,2906,1,20
1.52847288340739E+018,220,1.52847288340705E+018,44300,1998,2951,1,19
1.52847288346771E+018,221,1.52847288346712E+018,44360,2005,2995,4,19
1.52847288352739E+018,222,1.52847288352702E+018,44420,2012,3041,4,19
1.52847288358737E+018,223,1.52847288358698E+018,44480,2019,3087,4,19
1.52847288364625E+018,224,1.52847288364588E+018,44540,2025,3131,4,20
1.52847288366715E+018,225,1.52847288366685E+018,44560,2028,3145,3,20
1.52847288372639E+018,226,1.52847288372601E+018,44620,2034,3190,4,19
1.52847288378415E+018,227,1.52847288378382E+018,44680,2043,3236,3,19
1.52847288380625E+018,228,1.52847288380585E+018,44700,2047,3251,3,19
1.52847288386635E+018,229,1.52847288386594E+018,44760,2059,3295,1,20
1.52847288392414E+018,230,1.52847288392382E+018,44820,2075,3343,0,18
1.52847288394615E+018,231,1.52847288394592E+018,44840,2080,3359,0,18
1.5284728840061E+018,232,1.52847288400582E+018,44900,2093,3405,1,19
1.52847288406405E+018,233,1.52847288406369E+018,44960,2102,3453,2,18
1.52847288408626E+018,234,1.52847288408588E+018,44980,2104,3469,3,18
1.52847288414513E+018,235,1.52847288414476E+018,45040,2109,3515,4,20
1.52847288416612E+018,236,1.52847288416576E+018,45060,2112,3531,4,20
1.52847288422634E+018,237,1.52847288422592E+018,45120,2118,3577,4,20
1.52847288428498E+018,238,1.52847288428476E+018,45180,2123,3624,4,19
1.52847288434314E+018,239,1.52847288434273E+018,45240,2128,3669,4,20
1.52847288436519E+018,240,1.52847288436481E+018,45260,2131,3686,4,19
1.52847288442502E+018,241,1.5284728844247E+018,45320,2137,3735,4,18
1.52847288448579E+018,242,1.52847288448517E+018,45380,2144,3782,3,20
1.52847288454511E+018,243,1.52847288454468E+018,45440,2151,3829,3,20
1.52847288460506E+018,244,1.52847288460457E+018,45500,2159,3879,3,18
1.52847288466495E+018,245,1.52847288466454E+018,45560,2167,3927,3,19
1.52847288472498E+018,246,1.52847288472457E+018,45620,2180,3975,0,19
1.52847288478397E+018,247,1.52847288478345E+018,45680,2193,4025,0,18
1.52847288480484E+018,248,1.52847288480437E+018,45700,2197,4040,1,19
1.52847288486397E+018,249,1.52847288486356E+018,45760,2207,4089,2,19
1.52847288492165E+018,250,1.52847288492131E+018,45820,2213,4137,4,20
1.52847288494365E+018,251,1.52847288494343E+018,45840,2215,4153,4,19
1.52847288500175E+018,252,1.52847288500133E+018,45900,2220,4202,4,19
1.52847288502396E+018,253,1.52847288502351E+018,45920,2222,4219,4,19
1.52847288508181E+018,254,1.52847288508135E+018,45980,2229,4267,3,20
1.52847288510371E+018,255,1.52847288510338E+018,46000,2231,4283,3,20
1.52847288516365E+018,256,1.52847288516338E+018,46060,2237,4332,4,19
1.52847288522371E+018,257,1.5284728852233E+018,46120,2242,4383,4,18
1.52847288528347E+018,258,1.52847288528316E+018,46180,2264,4418,11,12
1.52847288534146E+018,259,1.52847288534108E+018,46240,2289,4452,10,13
1.52847288536355E+018,260,1.52847288536314E+018,46260,2301,4461,10,14
1.52847288542241E+018,261,1.52847288542215E+018,46320,2328,4497,9,12
1.52847288548043E+018,262,1.52847288548019E+018,46380,2360,4528,7,14
1.52847288550247E+018,263,1.52847288550215E+018,46400,2369,4539,7,14
1.52847288556046E+018,264,1.52847288556018E+018,46460,2400,4570,7,14
1.52847288558256E+018,265,1.52847288558215E+018,46480,2410,4582,7,14
1.52847288564028E+018,266,1.52847288564003E+018,46540,2439,4614,8,14
1.52847288566239E+018,267,1.52847288566209E+018,46560,2449,4626,8,13
1.52847288572031E+018,268,1.52847288572007E+018,46620,2480,4655,7,15
1.52847288574237E+018,269,1.52847288574204E+018,46640,2490,4666,7,15
1.52847288580212E+018,270,1.52847288580184E+018,46700,2522,4699,7,13
1.52847288586227E+018,271,1.52847288586191E+018,46760,2552,4730,8,14
1.52847288592223E+018,272,1.52847288592193E+018,46820,2581,4761,8,14
1.5284728859802E+018,273,1.52847288597983E+018,46880,2612,4792,7,14
1.52847288600224E+018,274,1.52847288600188E+018,46900,2623,4803,7,14
1.52847288606137E+018,275,1.52847288606095E+018,46960,2653,4836,8,14
1.52847288611908E+018,276,1.52847288611871E+018,47020,2682,4866,8,15
1.52847288614118E+018,277,1.52847288614084E+018,47040,2691,4876,9,16
1.52847288620118E+018,278,1.5284728862008E+018,47100,2745,4888,10,8
1.5284728862591E+018,279,1.52847288625873E+018,47160,2782,4913,19,2
1.52847288628143E+018,280,1.52847288628088E+018,47180,2794,4921,18,3
1.52847288634101E+018,281,1.52847288634066E+018,47240,2831,4943,19,3
1.52847288640112E+018,282,1.5284728864007E+018,47300,2872,4963,17,4
1.52847288646114E+018,283,1.52847288646072E+018,47360,2911,4978,18,6
1.52847288652102E+018,284,1.52847288652068E+018,47420,2949,4999,19,3
1.5284728865804E+018,285,1.52847288657968E+018,47480,2989,5023,18,2
1.52847288660102E+018,286,1.52847288660054E+018,47500,3003,5032,18,1
1.52847288665988E+018,287,1.52847288665953E+018,47560,3041,5053,19,3
1.5284728867179E+018,288,1.52847288671759E+018,47620,3085,5071,16,5
1.52847288673993E+018,289,1.52847288673957E+018,47640,3099,5076,16,5
1.52847288679804E+018,290,1.52847288679761E+018,47700,3140,5091,18,6
1.52847288681984E+018,291,1.52847288681945E+018,47720,3153,5097,19,5
1.52847288687784E+018,292,1.52847288687738E+018,47780,3193,5119,19,3
1.52847288689977E+018,293,1.52847288689947E+018,47800,3207,5127,18,2
1.52847288695974E+018,294,1.5284728869594E+018,47860,3247,5149,19,2
1.52847288701974E+018,295,1.52847288701944E+018,47920,3290,5167,17,4
1.52847288707983E+018,296,1.5284728870794E+018,47980,3336,5180,16,7
1.52847288713966E+018,297,1.52847288713928E+018,48040,3376,5196,19,5
1.52847288719964E+018,298,1.52847288719928E+018,48100,3415,5215,20,4
1.52847288725743E+018,299,1.52847288725704E+018,48160,3453,5236,20,3
1.52847288727971E+018,300,1.52847288727928E+018,48180,3467,5244,20,2
1.52847288733853E+018,301,1.5284728873382E+018,48240,3510,5268,18,1
1.52847288739639E+018,302,1.52847288739606E+018,48300,3555,5283,17,5
1.52847288741862E+018,303,1.52847288741821E+018,48320,3569,5287,18,6
1.5284728874784E+018,304,1.528472887478E+018,48380,3612,5304,18,4
1.52847288753664E+018,305,1.5284728875362E+018,48440,3653,5321,19,4
1.52847288755838E+018,306,1.52847288755804E+018,48460,3666,5327,20,4
1.52847288761832E+018,307,1.52847288761805E+018,48520,3706,5348,20,2
1.5284728876785E+018,308,1.52847288767808E+018,48580,3752,5371,17,1
1.52847288773804E+018,309,1.52847288773785E+018,48640,3792,5387,20,4
1.52847288779812E+018,310,1.52847288779783E+018,48700,3836,5403,18,4
1.52847288785817E+018,311,1.52847288785774E+018,48760,3879,5419,19,4
1.52847288791817E+018,312,1.52847288791778E+018,48820,3921,5435,20,4
1.5284728879777E+018,313,1.52847288797679E+018,48880,3967,5456,18,2
1.52847288799793E+018,314,1.52847288799758E+018,48900,3981,5464,18,1
1.52847288805704E+018,315,1.52847288805673E+018,48960,4023,5485,20,2
1.52847288811496E+018,316,1.52847288811456E+018,49020,4068,5502,18,3
1.52847288813699E+018,317,1.52847288813664E+018,49040,4082,5507,18,4
1.52847288819489E+018,318,1.52847288819451E+018,49100,4125,5520,20,5
1.52847288821694E+018,319,1.52847288821655E+018,49120,4139,5526,20,4
1.52847288827485E+018,320,1.5284728882745E+018,49180,4183,5546,19,2
1.52847288829697E+018,321,1.52847288829667E+018,49200,4196,5554,21,1
1.52847288835686E+018,322,1.52847288835656E+018,49260,4238,5578,20,0
1.52847288841697E+018,323,1.52847288841658E+018,49320,4284,5599,18,1
1.52847288847772E+018,324,1.5284728884768E+018,49380,4330,5612,19,5
1.52847288853479E+018,325,1.52847288853436E+018,49440,4375,5626,19,4
1.52847288855677E+018,326,1.52847288855638E+018,49460,4391,5631,18,4
1.5284728886157E+018,327,1.52847288861541E+018,49520,4430,5647,22,3
1.52847288863694E+018,328,1.52847288863649E+018,49540,4444,5653,22,3
1.52847288869662E+018,329,1.52847288869622E+018,49600,4486,5677,21,0
1.52847288875583E+018,330,1.52847288875542E+018,49660,4532,5697,19,1
1.52847288881373E+018,331,1.52847288881323E+018,49720,4579,5711,19,4
1.52847288883547E+018,332,1.52847288883515E+018,49740,4595,5716,18,5
1.52847288889568E+018,333,1.52847288889527E+018,49800,4641,5729,19,5
1.52847288895556E+018,334,1.52847288895515E+018,49860,4683,5745,21,3
1.52847288901562E+018,335,1.52847288901522E+018,49920,4730,5766,19,1
1.52847288907552E+018,336,1.52847288907514E+018,49980,4774,5785,20,1
1.52847288913548E+018,337,1.52847288913507E+018,50040,4822,5805,19,1
1.52847288919537E+018,338,1.52847288919503E+018,50100,4868,5819,20,4
1.52847288925461E+018,339,1.52847288925422E+018,50160,4914,5832,20,4
1.52847288927553E+018,340,1.52847288927507E+018,50180,4929,5837,20,4
1.52847288933433E+018,341,1.528472889334E+018,50240,4974,5851,20,4
1.52847288939238E+018,342,1.52847288939201E+018,50300,5021,5868,20,2
1.5284728894142E+018,343,1.52847288941389E+018,50320,5036,5874,20,2
1.52847288947216E+018,344,1.52847288947183E+018,50380,5084,5895,19,0
1.52847288949444E+018,345,1.52847288949412E+018,50400,5099,5902,20,0
1.52847288955219E+018,346,1.52847288955186E+018,50460,5146,5920,20,1
1.52847288957427E+018,347,1.52847288957401E+018,50480,5162,5925,19,2
1.52847288963421E+018,348,1.52847288963388E+018,50540,5207,5937,21,4
1.52847288969444E+018,349,1.52847288969397E+018,50600,5254,5950,20,4
1.52847288975354E+018,350,1.52847288975296E+018,50660,5300,5963,21,4
1.5284728898112E+018,351,1.52847288981084E+018,50720,5347,5980,20,2
1.52847288983408E+018,352,1.52847288983379E+018,50740,5364,5986,20,1
1.52847288989315E+018,353,1.5284728898928E+018,50800,5411,6003,20,2
1.52847288995105E+018,354,1.52847288995069E+018,50860,5459,6019,20,2
1.52847288997333E+018,355,1.52847288997302E+018,50880,5475,6024,20,3
1.52847289003306E+018,356,1.52847289003269E+018,50940,5523,6035,20,4
1.52847289009107E+018,357,1.52847289009058E+018,51000,5570,6047,20,4
1.52847289011327E+018,358,1.52847289011285E+018,51020,5586,6051,20,4
1.52847289017313E+018,359,1.52847289017271E+018,51080,5633,6063,21,4
1.52847289023297E+018,360,1.52847289023254E+018,51140,5681,6076,20,3
1.52847289029307E+018,361,1.52847289029254E+018,51200,5729,6094,20,1
1.52847289035332E+018,362,1.52847289035289E+018,51260,5776,6114,21,0
1.52847289041185E+018,363,1.52847289041157E+018,51320,5826,6129,19,2
1.52847289043295E+018,364,1.52847289043257E+018,51340,5843,6134,19,2
1.52847289049196E+018,365,1.52847289049162E+018,51400,5891,6145,20,4
1.52847289054984E+018,366,1.52847289054946E+018,51460,5939,6156,21,4
1.52847289057282E+018,367,1.52847289057249E+018,51480,5954,6159,21,4
1.5284728906318E+018,368,1.52847289063141E+018,51540,6003,6170,20,4
1.52847289068975E+018,369,1.52847289068935E+018,51600,6052,6182,20,3
1.5284728907117E+018,370,1.52847289071143E+018,51620,6067,6187,21,3
1.52847289077179E+018,371,1.52847289077145E+018,51680,6117,6204,20,1
1.52847289082943E+018,372,1.52847289082931E+018,51740,6166,6222,20,0
1.52847289085181E+018,373,1.52847289085146E+018,51760,6182,6228,21,1
1.52847289091165E+018,374,1.52847289091127E+018,51820,6230,6244,21,1
1.52847289097184E+018,375,1.52847289097141E+018,51880,6279,6258,21,2
1.52847289103172E+018,376,1.52847289103129E+018,51940,6328,6269,21,4
1.52847289108978E+018,377,1.52847289108934E+018,52000,6380,6279,19,4
1.52847289111178E+018,378,1.52847289111139E+018,52020,6396,6283,20,4
1.52847289117051E+018,379,1.52847289117012E+018,52080,6445,6297,21,2
1.52847289122852E+018,380,1.52847289122815E+018,52140,6494,6315,21,0
1.52847289125057E+018,381,1.52847289125022E+018,52160,6510,6323,21,0
1.5284728913105E+018,382,1.5284728913102E+018,52220,6562,6339,20,1
1.52847289136851E+018,383,1.528472891368E+018,52280,6613,6351,20,3
1.52847289139122E+018,384,1.52847289139057E+018,52300,6629,6354,21,4
1.52847289145041E+018,385,1.52847289145001E+018,52360,6680,6363,20,4
1.52847289151041E+018,386,1.52847289151007E+018,52420,6728,6373,22,4
1.52847289157058E+018,387,1.52847289157017E+018,52480,6780,6384,20,3
1.5284728916303E+018,388,1.52847289163E+018,52540,6830,6394,21,4
1.52847289168932E+018,389,1.52847289168889E+018,52600,6881,6407,20,2
1.52847289171038E+018,390,1.52847289171009E+018,52620,6898,6411,20,2
1.52847289176928E+018,391,1.52847289176902E+018,52680,6949,6428,20,0
1.52847289182744E+018,392,1.52847289182696E+018,52740,6999,6446,21,0
1.52847289184927E+018,393,1.52847289184892E+018,52760,7016,6452,21,0
1.52847289190926E+018,394,1.52847289190894E+018,52820,7066,6465,21,2
1.52847289196738E+018,395,1.52847289196689E+018,52880,7118,6475,20,3
1.5284728919902E+018,396,1.52847289198885E+018,52900,7136,6478,20,4
1.52847289204916E+018,397,1.5284728920488E+018,52960,7186,6487,21,4
1.52847289210709E+018,398,1.52847289210672E+018,53020,7237,6497,21,3
1.52847289212925E+018,399,1.5284728921289E+018,53040,7254,6500,21,3
1.52847289218938E+018,400,1.52847289218896E+018,53100,7304,6513,21,2
1.52847289224905E+018,401,1.52847289224868E+018,53160,7356,6529,20,0
1.52847289230819E+018,402,1.52847289230773E+018,53220,7409,6543,20,1
1.52847289236613E+018,403,1.52847289236574E+018,53280,7462,6555,20,2
1.52847289238796E+018,404,1.52847289238762E+018,53300,7478,6560,21,2
1.52847289244852E+018,405,1.52847289244805E+018,53360,7528,6573,22,2
1.52847289250602E+018,406,1.52847289250568E+018,53420,7579,6586,21,2
1.52847289252808E+018,407,1.52847289252766E+018,53440,7597,6590,21,2
1.52847289258784E+018,408,1.52847289258761E+018,53500,7649,6600,21,3
1.52847289264783E+018,409,1.5284728926475E+018,53560,7701,6612,21,2
1.528472892708E+018,410,1.52847289270762E+018,53620,7752,6626,21,1
1.52847289276784E+018,411,1.5284728927675E+018,53680,7803,6644,21,0
1.52847289282704E+018,412,1.5284728928266E+018,53740,7854,6660,22,0
1.52847289284786E+018,413,1.52847289284749E+018,53760,7871,6665,22,0
1.52847289290661E+018,414,1.52847289290632E+018,53820,7927,6677,19,2
1.52847289296471E+018,415,1.52847289296432E+018,53880,7979,6681,21,6
1.5284728929879E+018,416,1.52847289298743E+018,53900,7997,6685,21,4
1.52847289304695E+018,417,1.52847289304656E+018,53960,8048,6692,22,4
1.52847289310679E+018,418,1.52847289310645E+018,54020,8102,6699,20,4
1.52847289316453E+018,419,1.52847289316422E+018,54080,8153,6707,22,4
1.52847289318665E+018,420,1.52847289318627E+018,54100,8172,6710,21,4
1.52847289324451E+018,421,1.5284728932442E+018,54160,8224,6722,21,2
1.52847289326664E+018,422,1.52847289326617E+018,54180,8241,6725,21,2
1.52847289332661E+018,423,1.52847289332627E+018,54240,8295,6736,20,2
1.52847289338448E+018,424,1.52847289338407E+018,54300,8346,6752,22,0
1.52847289340656E+018,425,1.52847289340616E+018,54320,8363,6758,22,0
1.5284728934655E+018,426,1.52847289346524E+018,54380,8416,6771,21,1
1.52847289348652E+018,427,1.52847289348618E+018,54400,8435,6776,20,1
1.52847289354648E+018,428,1.52847289354614E+018,54460,8487,6784,22,4
1.5284728936055E+018,429,1.52847289360524E+018,54520,8541,6793,21,3
1.52847289366351E+018,430,1.52847289366312E+018,54580,8592,6800,22,4
1.52847289368577E+018,431,1.52847289368528E+018,54600,8608,6802,23,5
1.52847289374537E+018,432,1.52847289374511E+018,54660,8651,6828,12,10
1.52847289380346E+018,433,1.528472893803E+018,54720,8686,6854,16,10
1.5284728938254E+018,434,1.52847289382505E+018,54740,8697,6869,16,9
1.52847289388325E+018,435,1.528472893883E+018,54800,8736,6895,14,10
1.52847289390541E+018,436,1.52847289390501E+018,54820,8746,6906,15,12
1.52847289396529E+018,437,1.52847289396491E+018,54880,8782,6939,16,7
1.52847289402321E+018,438,1.52847289402287E+018,54940,8817,6974,16,6
1.52847289404523E+018,439,1.52847289404483E+018,54960,8828,6984,17,7
1.52847289410408E+018,440,1.52847289410376E+018,55020,8862,7014,17,9
1.52847289412511E+018,441,1.52847289412479E+018,55040,8874,7024,17,9
1.52847289418519E+018,442,1.52847289418481E+018,55100,8909,7058,16,7
1.5284728942441E+018,443,1.52847289424374E+018,55160,8942,7091,17,7
1.52847289430216E+018,444,1.52847289430175E+018,55220,8978,7123,16,8
1.52847289432407E+018,445,1.52847289432369E+018,55240,8989,7134,17,8
1.5284728943841E+018,446,1.52847289438378E+018,55300,9025,7166,16,8
1.52847289444402E+018,447,1.52847289444364E+018,55360,9061,7199,16,7
1.52847289450404E+018,448,1.52847289450375E+018,55420,9096,7231,16,8
1.52847289456405E+018,449,1.52847289456367E+018,55480,9131,7263,16,8
1.52847289462404E+018,450,1.52847289462372E+018,55540,9165,7296,17,7
1.52847289468395E+018,451,1.52847289468351E+018,55600,9201,7328,16,8
1.52847289474287E+018,452,1.52847289474259E+018,55660,9235,7360,17,8
1.52847289480101E+018,453,1.52847289480069E+018,55720,9270,7394,16,7
1.52847289482279E+018,454,1.52847289482241E+018,55740,9282,7405,15,6
1.52847289488093E+018,455,1.52847289488048E+018,55800,9317,7437,16,8
1.52847289490289E+018,456,1.52847289490249E+018,55820,9328,7448,17,7
1.52847289496082E+018,457,1.52847289496039E+018,55880,9361,7479,17,8
1.52847289498278E+018,458,1.52847289498245E+018,55900,9373,7491,17,8
1.5284728950407E+018,459,1.52847289504033E+018,55960,9411,7524,15,7
1.52847289506283E+018,460,1.52847289506247E+018,55980,9423,7534,15,8
1.52847289512278E+018,461,1.52847289512239E+018,56040,9456,7565,17,8
1.52847289518263E+018,462,1.52847289518229E+018,56100,9491,7599,16,7
1.5284728952427E+018,463,1.52847289524234E+018,56160,9528,7632,15,7
1.52847289530072E+018,464,1.52847289530027E+018,56220,9561,7662,17,9
1.52847289532258E+018,465,1.52847289532236E+018,56240,9572,7672,17,9
1.52847289538174E+018,466,1.52847289538131E+018,56300,9609,7707,15,6
1.5284728954396E+018,467,1.52847289543933E+018,56360,9645,7740,16,7
1.52847289546154E+018,468,1.52847289546117E+018,56380,9657,7750,16,8
1.52847289552165E+018,469,1.52847289552126E+018,56440,9690,7780,17,9
1.5284728955796E+018,470,1.52847289557919E+018,56500,9729,7815,14,6
1.52847289560148E+018,471,1.52847289560116E+018,56520,9741,7827,14,6
1.52847289566156E+018,472,1.52847289566124E+018,56580,9775,7859,17,8
1.52847289572142E+018,473,1.52847289572102E+018,56640,9809,7888,17,9
1.52847289578153E+018,474,1.52847289578113E+018,56700,9847,7925,15,6
1.52847289584148E+018,475,1.52847289584098E+018,56760,9883,7958,16,7
1.52847289590031E+018,476,1.52847289589992E+018,56820,9914,7986,18,10
1.52847289592109E+018,477,1.52847289592085E+018,56840,9927,7996,16,9
1.52847289598026E+018,478,1.5284728959799E+018,56900,9963,8031,16,7
1.52847289603823E+018,479,1.52847289603792E+018,56960,9998,8065,16,7
1.52847289606119E+018,480,1.52847289606086E+018,56980,10009,8074,17,9
1.52847289612068E+018,481,1.52847289612017E+018,57040,10047,8105,15,9
1.52847289617824E+018,482,1.52847289617776E+018,57100,10085,8140,15,7
1.52847289620011E+018,483,1.52847289619977E+018,57120,10096,8152,15,7
1.52847289626029E+018,484,1.52847289625988E+018,57180,10130,8181,16,10
1.52847289631808E+018,485,1.52847289631774E+018,57240,10167,8213,15,8
1.52847289634003E+018,486,1.52847289633966E+018,57260,10179,8225,15,7
1.5284728964002E+018,487,1.52847289639982E+018,57320,10214,8258,16,8
1.52847289646007E+018,488,1.52847289645975E+018,57380,10250,8291,15,8
1.52847289651905E+018,489,1.52847289651867E+018,57440,10287,8324,15,8
1.52847289657703E+018,490,1.52847289657668E+018,57500,10322,8358,16,7
1.52847289659984E+018,491,1.52847289659962E+018,57520,10334,8369,16,7
1.5284728966589E+018,492,1.52847289665856E+018,57580,10369,8401,16,8
1.5284728967169E+018,493,1.52847289671648E+018,57640,10406,8434,15,8
1.52847289673917E+018,494,1.52847289673874E+018,57660,10418,8445,15,7
1.52847289679896E+018,495,1.52847289679856E+018,57720,10454,8478,15,8
1.52847289685892E+018,496,1.52847289685853E+018,57780,10492,8511,14,8
1.52847289691881E+018,497,1.52847289691843E+018,57840,10527,8543,16,8
1.52847289697891E+018,498,1.52847289697848E+018,57900,10564,8576,15,8
1.5284728970388E+018,499,1.52847289703843E+018,57960,10602,8610,14,7
1.52847289709903E+018,500,1.52847289709857E+018,58020,10636,8641,16,9
1.52847289715773E+018,501,1.52847289715737E+018,58080,10671,8673,16,8
1.52847289721573E+018,502,1.52847289721533E+018,58140,10711,8709,13,6
1.52847289723891E+018,503,1.52847289723844E+018,58160,10722,8720,14,7
1.52847289725466E+018,504,1.52847289725433E+018,58180,10733,8731,15,8
1.52847289727765E+018,505,1.52847289727729E+018,58200,10744,8741,17,8
1.52847289733569E+018,506,1.52847289733535E+018,58260,10779,8772,16,9
1.52847289735772E+018,507,1.52847289735734E+018,58280,10792,8784,15,8
1.52847289741764E+018,508,1.52847289741734E+018,58340,10829,8820,15,6
1.52847289747802E+018,509,1.52847289747758E+018,58400,10862,8851,17,9
1.52847289753756E+018,510,1.52847289753716E+018,58460,10899,8885,15,7
1.52847289759573E+018,511,1.52847289759526E+018,58520,10939,8921,13,6
1.52847289761764E+018,512,1.52847289761725E+018,58540,10950,8932,15,7
1.52847289767649E+018,513,1.52847289767622E+018,58600,10983,8962,17,9
1.52847289769753E+018,514,1.52847289769714E+018,58620,10996,8973,16,9
1.52847289775753E+018,515,1.52847289775716E+018,58680,11035,9008,14,7
1.52847289781636E+018,516,1.52847289781609E+018,58740,11069,9040,16,8
1.52847289787441E+018,517,1.52847289787402E+018,58800,11103,9071,16,9
1.52847289789649E+018,518,1.52847289789601E+018,58820,11116,9083,16,8
1.52847289795669E+018,519,1.5284728979562E+018,58880,11155,9120,14,6
1.52847289801425E+018,520,1.52847289801386E+018,58940,11189,9152,16,8
1.52847289803627E+018,521,1.52847289803592E+018,58960,11199,9162,17,9
1.52847289809445E+018,522,1.52847289809419E+018,59020,11236,9196,15,7
1.52847289811622E+018,523,1.52847289811599E+018,59040,11249,9209,14,7
1.52847289817636E+018,524,1.52847289817598E+018,59100,11284,9241,16,8
1.52847289823409E+018,525,1.52847289823379E+018,59160,11318,9271,16,9
1.52847289825622E+018,526,1.52847289825589E+018,59180,11330,9281,15,10
1.52847289831522E+018,527,1.52847289831486E+018,59240,11366,9317,15,7
1.52847289833625E+018,528,1.52847289833586E+018,59260,11378,9328,15,7
1.52847289839621E+018,529,1.52847289839581E+018,59320,11413,9361,16,8
1.52847289845551E+018,530,1.52847289845495E+018,59380,11451,9392,14,9
1.52847289851316E+018,531,1.52847289851278E+018,59440,11490,9429,14,6
1.52847289853509E+018,532,1.52847289853483E+018,59460,11501,9439,15,7
1.52847289859519E+018,533,1.52847289859492E+018,59520,11514,9490,11,13
1.52847289865515E+018,534,1.5284728986547E+018,59580,11546,9530,2,19
1.52847289871515E+018,535,1.52847289871477E+018,59640,11572,9569,4,19
1.52847289877528E+018,536,1.52847289877478E+018,59700,11598,9608,4,19
1.52847289883507E+018,537,1.52847289883469E+018,59760,11625,9648,4,19
1.5284728988949E+018,538,1.52847289889453E+018,59820,11655,9689,2,19
1.5284728989542E+018,539,1.52847289895378E+018,59880,11682,9726,3,21
1.52847289897481E+018,540,1.52847289897449E+018,59900,11690,9739,4,20
1.52847289903399E+018,541,1.52847289903356E+018,59960,11717,9778,3,20
1.5284728990918E+018,542,1.52847289909138E+018,60020,11746,9816,2,21
1.52847289911376E+018,543,1.52847289911339E+018,60040,11755,9829,2,21
1.5284728991717E+018,544,1.52847289917139E+018,60100,11783,9866,3,21
1.52847289919395E+018,545,1.52847289919353E+018,60120,11792,9880,3,21
1.52847289925166E+018,546,1.52847289925141E+018,60180,11818,9921,3,20
1.5284728992737E+018,547,1.52847289927341E+018,60200,11825,9934,4,20
1.52847289933377E+018,548,1.52847289933341E+018,60260,11852,9977,3,19
1.52847289939369E+018,549,1.52847289939343E+018,60320,11877,10018,4,20
1.52847289945375E+018,550,1.52847289945336E+018,60380,11900,10056,4,21
1.52847289951157E+018,551,1.52847289951124E+018,60440,11924,10098,4,20
1.52847289953358E+018,552,1.52847289953333E+018,60460,11933,10111,4,20
1.52847289959269E+018,553,1.52847289959238E+018,60520,11956,10155,4,19
1.52847289965059E+018,554,1.52847289965027E+018,60580,11983,10195,2,21
1.52847289967244E+018,555,1.52847289967218E+018,60600,11992,10209,2,20
1.52847289973253E+018,556,1.52847289973223E+018,60660,12018,10249,2,21
1.52847289979065E+018,557,1.52847289979027E+018,60720,12041,10290,4,21
1.52847289981269E+018,558,1.52847289981225E+018,60740,12048,10305,4,19
1.52847289987256E+018,559,1.52847289987227E+018,60800,12073,10347,3,20
1.52847289993256E+018,560,1.52847289993217E+018,60860,12097,10386,3,22
1.52847289999246E+018,561,1.52847289999204E+018,60920,12119,10427,4,21
1.52847290005272E+018,562,1.52847290005225E+018,60980,12139,10473,5,19
1.52847290011148E+018,563,1.52847290011106E+018,61040,12162,10516,3,20
1.52847290013236E+018,564,1.52847290013198E+018,61060,12171,10531,2,19
1.5284729001914E+018,565,1.52847290019098E+018,61120,12195,10575,3,20
1.52847290024921E+018,566,1.52847290024893E+018,61180,12215,10618,4,20
1.52847290027147E+018,567,1.52847290027107E+018,61200,12222,10633,5,19
1.5284729003292E+018,568,1.52847290032891E+018,61260,12241,10680,5,19
1.52847290035125E+018,569,1.5284729003509E+018,61280,12248,10693,5,20
1.52847290040913E+018,570,1.52847290040884E+018,61340,12270,10736,3,21
1.5284729004312E+018,571,1.52847290043083E+018,61360,12279,10750,2,21
1.52847290049129E+018,572,1.52847290049083E+018,61420,12307,10793,0,21
1.52847290055129E+018,573,1.52847290055085E+018,61480,12330,10837,3,20
1.52847290061117E+018,574,1.52847290061079E+018,61540,12349,10884,4,19
1.52847290067127E+018,575,1.52847290067086E+018,61600,12369,10930,4,20
1.52847290073016E+018,576,1.52847290072979E+018,61660,12395,10971,1,22
1.5284729007883E+018,577,1.52847290078784E+018,61720,12422,11016,0,20
1.52847290081016E+018,578,1.52847290080979E+018,61740,12429,11030,2,21
1.52847290086796E+018,579,1.52847290086762E+018,61800,12449,11076,4,20
1.52847290088999E+018,580,1.52847290088966E+018,61820,12455,11092,4,20
1.52847290094796E+018,581,1.52847290094769E+018,61880,12474,11140,4,19
1.52847290097003E+018,582,1.52847290096966E+018,61900,12482,11155,2,20
1.52847290103019E+018,583,1.52847290102977E+018,61960,12503,11197,3,22
1.5284729010899E+018,584,1.52847290108955E+018,62020,12522,11244,4,20
1.52847290114993E+018,585,1.52847290114957E+018,62080,12536,11292,6,19
1.52847290120986E+018,586,1.52847290120952E+018,62140,12550,11342,6,19
1.5284729012698E+018,587,1.52847290126948E+018,62200,12567,11388,5,21
1.52847290132989E+018,588,1.52847290132954E+018,62260,12591,11433,1,21
1.52847290138917E+018,589,1.52847290138872E+018,62320,12616,11480,0,20
1.52847290144682E+018,590,1.52847290144647E+018,62380,12636,11526,3,21
1.52847290146921E+018,591,1.5284729014687E+018,62400,12642,11545,3,19
1.52847290152899E+018,592,1.52847290152858E+018,62460,12657,11598,5,18
1.52847290158685E+018,593,1.52847290158643E+018,62520,12673,11644,5,21
1.5284729016088E+018,594,1.52847290160842E+018,62540,12680,11659,3,21
1.5284729016693E+018,595,1.52847290166853E+018,62600,12703,11705,1,21
1.52847290172888E+018,596,1.52847290172841E+018,62660,12729,11754,0,20
1.52847290178898E+018,597,1.52847290178849E+018,62720,12747,11804,3,19
1.5284729018476E+018,598,1.52847290184726E+018,62780,12763,11855,4,19
1.52847290190573E+018,599,1.52847290190531E+018,62840,12777,11905,5,19
1.52847290192868E+018,600,1.52847290192831E+018,62860,12784,11921,4,20
1.52847290198755E+018,601,1.52847290198722E+018,62920,12802,11968,3,21
1.5284729020455E+018,602,1.52847290204512E+018,62980,12827,12016,0,21
1.52847290206807E+018,603,1.5284729020675E+018,63000,12835,12033,0,20
1.52847290212782E+018,604,1.52847290212736E+018,63060,12853,12083,3,20
1.52847290218549E+018,605,1.52847290218516E+018,63120,12867,12134,5,19
1.52847290220738E+018,606,1.52847290220704E+018,63140,12872,12150,5,19
1.52847290226748E+018,607,1.52847290226716E+018,63200,12887,12197,4,21
1.52847290232553E+018,608,1.52847290232516E+018,63260,12902,12246,4,20
1.5284729023475E+018,609,1.52847290234717E+018,63280,12909,12262,3,21
1.52847290240659E+018,610,1.52847290240624E+018,63340,12929,12310,2,21
1.52847290242752E+018,611,1.52847290242716E+018,63360,12936,12326,1,21
1.52847290248634E+018,612,1.52847290248612E+018,63420,12958,12377,1,20
1.52847290254437E+018,613,1.52847290254409E+018,63480,12973,12430,4,19
1.52847290256741E+018,614,1.52847290256715E+018,63500,12977,12448,5,19
1.52847290262638E+018,615,1.52847290262604E+018,63560,12993,12500,3,19
1.52847290268639E+018,616,1.52847290268605E+018,63620,13008,12547,4,22
1.52847290274442E+018,617,1.52847290274413E+018,63680,13030,12597,0,20
1.52847290276652E+018,618,1.52847290276615E+018,63700,13038,12612,0,21
1.52847290282438E+018,619,1.528472902824E+018,63760,13061,12662,0,20
1.52847290284638E+018,620,1.52847290284608E+018,63780,13067,12678,1,21
1.52847290290637E+018,621,1.52847290290593E+018,63840,13081,12733,4,18
1.52847290296422E+018,622,1.52847290296388E+018,63900,13094,12787,4,19
1.5284729029865E+018,623,1.528472902986E+018,63920,13098,12805,4,19
1.52847290304516E+018,624,1.52847290304482E+018,63980,13113,12852,3,22
1.52847290306612E+018,625,1.52847290306575E+018,64000,13119,12869,2,21
1.52847290312519E+018,626,1.52847290312484E+018,64060,13141,12919,0,21
1.52847290318318E+018,627,1.52847290318274E+018,64120,13163,12971,0,20
1.52847290320516E+018,628,1.52847290320488E+018,64140,13169,12988,0,19
1.52847290326322E+018,629,1.52847290326279E+018,64200,13184,13042,3,19
1.52847290328517E+018,630,1.52847290328492E+018,64220,13188,13060,4,19
1.52847290334312E+018,631,1.52847290334282E+018,64280,13202,13112,4,20
1.52847290336531E+018,632,1.52847290336493E+018,64300,13206,13129,3,20
1.5284729034251E+018,633,1.52847290342468E+018,64360,13219,13178,4,21
1.52847290348526E+018,634,1.52847290348485E+018,64420,13238,13231,1,20
1.5284729035451E+018,635,1.52847290354472E+018,64480,13258,13283,0,20
1.52847290360532E+018,636,1.52847290360493E+018,64540,13277,13337,1,19
1.52847290366394E+018,637,1.52847290366354E+018,64600,13289,13391,4,19
1.52847290372214E+018,638,1.52847290372173E+018,64660,13302,13445,4,19
1.52847290374394E+018,639,1.52847290374357E+018,64680,13305,13462,5,20
1.52847290380395E+018,640,1.52847290380355E+018,64740,13319,13514,3,20
1.52847290386198E+018,641,1.52847290386155E+018,64800,13335,13568,2,19
1.52847290388398E+018,642,1.52847290388355E+018,64820,13340,13585,2,20
1.52847290394374E+018,643,1.52847290394342E+018,64880,13358,13640,1,19
1.52847290400388E+018,644,1.52847290400345E+018,64940,13375,13695,1,19
1.52847290406374E+018,645,1.52847290406338E+018,65000,13388,13749,3,20
1.52847290412387E+018,646,1.52847290412346E+018,65060,13399,13803,4,20
1.52847290418278E+018,647,1.52847290418234E+018,65120,13411,13857,4,20
1.52847290424075E+018,648,1.52847290424036E+018,65180,13422,13909,4,21
1.52847290426361E+018,649,1.5284729042633E+018,65200,13426,13927,4,21
1.52847290432261E+018,650,1.52847290432226E+018,65260,13441,13982,2,19
1.52847290438064E+018,651,1.52847290438029E+018,65320,13459,14036,1,20
1.52847290440272E+018,652,1.52847290440229E+018,65340,13466,14055,0,19
1.52847290446265E+018,653,1.52847290446235E+018,65400,13483,14109,1,20
1.52847290452273E+018,654,1.52847290452229E+018,65460,13496,14165,3,19
1.52847290458281E+018,655,1.5284729045824E+018,65520,13503,14216,6,21
1.52847290464255E+018,656,1.52847290464215E+018,44,13516,14273,3,18
1.52847290470262E+018,657,1.52847290470228E+018,104,13526,14327,4,20
1.52847290476251E+018,658,1.52847290476216E+018,164,13537,14385,4,18
1.5284729048216E+018,659,1.52847290482122E+018,224,13549,14440,3,20
1.52847290488034E+018,660,1.52847290487952E+018,284,13560,14496,4,19
1.52847290490153E+018,661,1.52847290490118E+018,304,13564,14514,3,20
1.52847290496158E+018,662,1.52847290496118E+018,364,13579,14570,2,19
1.52847290501937E+018,663,1.52847290501901E+018,424,13593,14626,2,19
1.52847290504146E+018,664,1.52847290504106E+018,444,13598,14644,2,19
1.52847290510143E+018,665,1.52847290510107E+018,504,13606,14701,5,19
1.52847290516134E+018,666,1.52847290516096E+018,564,13616,14758,4,19
1.52847290522141E+018,667,1.52847290522095E+018,624,13626,14812,4,20
1.52847290528124E+018,668,1.52847290528099E+018,684,13637,14867,4,20
1.52847290534137E+018,669,1.52847290534095E+018,744,13647,14923,4,19
1.52847290540119E+018,670,1.52847290540081E+018,804,13660,14978,3,20
1.52847290546027E+018,671,1.52847290545991E+018,864,13672,15034,3,19
1.52847290551808E+018,672,1.52847290551776E+018,924,13686,15090,2,19
1.52847290554012E+018,673,1.52847290553975E+018,944,13690,15107,3,21
1.52847290560025E+018,674,1.52847290559983E+018,1004,13703,15165,2,19
1.52847290565809E+018,675,1.52847290565782E+018,1064,13711,15219,5,20
1.52847290568024E+018,676,1.52847290567991E+018,1084,13715,15238,4,20
1.52847290574016E+018,677,1.52847290573977E+018,1144,13724,15293,4,20
1.52847290580001E+018,678,1.52847290579966E+018,1204,13734,15350,4,19
1.52847290586005E+018,679,1.52847290585969E+018,1264,13744,15402,4,22
1.52847290592008E+018,680,1.5284729059197E+018,1324,13754,15459,4,19
1.52847290597883E+018,681,1.52847290597864E+018,1384,13763,15514,4,20
1.52847290599981E+018,682,1.52847290599961E+018,1404,13767,15532,4,20
1.52847290606E+018,683,1.52847290605954E+018,1464,13780,15590,2,19
1.52847290611898E+018,684,1.52847290611852E+018,1524,13792,15645,3,20
1.52847290617711E+018,685,1.52847290617667E+018,1584,13807,15701,1,20
1.52847290619897E+018,686,1.52847290619857E+018,1604,13810,15719,2,20
1.52847290625886E+018,687,1.52847290625855E+018,1664,13819,15776,4,19
1.52847290631892E+018,688,1.52847290631844E+018,1724,13827,15831,5,20
1.52847290637882E+018,689,1.5284729063785E+018,1784,13838,15887,3,20
1.52847290643905E+018,690,1.52847290643858E+018,1844,13846,15941,5,21
1.5284729064988E+018,691,1.52847290649842E+018,1904,13855,15998,4,19
1.52847290655887E+018,692,1.52847290655849E+018,1964,13866,16054,3,20
1.52847290661769E+018,693,1.52847290661732E+018,2024,13876,16109,3,21
1.52847290667691E+018,694,1.52847290667535E+018,2084,13888,16166,2,20
1.52847290669776E+018,695,1.52847290669735E+018,2104,13893,16185,2,20
1.52847290675766E+018,696,1.52847290675733E+018,2164,13909,16239,0,21
1.52847290681585E+018,697,1.52847290681537E+018,2224,13922,16295,2,20
1.52847290683761E+018,698,1.52847290683719E+018,2244,13926,16313,2,20
1.52847290689762E+018,699,1.52847290689726E+018,2304,13937,16369,3,20
1.52847290695769E+018,700,1.52847290695731E+018,2364,13945,16424,4,21
1.52847290701758E+018,701,1.52847290701723E+018,2424,13952,16480,5,20
1.52847290707756E+018,702,1.52847290707717E+018,2484,13963,16536,3,20
1.52847290713637E+018,703,1.52847290713604E+018,2544,13973,16590,3,21
1.52847290715769E+018,704,1.52847290715723E+018,2564,13975,16609,4,21
1.52847290721645E+018,705,1.52847290721605E+018,2624,13988,16667,2,19
1.52847290727445E+018,706,1.52847290727404E+018,2684,13999,16721,3,21
1.52847290729637E+018,707,1.52847290729598E+018,2704,14003,16742,2,19
1.52847290735434E+018,708,1.52847290735409E+018,2764,14016,16796,2,21
1.52847290737634E+018,709,1.52847290737597E+018,2784,14020,16815,2,21
1.52847290743642E+018,710,1.52847290743597E+018,2844,14034,16871,1,20
1.52847290749628E+018,711,1.52847290749591E+018,2904,14043,16926,4,21
1.52847290755425E+018,712,1.52847290755388E+018,2964,14052,16985,4,19
1.5284729075763E+018,713,1.528472907576E+018,2984,14054,17004,4,20
1.52847290763624E+018,714,1.52847290763603E+018,3044,14061,17058,4,22
1.52847290769616E+018,715,1.52847290769581E+018,3104,14071,17114,3,21
1.52847290775523E+018,716,1.52847290775482E+018,3164,14078,17170,4,21
1.52847290781317E+018,717,1.52847290781279E+018,3224,14092,17227,1,20
1.52847290783513E+018,718,1.52847290783487E+018,3244,14096,17246,1,20
1.52847290789537E+018,719,1.52847290789497E+018,3304,14109,17304,1,20
1.52847290795302E+018,720,1.52847290795267E+018,3364,14123,17360,1,21
1.52847290797499E+018,721,1.52847290797464E+018,3384,14127,17379,2,21
1.52847290803509E+018,722,1.52847290803472E+018,3444,14143,17436,0,20
1.52847290809506E+018,723,1.52847290809477E+018,3504,14151,17491,4,21
1.5284729081552E+018,724,1.52847290815478E+018,3564,14159,17550,4,19
1.52847290821494E+018,725,1.52847290821456E+018,3624,14167,17607,4,20
1.52847290827404E+018,726,1.52847290827367E+018,3684,14176,17664,3,20
1.52847290829492E+018,727,1.52847290829454E+018,3704,14179,17682,3,21
1.52847290835389E+018,728,1.52847290835356E+018,3764,14187,17740,4,20
1.52847290841179E+018,729,1.52847290841141E+018,3824,14198,17797,2,20
1.52847290843377E+018,730,1.52847290843344E+018,3844,14201,17815,3,21
1.52847290849198E+018,731,1.52847290849148E+018,3904,14214,17874,1,19
1.52847290851405E+018,732,1.52847290851377E+018,3924,14217,17894,2,19
1.52847290857175E+018,733,1.52847290857154E+018,3984,14229,17952,2,20
1.52847290859387E+018,734,1.52847290859347E+018,4004,14233,17971,1,19
1.52847290865382E+018,735,1.52847290865348E+018,4064,14242,18028,3,20
1.52847290871164E+018,736,1.52847290871127E+018,4124,14251,18086,3,20
1.52847290873367E+018,737,1.52847290873329E+018,4144,14253,18106,4,19
1.5284729087937E+018,738,1.52847290879333E+018,4204,14260,18161,4,21
1.52847290885364E+018,739,1.52847290885336E+018,4264,14268,18219,4,20
1.52847290891262E+018,740,1.5284729089123E+018,4324,14275,18275,4,21
1.52847290897052E+018,741,1.52847290897017E+018,4384,14282,18332,4,21
1.52847290899256E+018,742,1.52847290899224E+018,4404,14284,18352,4,21
1.5284729090503E+018,743,1.52847290904999E+018,4464,14296,18410,2,20
1.5284729090724E+018,744,1.5284729090721E+018,4484,14299,18429,2,20
1.52847290913056E+018,745,1.52847290913015E+018,4544,14308,18486,3,21
1.52847290915251E+018,746,1.52847290915215E+018,4564,14313,18506,2,19
1.52847290921038E+018,747,1.52847290921005E+018,4624,14323,18564,2,20
1.52847290923248E+018,748,1.52847290923208E+018,4644,14328,18583,2,20
1.52847290929242E+018,749,1.52847290929207E+018,4704,14342,18641,0,20
1.5284729093503E+018,750,1.52847290935006E+018,4764,14351,18699,3,20
1.52847290937248E+018,751,1.52847290937207E+018,4784,14354,18718,3,20
1.5284729094323E+018,752,1.52847290943198E+018,4844,14359,18777,5,20
1.52847290949246E+018,753,1.52847290949202E+018,4904,14367,18836,3,20
1.52847290955118E+018,754,1.52847290955081E+018,4964,14373,18891,4,22
1.52847290960943E+018,755,1.52847290960896E+018,5024,14379,18950,4,20
1.52847290963127E+018,756,1.52847290963091E+018,5044,14382,18967,4,21
1.52847290969115E+018,757,1.52847290969081E+018,5104,14390,19028,3,19
1.52847290974935E+018,758,1.52847290974897E+018,5164,14398,19083,3,22
1.52847290977112E+018,759,1.52847290977079E+018,5184,14400,19104,4,21
1.528472909831E+018,760,1.52847290983075E+018,5244,14412,19163,1,20
1.52847290989121E+018,761,1.52847290989081E+018,5304,14424,19219,1,21
1.52847290995113E+018,762,1.52847290995077E+018,5364,14438,19277,0,20
1.52847291001107E+018,763,1.52847291001072E+018,5424,14450,19336,1,20
1.52847291006999E+018,764,1.52847291006959E+018,5484,14460,19394,2,20
1.52847291009095E+018,765,1.52847291009062E+018,5504,14461,19414,4,20
1.52847291014995E+018,766,1.52847291014959E+018,5564,14470,19474,3,20
1.52847291020789E+018,767,1.52847291020752E+018,5624,14475,19530,5,21
1.52847291023008E+018,768,1.5284729102297E+018,5644,14479,19550,3,21
1.52847291028792E+018,769,1.52847291028756E+018,5704,14485,19606,4,21
1.52847291030997E+018,770,1.52847291030953E+018,5724,14487,19625,4,22
1.52847291036798E+018,771,1.52847291036748E+018,5784,14497,19685,2,20
1.52847291038985E+018,772,1.52847291038946E+018,5804,14501,19706,1,19
1.52847291044981E+018,773,1.52847291044952E+018,5864,14509,19762,3,22
1.52847291050996E+018,774,1.52847291050951E+018,5924,14520,19821,2,20
1.52847291057001E+018,775,1.52847291056947E+018,5984,14532,19879,1,21
1.52847291062778E+018,776,1.52847291062739E+018,6044,14545,19937,1,21
1.52847291064967E+018,777,1.52847291064932E+018,6064,14548,19956,2,21
1.52847291070869E+018,778,1.52847291070828E+018,6124,14562,20015,0,20
1.52847291076665E+018,779,1.52847291076633E+018,6184,14567,20072,4,21
1.52847291078871E+018,780,1.52847291078837E+018,6204,14571,20092,4,21
1.52847291084888E+018,781,1.52847291084842E+018,6264,14577,20151,4,20
1.52847291090658E+018,782,1.52847291090626E+018,6324,14585,20207,3,22
1.52847291092852E+018,783,1.52847291092825E+018,6344,14587,20227,2,21
1.52847291098824E+018,784,1.52847291098814E+018,6404,14591,20282,5,22
1.52847291104869E+018,785,1.52847291104819E+018,6464,14600,20343,2,19
1.52847291110871E+018,786,1.52847291110825E+018,6524,14605,20399,4,22
1.5284729111685E+018,787,1.52847291116811E+018,6584,14614,20458,2,20
1.52847291122838E+018,788,1.52847291122799E+018,6644,14621,20515,3,21
1.52847291128829E+018,789,1.52847291128792E+018,6704,14633,20573,1,21
1.52847291134739E+018,790,1.52847291134698E+018,6764,14644,20631,1,21
1.52847291140527E+018,791,1.5284729114049E+018,6824,14656,20688,1,21
1.52847291142727E+018,792,1.52847291142703E+018,6844,14659,20708,2,21
1.52847291148732E+018,793,1.52847291148695E+018,6904,14673,20767,0,20
1.52847291154507E+018,794,1.52847291154476E+018,6964,14679,20824,4,21
1.52847291156719E+018,795,1.5284729115668E+018,6984,14681,20844,4,21
1.5284729116272E+018,796,1.52847291162686E+018,7044,14687,20902,4,21
1.528472911687E+018,797,1.52847291168666E+018,7104,14694,20960,3,21
1.52847291174707E+018,798,1.52847291174666E+018,7164,14699,21017,4,21
1.5284729118071E+018,799,1.52847291180676E+018,7224,14707,21078,3,20
1.52847291186608E+018,800,1.52847291186571E+018,7284,14712,21135,4,22
1.52847291188713E+018,801,1.52847291188679E+018,7304,14715,21155,4,21
1.52847291194614E+018,802,1.52847291194576E+018,7364,14723,21214,3,21
1.52847291200391E+018,803,1.52847291200361E+018,7424,14731,21272,3,21
1.52847291202589E+018,804,1.52847291202556E+018,7444,14736,21293,1,20
1.528472912086E+018,805,1.52847291208559E+018,7504,14746,21349,2,22
1.52847291214393E+018,806,1.52847291214349E+018,7564,14761,21409,0,20
1.528472912167E+018,807,1.52847291216589E+018,7584,14764,21430,0,20
1.52847291222584E+018,808,1.52847291222546E+018,7644,14773,21487,2,22
1.52847291228383E+018,809,1.52847291228351E+018,7704,14781,21549,3,19
1.52847291230584E+018,810,1.52847291230557E+018,7724,14781,21568,4,20
1.52847291236589E+018,811,1.5284729123655E+018,7784,14789,21628,3,20
1.52847291242579E+018,812,1.52847291242551E+018,7844,14794,21684,4,22
1.5284729124851E+018,813,1.5284729124845E+018,7904,14800,21744,4,20
1.52847291254257E+018,814,1.52847291254221E+018,7964,14804,21802,5,21
1.52847291256488E+018,815,1.52847291256445E+018,7984,14807,21823,4,20
1.52847291262262E+018,816,1.52847291262229E+018,8044,14812,21880,4,22
1.52847291264469E+018,817,1.52847291264432E+018,8064,14814,21900,4,22
1.52847291270267E+018,818,1.52847291270225E+018,8124,14824,21961,2,20
1.52847291272452E+018,819,1.52847291272419E+018,8144,14825,21980,2,20
1.52847291278245E+018,820,1.52847291278211E+018,8204,14831,22038,4,21
1.52847291280482E+018,821,1.52847291280435E+018,8224,14835,22060,2,20
1.52847291286471E+018,822,1.52847291286419E+018,8284,14840,22117,4,22
1.52847291292273E+018,823,1.52847291292228E+018,8344,14851,22179,1,19
1.52847291294449E+018,824,1.52847291294413E+018,8364,14853,22198,2,20
1.52847291300341E+018,825,1.52847291300309E+018,8424,14863,22256,2,21
1.52847291302436E+018,826,1.52847291302401E+018,8444,14868,22277,0,20
1.52847291308444E+018,827,1.52847291308415E+018,8504,14876,22335,3,21
1.52847291314353E+018,828,1.52847291314309E+018,8564,14885,22394,2,21
1.52847291320141E+018,829,1.52847291320089E+018,8624,14890,22453,4,21
1.5284729132236E+018,830,1.52847291322305E+018,8644,14893,22473,3,21
1.52847291328315E+018,831,1.52847291328285E+018,8704,14897,22533,4,20
1.52847291334114E+018,832,1.5284729133408E+018,8764,14903,22590,3,22
1.52847291336351E+018,833,1.52847291336288E+018,8784,14904,22610,4,20
1.52847291342332E+018,834,1.5284729134229E+018,8844,14909,22664,4,23
1.52847291348309E+018,835,1.52847291348273E+018,8904,14917,22723,3,21
1.52847291354328E+018,836,1.52847291354287E+018,8964,14922,22781,4,21
1.5284729136031E+018,837,1.52847291360271E+018,9024,14927,22840,4,21
1.52847291366327E+018,838,1.52847291366281E+018,9084,14935,22899,3,21
1.52847291372303E+018,839,1.52847291372258E+018,9144,14944,22955,2,22
1.52847291378213E+018,840,1.52847291378169E+018,9204,14956,23013,1,21
1.52847291383986E+018,841,1.52847291383953E+018,9264,14968,23071,1,21
1.52847291386197E+018,842,1.52847291386159E+018,9284,14973,23090,1,22
1.52847291392208E+018,843,1.52847291392166E+018,9344,14986,23151,0,20
1.52847291397981E+018,844,1.52847291397941E+018,9404,14992,23207,3,22
1.52847291400175E+018,845,1.5284729140015E+018,9424,14995,23227,3,22
1.52847291406184E+018,846,1.52847291406156E+018,9484,14999,23285,4,22
1.52847291412189E+018,847,1.52847291412143E+018,9544,15006,23343,3,22
1.5284729141819E+018,848,1.52847291418151E+018,9604,15010,23399,4,23
1.52847291424168E+018,849,1.52847291424132E+018,9664,15016,23459,3,21
1.52847291430174E+018,850,1.52847291430138E+018,9724,15020,23516,4,22
1.52847291436065E+018,851,1.52847291436028E+018,9784,15029,23575,2,21
1.52847291441861E+018,852,1.52847291441828E+018,9844,15033,23629,4,24
1.52847291444073E+018,853,1.52847291444032E+018,9864,15037,23650,3,22
1.52847291449861E+018,854,1.52847291449825E+018,9924,15044,23708,3,22
1.52847291452084E+018,855,1.52847291452041E+018,9944,15045,23727,4,23
1.52847291457855E+018,856,1.52847291457817E+018,10004,15056,23786,1,21
1.52847291460066E+018,857,1.52847291460029E+018,10024,15058,23806,1,21
1.52847291466072E+018,858,1.52847291466022E+018,10084,15066,23863,2,22
1.52847291471843E+018,859,1.52847291471813E+018,10144,15078,23922,0,21
1.52847291474057E+018,860,1.52847291474029E+018,10164,15081,23941,1,22
1.52847291480047E+018,861,1.52847291480008E+018,10224,15094,23999,0,22
1.52847291486036E+018,862,1.52847291486004E+018,10284,15101,24057,3,22
1.52847291491948E+018,863,1.52847291491911E+018,10344,15109,24116,2,21
1.52847291497739E+018,864,1.52847291497701E+018,10404,15113,24174,4,22
1.52847291499923E+018,865,1.52847291499899E+018,10424,15115,24194,3,21
1.52847291505706E+018,866,1.52847291505688E+018,10484,15118,24251,5,22
1.52847291507907E+018,867,1.52847291507877E+018,10504,15121,24269,4,23
1.5284729151368E+018,868,1.52847291513658E+018,10564,15127,24328,3,21
1.5284729151587E+018,869,1.52847291515851E+018,10584,15128,24346,4,23
1.52847291521661E+018,870,1.52847291521633E+018,10644,15134,24407,3,20
1.5284729152396E+018,871,1.52847291523942E+018,10664,15135,24426,3,21
1.5284729152984E+018,872,1.5284729152982E+018,10724,15139,24484,4,22
1.52847291535648E+018,873,1.52847291535625E+018,10784,15146,24542,3,22
1.52847291537836E+018,874,1.52847291537815E+018,10804,15147,24560,3,23
