%time,field.transforms0.header.seq,field.transforms0.header.stamp,field.transforms0.header.frame_id,field.transforms0.child_frame_id,field.transforms0.transform.translation.x,field.transforms0.transform.translation.y,field.transforms0.transform.translation.z,field.transforms0.transform.rotation.x,field.transforms0.transform.rotation.y,field.transforms0.transform.rotation.z,field.transforms0.transform.rotation.w
1528473722193920848,0,1528473722193477849,odom,base_footprint,0.0,0.0,0.0,0.0,0.0,0.0,1.0
1528473722215963365,0,1528473722215553803,odom,base_footprint,0.0,0.0,0.0,0.0,0.0,0.0,1.0
1528473722275774448,0,1528473722275409580,odom,base_footprint,0.0,0.0,0.0,0.0,0.0,0.0,1.0
1528473722333783265,0,1528473722333331420,odom,base_footprint,0.0,0.0,0.0,0.0,0.0,0.0,1.0
1528473722355654561,0,1528473722355358406,odom,base_footprint,0.0,0.0,0.0,0.0,0.0,0.0,1.0
1528473722415679583,0,1528473722415331915,odom,base_footprint,0.0,0.0,0.0,0.0,0.0,0.0,1.0
1528473722475768810,0,1528473722475365362,odom,base_footprint,0.0,0.0,0.0,0.0,0.0,0.0,1.0
1528473722535562428,0,1528473722535221861,odom,base_footprint,0.0,0.0,0.0,0.0,0.0,0.0,1.0
1528473722595656224,0,1528473722595270362,odom,base_footprint,0.0,0.0,0.0,0.0,0.0,0.0,1.0
1528473722654592015,0,1528473722654196220,odom,base_footprint,0.0,0.0,0.0,0.0,0.0,0.0,1.0
1528473722712627393,0,1528473722712169840,odom,base_footprint,0.0,0.0,0.0,0.0,0.0,0.0,1.0
1528473722734596720,0,1528473722734245268,odom,base_footprint,0.0,0.0,0.0,0.0,0.0,0.0,1.0
1528473722794678169,0,1528473722794259285,odom,base_footprint,0.0,0.0,0.0,0.0,0.0,0.0,1.0
1528473722852522094,0,1528473722852062883,odom,base_footprint,0.0,0.0,0.0,0.0,0.0,0.0,1.0
1528473722875073036,0,1528473722874433508,odom,base_footprint,0.0,0.0,0.0,0.0,0.0,0.0,1.0
1528473722934550128,0,1528473722934114766,odom,base_footprint,0.0,0.0,0.0,0.0,0.0,0.0,1.0
1528473722994496433,0,1528473722994044013,odom,base_footprint,0.0,0.0,0.0,0.0,0.0,0.0,1.0
1528473723054587394,0,1528473723054136667,odom,base_footprint,0.0,0.0,0.0,0.0,0.0,0.0,1.0
1528473723114359266,0,1528473723113982475,odom,base_footprint,0.0,0.0,0.0,0.0,0.0,0.0,1.0
1528473723173861566,0,1528473723173044607,odom,base_footprint,0.0,0.0,0.0,0.0,0.0,0.0,1.0
1528473723194395325,0,1528473723193946387,odom,base_footprint,0.0,0.0,0.0,0.0,0.0,0.0,1.0
1528473723253416522,0,1528473723253006775,odom,base_footprint,0.0,0.0,0.0,0.0,0.0,0.0,1.0
1528473723313237398,0,1528473723312849486,odom,base_footprint,0.0,0.0,0.0,0.0,0.0,0.0,1.0
1528473723371125651,0,1528473723370803978,odom,base_footprint,0.0,0.0,0.0,0.0,0.0,0.0,1.0
1528473723393215863,0,1528473723392847732,odom,base_footprint,0.0,0.0,0.0,0.0,0.0,0.0,1.0
1528473723451220741,0,1528473723450800871,odom,base_footprint,0.0,0.0,0.0,0.0,0.0,0.0,1.0
1528473723473962865,0,1528473723473077994,odom,base_footprint,0.0,0.0,0.0,0.0,0.0,0.0,1.0
1528473723533127629,0,1528473723532736831,odom,base_footprint,0.0,0.0,0.0,0.0,0.0,0.0,1.0
1528473723591076016,0,1528473723590677746,odom,base_footprint,0.0,0.0,0.0,0.0,0.0,0.0,1.0
1528473723613204271,0,1528473723612807063,odom,base_footprint,0.0,0.0,0.0,0.0,0.0,0.0,1.0
1528473723672379555,0,1528473723671864710,odom,base_footprint,0.0,0.0,0.0,0.0,0.0,0.0,1.0
1528473723693297151,0,1528473723692850393,odom,base_footprint,0.0,0.0,0.0,0.0,0.0,0.0,1.0
1528473723753124748,0,1528473723752747055,odom,base_footprint,0.0,0.0,0.0,0.0,0.0,0.0,1.0
1528473723812154635,0,1528473723811703978,odom,base_footprint,0.0,0.0,0.0,0.0,0.0,0.0,1.0
1528473723869891122,0,1528473723869547673,odom,base_footprint,0.0,0.0,0.0,0.0,0.0,0.0,1.0
1528473723891915086,0,1528473723891625126,odom,base_footprint,0.0,0.0,0.0,0.0,0.0,0.0,1.0
1528473723951983900,0,1528473723951600258,odom,base_footprint,0.0,0.0,0.0,0.0,0.0,0.0,1.0
1528473724011970138,0,1528473724011616220,odom,base_footprint,0.0,0.0,0.0,0.0,0.0,0.0,1.0
1528473724071945206,0,1528473724071507103,odom,base_footprint,0.0,0.0,0.0,0.0,0.0,0.0,1.0
1528473724131809457,0,1528473724131488951,odom,base_footprint,0.0,0.0,0.0,0.0,0.0,0.0,1.0
1528473724191013166,0,1528473724190522036,odom,base_footprint,0.0,0.0,0.0,0.0,0.0,0.0,1.0
1528473724211847751,0,1528473724211476457,odom,base_footprint,0.0,0.0,0.0,0.0,0.0,0.0,1.0
1528473724270965436,0,1528473724270514283,odom,base_footprint,0.0,0.0,0.0,0.0,0.0,0.0,1.0
1528473724328783066,0,1528473724328328235,odom,base_footprint,0.0,0.0,0.0,0.0,0.0,0.0,1.0
1528473724351801078,0,1528473724351360570,odom,base_footprint,0.0,0.0,0.0,0.0,0.0,0.0,1.0
1528473724410922893,0,1528473724410477368,odom,base_footprint,0.0,0.0,0.0,0.0,0.0,0.0,1.0
1528473724471194546,0,1528473724470402630,odom,base_footprint,0.0,0.0,0.0,0.0,0.0,0.0,1.0
1528473724528915021,0,1528473724528397560,odom,base_footprint,0.0,0.0,0.0,0.0,0.0,0.0,1.0
1528473724550952336,0,1528473724550482580,odom,base_footprint,0.0,0.0,0.0,0.0,0.0,0.0,1.0
1528473724608784193,0,1528473724608317139,odom,base_footprint,0.0,0.0,0.0,0.0,0.0,0.0,1.0
1528473724630592950,0,1528473724630218209,odom,base_footprint,0.0,0.0,0.0,0.0,0.0,0.0,1.0
1528473724690660671,0,1528473724690279766,odom,base_footprint,0.0,0.0,0.0,0.0,0.0,0.0,1.0
1528473724750648894,0,1528473724750210260,odom,base_footprint,0.0,0.0,0.0,0.0,0.0,0.0,1.0
1528473724809652777,0,1528473724809256936,odom,base_footprint,0.0,0.0,0.0,0.0,0.0,0.0,1.0
1528473724867532395,0,1528473724867169210,odom,base_footprint,0.0,0.0,0.0,0.0,0.0,0.0,1.0
1528473724890737599,0,1528473724890309850,odom,base_footprint,0.0,0.0,0.0,0.0,0.0,0.0,1.0
1528473724906712264,0,1528473724906170161,odom,base_footprint,0.0,0.0,0.0,0.0,0.0,0.0,1.0
1528473724929603733,0,1528473724929214614,odom,base_footprint,0.0,0.0,0.0,0.0,0.0,0.0,1.0
1528473724988373294,0,1528473724987500516,odom,base_footprint,0.0,0.0,0.0,0.0,0.0,0.0,1.0
1528473725009470686,0,1528473725009139515,odom,base_footprint,0.0,0.0,0.0,0.0,0.0,0.0,1.0
1528473725069520777,0,1528473725069135265,odom,base_footprint,0.0,0.0,0.0,0.0,0.0,0.0,1.0
1528473725127379892,0,1528473725127048671,odom,base_footprint,0.0,0.0,0.0,0.0,0.0,0.0,1.0
1528473725149714605,0,1528473725149248943,odom,base_footprint,0.0,0.0,0.0,0.0,0.0,0.0,1.0
1528473725209544020,0,1528473725209127046,odom,base_footprint,0.0,0.0,0.0,0.0,0.0,0.0,1.0
1528473725269674968,0,1528473725269224271,odom,base_footprint,0.0,0.0,0.0,0.0,0.0,0.0,1.0
1528473725328342222,0,1528473725327987021,odom,base_footprint,0.0,0.0,0.0,0.0,0.0,0.0,1.0
1528473725349303123,0,1528473725348946424,odom,base_footprint,0.0,0.0,0.0,0.0,0.0,0.0,1.0
1528473725409500545,0,1528473725409032423,odom,base_footprint,0.0,0.0,0.0,0.0,0.0,0.0,1.0
1528473725468352160,0,1528473725467972753,odom,base_footprint,0.0,0.0,0.0,0.0,0.0,0.0,1.0
1528473725526404728,0,1528473725525964360,odom,base_footprint,0.0,0.0,0.0,0.0,0.0,0.0,1.0
1528473725548309962,0,1528473725547952987,odom,base_footprint,0.0,0.0,0.0,0.0,0.0,0.0,1.0
1528473725608306424,0,1528473725607978055,odom,base_footprint,0.0,0.0,0.0,0.0,0.0,0.0,1.0
1528473725668265329,0,1528473725667881291,odom,base_footprint,0.0,0.0,0.0,0.0,0.0,0.0,1.0
1528473725728192651,0,1528473725727855362,odom,base_footprint,0.0,0.0,0.0,0.0,0.0,0.0,1.0
1528473725788255406,0,1528473725787890127,odom,base_footprint,0.0,0.0,0.0,0.0,0.0,0.0,1.0
1528473725847156962,0,1528473725846821983,odom,base_footprint,0.0,0.0,0.0,0.0,0.0,0.0,1.0
1528473725868186737,0,1528473725867835170,odom,base_footprint,0.0,0.0,0.0,0.0,0.0,0.0,1.0
1528473725928072846,0,1528473725927855258,odom,base_footprint,0.0,0.0,0.0,0.0,0.0,0.0,1.0
1528473725987881507,0,1528473725987073158,odom,base_footprint,0.0,0.0,0.0,0.0,0.0,0.0,1.0
1528473726045111378,0,1528473726044728638,odom,base_footprint,0.0,0.0,0.0,0.0,0.0,0.0,1.0
1528473726067243612,0,1528473726066796138,odom,base_footprint,0.0,0.0,0.0,0.0,0.0,0.0,1.0
1528473726127116694,0,1528473726126756321,odom,base_footprint,0.0,0.0,0.0,0.0,0.0,0.0,1.0
1528473726185017110,0,1528473726184577174,odom,base_footprint,0.0,0.0,0.0,0.0,0.0,0.0,1.0
1528473726207045314,0,1528473726206631643,odom,base_footprint,0.0,0.0,0.0,0.0,0.0,0.0,1.0
1528473726265030732,0,1528473726264565887,odom,base_footprint,0.0,0.0,0.0,0.0,0.0,0.0,1.0
1528473726287698359,0,1528473726286922054,odom,base_footprint,0.0,0.0,0.0,0.0,0.0,0.0,1.0
1528473726345992600,0,1528473726345625978,odom,base_footprint,0.0,0.0,0.0,0.0,0.0,0.0,1.0
1528473726403889965,0,1528473726403521037,odom,base_footprint,0.0,0.0,0.0,0.0,0.0,0.0,1.0
1528473726426985190,0,1528473726426621108,odom,base_footprint,0.0,0.0,0.0,0.0,0.0,0.0,1.0
1528473726486064827,0,1528473726485694584,odom,base_footprint,0.0,0.0,0.0,0.0,0.0,0.0,1.0
1528473726543954313,0,1528473726543568797,odom,base_footprint,0.0,0.0,0.0,0.0,0.0,0.0,1.0
1528473726565852687,0,1528473726565519086,odom,base_footprint,0.0,0.0,0.0,0.0,0.0,0.0,1.0
1528473726626016245,0,1528473726625559670,odom,base_footprint,0.0,0.0,0.0,0.0,0.0,0.0,1.0
1528473726683880087,0,1528473726683425802,odom,base_footprint,0.0,0.0,0.0,0.0,0.0,0.0,1.0
1528473726705934286,0,1528473726705501249,odom,base_footprint,0.0,0.0,0.0,0.0,0.0,0.0,1.0
1528473726765939232,0,1528473726765521376,odom,base_footprint,0.0,0.0,0.0,0.0,0.0,0.0,1.0
1528473726825689845,0,1528473726825333707,odom,base_footprint,0.0,0.0,0.0,0.0,0.0,0.0,1.0
1528473726885829188,0,1528473726885435778,odom,base_footprint,0.0,0.0,0.0,0.0,0.0,-8.7266462489e-05,0.999999996192
1528473726945701633,0,1528473726945339034,odom,base_footprint,-0.00132202734903,2.30737302763e-07,0.0,0.0,0.0,-0.000174532924313,0.999999984769
1528473727004814016,0,1528473727004392917,odom,base_footprint,-0.00264405463766,6.92211901262e-07,0.0,0.0,0.0,-0.000174532924313,0.999999984769
1528473727062485017,0,1528473727062146133,odom,base_footprint,-0.00417931213413,1.22811788661e-06,0.0,0.0,0.0,0.0,1.0
1528473727084771417,0,1528473727084286947,odom,base_footprint,-0.00469106466413,1.22811788661e-06,0.0,0.0,0.0,0.0,1.0
1528473727144674197,0,1528473727144251190,odom,base_footprint,-0.00648219851914,1.22811788661e-06,0.0,0.0,0.0,0.0,1.0
1528473727202592586,0,1528473727202180407,odom,base_footprint,-0.00835862446247,1.22811788661e-06,0.0,0.0,0.0,0.0,1.0
1528473727224876390,0,1528473727224374841,odom,base_footprint,-0.00878508490414,1.22811788661e-06,0.0,0.0,0.0,-8.7266462489e-05,0.999999996192
1528473727284655775,0,1528473727284259123,odom,base_footprint,-0.0103203424708,1.49607088337e-06,0.0,0.0,0.0,-0.00034906584331,0.999999939077
1528473727344921840,0,1528473727344387024,odom,base_footprint,-0.0118982457204,2.59765534171e-06,0.0,0.0,0.0,-0.000261799384809,0.999999965731
1528473727404510028,0,1528473727404131157,odom,base_footprint,-0.0136467332916,3.51316137678e-06,0.0,0.0,0.0,0.0,1.0
1528473727464523635,0,1528473727464142769,odom,base_footprint,-0.0153952211024,3.51316137678e-06,0.0,0.0,0.0,0.0,1.0
1528473727524478385,0,1528473727524096021,odom,base_footprint,-0.0172290010016,3.51316137678e-06,0.0,0.0,0.0,-0.000261799384809,0.999999965731
1528473727584385681,0,1528473727584009932,odom,base_footprint,-0.0188069044194,4.33934974989e-06,0.0,0.0,0.0,-0.000436332299153,0.999999904807
1528473727643390525,0,1528473727642993988,odom,base_footprint,-0.0203421614249,5.67911457043e-06,0.0,0.0,0.0,-0.000261799384809,0.999999965731
1528473727701526506,0,1528473727701089240,odom,base_footprint,-0.0219627108811,6.52763235903e-06,0.0,0.0,0.0,-8.7266462489e-05,0.999999996192
1528473727723617299,0,1528473727723142246,odom,base_footprint,-0.0225597554903,6.63183630222e-06,0.0,0.0,0.0,-8.7266462489e-05,0.999999996192
1528473727783567599,0,1528473727783132980,odom,base_footprint,-0.0267817137985,7.3687070433e-06,0.0,0.0,0.0,-8.7266462489e-05,0.999999996192
1528473727841265849,0,1528473727840918039,odom,base_footprint,-0.0307477958456,8.06091895159e-06,0.0,0.0,0.0,-0.000523598751674,0.999999862922
1528473727863455716,0,1528473727863046290,odom,base_footprint,-0.0320698224899,9.44534252217e-06,0.0,0.0,0.0,-0.000698131644088,0.999999756306
1528473727923459219,0,1528473727923001260,odom,base_footprint,-0.0365902987651,1.57571222048e-05,0.0,0.0,0.0,-8.7266462489e-05,0.999999996192
1528473727983653183,0,1528473727983054719,odom,base_footprint,-0.0408549031168,1.65014360846e-05,0.0,0.0,0.0,-0.00034906584331,0.999999939077
1528473728043197624,0,1528473728042854130,odom,base_footprint,-0.0455886128658,1.98061894596e-05,0.0,0.0,0.0,0.0,1.0
1528473728102347288,0,1528473728101916432,odom,base_footprint,-0.0494694028849,1.98061894596e-05,0.0,0.0,0.0,-0.000174532924313,0.999999984769
1528473728160184163,0,1528473728159822271,odom,base_footprint,-0.0540325293328,2.13990211383e-05,0.0,0.0,0.0,-0.000174532924313,0.999999984769
1528473728183445878,0,1528473728182916835,odom,base_footprint,-0.0552266184967,2.18158369047e-05,0.0,0.0,0.0,8.7266462489e-05,0.999999996192
1528473728242081449,0,1528473728241733129,odom,base_footprint,-0.0594912228484,2.10715230248e-05,0.0,0.0,0.0,-0.000174532924313,0.999999984769
1528473728300949061,0,1528473728299860069,odom,base_footprint,-0.0638411190884,2.25899233167e-05,0.0,0.0,0.0,8.7266462489e-05,0.999999996192
1528473728322325964,0,1528473728321883431,odom,base_footprint,-0.0652484385245,2.23442997363e-05,0.0,0.0,0.0,0.000261799384809,0.999999965731
1528473728382231787,0,1528473728381755831,odom,base_footprint,-0.0697689185865,1.99773816944e-05,0.0,0.0,0.0,-0.00034906584331,0.999999939077
1528473728440033224,0,1528473728439682363,odom,base_footprint,-0.0740335219639,2.29546369872e-05,0.0,0.0,0.0,0.000261799384809,0.999999965731
1528473728462345359,0,1528473728461884408,odom,base_footprint,-0.0754834872668,2.21954368606e-05,0.0,0.0,0.0,0.000261799384809,0.999999965731
1528473728521945610,0,1528473728521614570,odom,base_footprint,-0.0799613212905,1.98508482342e-05,0.0,0.0,0.0,-0.00034906584331,0.999999939077
1528473728580171779,0,1528473728579691369,odom,base_footprint,-0.0842685707017,2.28578760799e-05,0.0,0.0,0.0,0.000261799384809,0.999999965731
1528473728602063137,0,1528473728601668163,odom,base_footprint,-0.0857185360047,2.20986759532e-05,0.0,0.0,0.0,0.0,1.0
1528473728662001695,0,1528473728661594388,odom,base_footprint,-0.0901963706422,2.20986759532e-05,0.0,0.0,0.0,-0.000523598751674,0.999999862922
1528473728722023254,0,1528473728721649415,odom,base_footprint,-0.0945036187413,2.66092172638e-05,0.0,0.0,0.0,0.0,1.0
1528473728780939038,0,1528473728780635907,odom,base_footprint,-0.099024099423,2.66092172638e-05,0.0,0.0,0.0,-0.000698131644088,0.999999756306
1528473728839034671,0,1528473728838593732,odom,base_footprint,-0.103373991688,3.2682816581e-05,0.0,0.0,0.0,0.0,1.0
1528473728860926364,0,1528473728860510713,odom,base_footprint,-0.104866603234,3.2682816581e-05,0.0,0.0,0.0,-0.000174532924313,0.999999984769
1528473728918789013,0,1528473728918428479,odom,base_footprint,-0.109259145515,3.42161031502e-05,0.0,0.0,0.0,-0.000436332299153,0.999999904807
1528473728940857895,0,1528473728940481400,odom,base_footprint,-0.110709110465,3.54814365919e-05,0.0,0.0,0.0,0.0,1.0
1528473728998804348,0,1528473728998432830,odom,base_footprint,-0.115144299058,3.54814365919e-05,0.0,0.0,0.0,-0.000523598751674,0.999999862922
1528473729020852623,0,1528473729020493538,odom,base_footprint,-0.116636909786,3.70444954619e-05,0.0,0.0,0.0,-0.000698131644088,0.999999756306
1528473729079008265,0,1528473729078532109,odom,base_footprint,-0.121072094056,4.32371849618e-05,0.0,0.0,0.0,0.0,1.0
1528473729100746458,0,1528473729100391142,odom,base_footprint,-0.122564705601,4.32371849618e-05,0.0,0.0,0.0,-0.000174532924313,0.999999984769
1528473729160799365,0,1528473729160377771,odom,base_footprint,-0.126999893925,4.47853578083e-05,0.0,0.0,0.0,-0.000523598751674,0.999999862922
1528473729218645371,0,1528473729218328959,odom,base_footprint,-0.131477726107,4.94745344184e-05,0.0,0.0,0.0,-8.7266462489e-05,0.999999996192
1528473729240736255,0,1528473729240388601,odom,base_footprint,-0.132842399499,4.97127148599e-05,0.0,0.0,0.0,-0.000436332299153,0.999999904807
1528473729299663279,0,1528473729299332575,odom,base_footprint,-0.13736287846,5.36575779426e-05,0.0,0.0,0.0,-0.00218165983434,0.999997620177
1528473729320784370,0,1528473729320426383,odom,base_footprint,-0.138855475797,6.01703037591e-05,0.0,0.0,0.0,-0.00366518322306,0.999993283193
1528473729379945226,0,1528473729379444303,odom,base_footprint,-0.143333190128,9.29942520636e-05,0.0,0.0,0.0,-0.00680673152056,0.999976833935
1528473729437926163,0,1528473729437453540,odom,base_footprint,-0.147810609835,0.000153951676229,0.0,0.0,0.0,-0.0115189183158,0.99993365506
1528473729459684378,0,1528473729459278374,odom,base_footprint,-0.149217555831,0.000186371120971,0.0,0.0,0.0,-0.012827818167,0.999917720156
1528473729517563951,0,1528473729517172962,odom,base_footprint,-0.153608652769,0.000299055322792,0.0,0.0,0.0,-0.0168416310186,0.999858169674
1528473729539435922,0,1528473729539188711,odom,base_footprint,-0.154887308325,0.000342142947209,0.0,0.0,0.0,-0.0185866861927,0.999827252627
1528473729597634048,0,1528473729597187110,odom,base_footprint,-0.159575131987,0.000516495523919,0.0,0.0,0.0,-0.0252173342505,0.999681992462
1528473729619484827,0,1528473729619150865,odom,base_footprint,-0.161065845187,0.000591750953027,0.0,0.0,0.0,-0.0269620691806,0.999636457331
1528473729679757171,0,1528473729679236893,odom,base_footprint,-0.165281665228,0.00081933365435,0.0,0.0,0.0,-0.0308001894425,0.999525561619
1528473729739550549,0,1528473729739127976,odom,base_footprint,-0.169836134318,0.00110029062952,0.0,0.0,0.0,-0.035684405578,0.999363108784
1528473729799589043,0,1528473729799153410,odom,base_footprint,-0.174387639885,0.00142574814596,0.0,0.0,0.0,-0.0404805747218,0.999180325602
1528473729857221613,0,1528473729856985387,odom,base_footprint,-0.178723280239,0.00177763210009,0.0,0.0,0.0,-0.0449271006855,0.998990268033
1528473729879643503,0,1528473729879021653,odom,base_footprint,-0.180209866278,0.00191161409585,0.0,0.0,0.0,-0.0462347370243,0.998930602741
1528473729939522418,0,1528473729939071832,odom,base_footprint,-0.18479594798,0.00233705203226,0.0,0.0,0.0,-0.0513773167408,0.998679313556
1528473729999523180,0,1528473729999045025,odom,base_footprint,-0.189250142976,0.00279656261729,0.0,0.0,0.0,-0.0568670389178,0.998381760593
1528473730058445885,0,1528473730058056395,odom,base_footprint,-0.193699016232,0.00330502086965,0.0,0.0,0.0,-0.0612227459903,0.998124128239
1528473730079261977,0,1528473730078836122,odom,base_footprint,-0.195222764841,0.00349265360412,0.0,0.0,0.0,-0.0637485273363,0.997965994041
1528473730138223536,0,1528473730137844650,odom,base_footprint,-0.199833402472,0.00408410783844,0.0,0.0,0.0,-0.0686247285818,0.997642544515
1528473730196194430,0,1528473730195854785,odom,base_footprint,-0.204142328577,0.00467972132219,0.0,0.0,0.0,-0.072803029637,0.997346338478
1528473730218235168,0,1528473730217864100,odom,base_footprint,-0.205576923629,0.00489028483397,0.0,0.0,0.0,-0.0750657473599,0.9971785866
1528473730276119191,0,1528473730275791434,odom,base_footprint,-0.21021512144,0.0055925743576,0.0,0.0,0.0,-0.0802859093901,0.996771875984
1528473730298271907,0,1528473730297890155,odom,base_footprint,-0.211772683286,0.00584512331437,0.0,0.0,0.0,-0.0821124534196,0.996623070671
1528473730356153611,0,1528473730355815785,odom,base_footprint,-0.216190134726,0.00657801199136,0.0,0.0,0.0,-0.087329610194,0.996179471372
1528473730378114794,0,1528473730377741687,odom,base_footprint,-0.217701975152,0.00684513442224,0.0,0.0,0.0,-0.0888073755477,0.996048819109
1528473730438196914,0,1528473730437783694,odom,base_footprint,-0.2223190455,0.00767504460635,0.0,0.0,0.0,-0.0939345535441,0.995578374439
1528473730498114078,0,1528473730497753745,odom,base_footprint,-0.226843538352,0.00853650106925,0.0,0.0,0.0,-0.0996670836044,0.995020840207
1528473730558219697,0,1528473730557822669,odom,base_footprint,-0.231316009188,0.00944155915567,0.0,0.0,0.0,-0.103834130589,0.994594627637
1528473730616044298,0,1528473730615699832,odom,base_footprint,-0.235864193899,0.0104016702451,0.0,0.0,0.0,-0.110167997914,0.993912980213
1528473730637936537,0,1528473730637616177,odom,base_footprint,-0.237403795539,0.0107472229457,0.0,0.0,0.0,-0.111902534636,0.993719187065
1528473730697075211,0,1528473730696708644,odom,base_footprint,-0.241894219703,0.0117715440071,0.0,0.0,0.0,-0.116584066166,0.993180827199
1528473730754912101,0,1528473730754558257,odom,base_footprint,-0.246291817044,0.0128183884183,0.0,0.0,0.0,-0.122908668292,0.992417986162
1528473730778221541,0,1528473730777769301,odom,base_footprint,-0.247822047347,0.0132033236054,0.0,0.0,0.0,-0.125160074975,0.992136560979
1528473730837073808,0,1528473730836671358,odom,base_footprint,-0.252366140727,0.0143683578788,0.0,0.0,0.0,-0.131477850681,0.991319108451
1528473730894919623,0,1528473730894612223,odom,base_footprint,-0.256895022101,0.0155911918823,0.0,0.0,0.0,-0.137530983771,0.990497465167
1528473730917088652,0,1528473730916662668,odom,base_footprint,-0.258372201598,0.016009470021,0.0,0.0,0.0,-0.139345933222,0.990243763371
1528473730977061845,0,1528473730976635520,odom,base_footprint,-0.262963070738,0.0173276150162,0.0,0.0,0.0,-0.146255686931,0.989246821597
1528473731037282120,0,1528473731036810213,odom,base_footprint,-0.267494266615,0.0186973897537,0.0,0.0,0.0,-0.151433342672,0.98846747176
1528473731096977597,0,1528473731096533631,odom,base_footprint,-0.271848109574,0.020063470646,0.0,0.0,0.0,-0.157554861013,0.98751023578
1528473731157193109,0,1528473731156711305,odom,base_footprint,-0.276427863193,0.0215630194484,0.0,0.0,0.0,-0.164359008451,0.986400586142
1528473731216886390,0,1528473731216483649,odom,base_footprint,-0.280905822265,0.0230979140586,0.0,0.0,0.0,-0.170295491579,0.98539304115
1528473731277572631,0,1528473731276902051,odom,base_footprint,-0.285284627633,0.0246579977161,0.0,0.0,0.0,-0.176483496432,0.984303599245
1528473731335798770,0,1528473731335389048,odom,base_footprint,-0.289883420199,0.0263618806805,0.0,0.0,0.0,-0.182578735093,0.983191235463
1528473731356716387,0,1528473731356313114,odom,base_footprint,-0.291395927848,0.0269436898171,0.0,0.0,0.0,-0.185495114273,0.982645186515
1528473731415994949,0,1528473731415463761,odom,base_footprint,-0.29568474573,0.0286227323973,0.0,0.0,0.0,-0.190466331231,0.981693728546
1528473731474110688,0,1528473731473532827,odom,base_footprint,-0.299956347363,0.0303451035242,0.0,0.0,0.0,-0.196630694615,0.980477623373
1528473731495617390,0,1528473731495267358,odom,base_footprint,-0.301569629402,0.0310192924347,0.0,0.0,0.0,-0.200308502606,0.979732873687
1528473731553633911,0,1528473731553227732,odom,base_footprint,-0.306041145724,0.0329274782549,0.0,0.0,0.0,-0.206716503214,0.978400882716
1528473731575788236,0,1528473731575330613,odom,base_footprint,-0.307484196308,0.0335657453533,0.0,0.0,0.0,-0.208338468418,0.978056789035
1528473731633550704,0,1528473731633150158,odom,base_footprint,-0.311690142705,0.0354427530035,0.0,0.0,0.0,-0.214479627607,0.976728462441
1528473731655846030,0,1528473731655360487,odom,base_footprint,-0.313122874437,0.0361038578828,0.0,0.0,0.0,-0.216524811013,0.976277115483
1528473731715622558,0,1528473731715257940,odom,base_footprint,-0.317567313445,0.0381772782767,0.0,0.0,0.0,-0.222994916479,0.97481960753
1528473731776125681,0,1528473731775253435,odom,base_footprint,-0.321868645141,0.0402538454744,0.0,0.0,0.0,-0.229200390922,0.97337925846
1528473731835480670,0,1528473731835138479,odom,base_footprint,-0.326066840275,0.0423469883553,0.0,0.0,0.0,-0.235905416885,0.971776020637
1528473731893597562,0,1528473731893141894,odom,base_footprint,-0.3307284693,0.0447520042506,0.0,0.0,0.0,-0.244715139682,0.969595018763
1528473731915519991,0,1528473731915119941,odom,base_footprint,-0.332154924124,0.0455210347406,0.0,0.0,0.0,-0.246660747381,0.96910189129
1528473731974466335,0,1528473731974104800,odom,base_footprint,-0.336312622653,0.0477841215381,0.0,0.0,0.0,-0.251478171356,0.967862970328
1528473731995365143,0,1528473731995020176,odom,base_footprint,-0.337765453153,0.0485937532737,0.0,0.0,0.0,-0.253926760789,0.967223448927
1528473732054531220,0,1528473732054137540,odom,base_footprint,-0.342223034674,0.0511075217953,0.0,0.0,0.0,-0.259914686406,0.965631583882
1528473732112254572,0,1528473732111940416,odom,base_footprint,-0.346390935962,0.0535264861772,0.0,0.0,0.0,-0.266145000272,0.963933005364
1528473732134366429,0,1528473732134031711,odom,base_footprint,-0.34767209472,0.0542923330711,0.0,0.0,0.0,-0.267911051866,0.963443650811
1528473732192500130,0,1528473732191971002,odom,base_footprint,-0.352018461542,0.0569121603381,0.0,0.0,0.0,-0.273959218692,0.961741309549
1528473732214393422,0,1528473732214034317,odom,base_footprint,-0.353468243995,0.0578110635433,0.0,0.0,0.0,-0.276056759104,0.961141334952
1528473732272512188,0,1528473732272021088,odom,base_footprint,-0.357588906404,0.0603909419611,0.0,0.0,0.0,-0.281839122541,0.959461676674
1528473732294233217,0,1528473732293896613,odom,base_footprint,-0.358880262868,0.0612212517527,0.0,0.0,0.0,-0.2831785086,0.95906721989
1528473732354195585,0,1528473732353866283,odom,base_footprint,-0.363248651699,0.0640472892258,0.0,0.0,0.0,-0.287945566665,0.957646777595
1528473732414267606,0,1528473732413905905,odom,base_footprint,-0.36730411633,0.0667284900691,0.0,0.0,0.0,-0.290535193698,0.956864306588
1528473732474260425,0,1528473732473861617,odom,base_footprint,-0.371522247378,0.0695501509148,0.0,0.0,0.0,-0.289616536184,0.957142759451
1528473732532184986,0,1528473732531821917,odom,base_footprint,-0.375887755595,0.0724582816937,0.0,0.0,0.0,-0.290702193598,0.956813584058
1528473732554096019,0,1528473732553737290,odom,base_footprint,-0.37734072181,0.0734309577966,0.0,0.0,0.0,-0.290618694755,0.956838948966
1528473732613160106,0,1528473732612820255,odom,base_footprint,-0.381664687342,0.0763245076677,0.0,0.0,0.0,-0.291119654596,0.956686650219
1528473732671083530,0,1528473732670704675,odom,base_footprint,-0.386021037869,0.0792463387215,0.0,0.0,0.0,-0.290869184643,0.956762832381
1528473732693141858,0,1528473732692774344,odom,base_footprint,-0.387579954219,0.0802907304747,0.0,0.0,0.0,-0.291036166828,0.956712051559
1528473732753321534,0,1528473732752879848,odom,base_footprint,-0.391901393006,0.0831880526153,0.0,0.0,0.0,-0.291370104596,0.956610402488
1528473732811084478,0,1528473732810698786,odom,base_footprint,-0.396433238275,0.0862310305749,0.0,0.0,0.0,-0.292121334707,0.956381265923
1528473732833045441,0,1528473732832652031,odom,base_footprint,-0.397812576802,0.0871603557275,0.0,0.0,0.0,-0.292288250276,0.956330266566
1528473732893110466,0,1528473732892682823,odom,base_footprint,-0.402197134286,0.090116663815,0.0,0.0,0.0,-0.292121334707,0.956381265923
1528473732914277910,0,1528473732913687961,odom,base_footprint,-0.403717943431,0.0911413043678,0.0,0.0,0.0,-0.292371704723,0.956304755963
1528473732952974813,0,1528473732952626502,odom,base_footprint,-0.406581712439,0.0930729409538,0.0,0.0,0.0,-0.292705500237,0.956202640726
1528473733013219303,0,1528473733012788852,odom,base_footprint,-0.410928349872,0.0960092021214,0.0,0.0,0.0,-0.292371704723,0.956304755963
1528473733073066820,0,1528473733072530355,odom,base_footprint,-0.415170970624,0.0988708859525,0.0,0.0,0.0,-0.290952676844,0.956737445613
1528473733132085867,0,1528473733131529912,odom,base_footprint,-0.419599192345,0.101838680894,0.0,0.0,0.0,-0.290201167351,0.956965664205
1528473733152845003,0,1528473733152478771,odom,base_footprint,-0.420982250299,0.102762461554,0.0,0.0,0.0,-0.289365946873,0.957218548081
1528473733211827189,0,1528473733211506498,odom,base_footprint,-0.425242767677,0.105597431901,0.0,0.0,0.0,-0.287276932975,0.957847568134
1528473733269959837,0,1528473733269461260,odom,base_footprint,-0.429622435517,0.108484194141,0.0,0.0,0.0,-0.283847994766,0.958869290293
1528473733291953016,0,1528473733291516456,odom,base_footprint,-0.431089173107,0.109435976925,0.0,0.0,0.0,-0.282927415687,0.959141322982
1528473733349805932,0,1528473733349442387,odom,base_footprint,-0.435530678228,0.112306017708,0.0,0.0,0.0,-0.280415422868,0.959878737455
1528473733371978555,0,1528473733371566251,odom,base_footprint,-0.437004189021,0.11324728046,0.0,0.0,0.0,-0.279829014031,0.960049854386
1528473733429631915,0,1528473733429319472,odom,base_footprint,-0.441428168009,0.116065665907,0.0,0.0,0.0,-0.278152985584,0.960536785663
1528473733451684941,0,1528473733451382076,odom,base_footprint,-0.442870050948,0.116977186463,0.0,0.0,0.0,-0.277398496044,0.96075495023
1528473733511830367,0,1528473733511404783,odom,base_footprint,-0.447272155515,0.119750412773,0.0,0.0,0.0,-0.275721240675,0.961237638381
1528473733571710770,0,1528473733571359639,odom,base_footprint,-0.451647751676,0.122485650702,0.0,0.0,0.0,-0.273707426021,0.961812998946
1528473733631827826,0,1528473733631415739,odom,base_footprint,-0.456071023079,0.125224989834,0.0,0.0,0.0,-0.272280247041,0.962217993529
1528473733691625503,0,1528473733691247820,odom,base_footprint,-0.460429757213,0.127906500964,0.0,0.0,0.0,-0.270264386684,0.962786145149
1528473733750830466,0,1528473733750410459,odom,base_footprint,-0.464872517498,0.130614117965,0.0,0.0,0.0,-0.268667656032,0.963232936834
1528473733808623994,0,1528473733808172781,odom,base_footprint,-0.469470189995,0.133395278153,0.0,0.0,0.0,-0.265976758172,0.963979441748
1528473733831654445,0,1528473733831270508,odom,base_footprint,-0.470898064692,0.134248152036,0.0,0.0,0.0,-0.264967135608,0.964257443346
1528473733890564982,0,1528473733890112455,odom,base_footprint,-0.475260353935,0.136841380144,0.0,0.0,0.0,-0.262189178641,0.965016494472
1528473733948565534,0,1528473733948085023,odom,base_footprint,-0.479931769031,0.139582083102,0.0,0.0,0.0,-0.259746147943,0.965676932845
1528473733970780460,0,1528473733970306925,odom,base_footprint,-0.481407431124,0.140437838629,0.0,0.0,0.0,-0.259240485101,0.965812803231
1528473734030527114,0,1528473734030148429,odom,base_footprint,-0.485984759152,0.143085888847,0.0,0.0,0.0,-0.256711107581,0.966488182672
1528473734088294328,0,1528473734087944830,odom,base_footprint,-0.490390763306,0.145604127688,0.0,0.0,0.0,-0.25358912065,0.96731202716
1528473734110549847,0,1528473734110081364,odom,base_footprint,-0.491914369559,0.146461935131,0.0,0.0,0.0,-0.252660451069,0.96755500953
1528473734170405112,0,1528473734170038851,odom,base_footprint,-0.496564522964,0.14906827888,0.0,0.0,0.0,-0.249197002009,0.968452814643
1528473734191586293,0,1528473734191050980,odom,base_footprint,-0.498058502097,0.149891639361,0.0,0.0,0.0,-0.248098167018,0.96873489641
1528473734230744041,0,1528473734230165488,odom,base_footprint,-0.501087585047,0.151552075844,0.0,0.0,0.0,-0.246407028649,0.969166433711
1528473734290230228,0,1528473734289877347,odom,base_footprint,-0.505808479159,0.154118513679,0.0,0.0,0.0,-0.243361091541,0.969935760308
1528473734350424702,0,1528473734349994463,odom,base_footprint,-0.51050781073,0.156635106059,0.0,0.0,0.0,-0.240736275485,0.970590565411
1528473734409346400,0,1528473734408892736,odom,base_footprint,-0.515220689527,0.159126235897,0.0,0.0,0.0,-0.237601125835,0.971362808122
1528473734430230659,0,1528473734429855001,odom,base_footprint,-0.516809588984,0.159953012168,0.0,0.0,0.0,-0.235735806381,0.971817179098
1528473734489350725,0,1528473734488897482,odom,base_footprint,-0.521661588464,0.162454099422,0.0,0.0,0.0,-0.232681594384,0.972552968036
1528473734547260473,0,1528473734546847132,odom,base_footprint,-0.526491178591,0.164905350307,0.0,0.0,0.0,-0.229200390922,0.97337925846
1528473734569247356,0,1528473734568796984,odom,base_footprint,-0.528132291235,0.165723578888,0.0,0.0,0.0,-0.228095979927,0.973638651626
1528473734627138696,0,1528473734626746905,odom,base_footprint,-0.533137602966,0.168204971478,0.0,0.0,0.0,-0.224780991261,0.97440931131
1528473734652173385,0,1528473734651835789,odom,base_footprint,-0.534747737392,0.168989590885,0.0,0.0,0.0,-0.223590358248,0.974683205815
1528473734707265344,0,1528473734706788141,odom,base_footprint,-0.539737406075,0.171405989929,0.0,0.0,0.0,-0.219165099243,0.975687787806
1528473734729258016,0,1528473734728903656,odom,base_footprint,-0.541433570005,0.172208487433,0.0,0.0,0.0,-0.218058075762,0.975935794812
1528473734789089122,0,1528473734788727430,odom,base_footprint,-0.546411739731,0.174549975133,0.0,0.0,0.0,-0.214564862428,0.976709741843
1528473734852302253,0,1528473734851899206,odom,base_footprint,-0.551445256552,0.17687365461,0.0,0.0,0.0,-0.210898298214,0.977508009077
1528473734909082028,0,1528473734908669590,odom,base_footprint,-0.556457218061,0.179141909512,0.0,0.0,0.0,-0.207228764358,0.978292512096
1528473734969783551,0,1528473734968907355,odom,base_footprint,-0.561525044608,0.181389777834,0.0,0.0,0.0,-0.202616385647,0.979258188767
1528473735027983589,0,1528473735027654679,odom,base_footprint,-0.566652975938,0.183606707013,0.0,0.0,0.0,-0.199453448221,0.979907302755
1528473735086213151,0,1528473735085719616,odom,base_footprint,-0.571716610587,0.185757135485,0.0,0.0,0.0,-0.195518251741,0.980700062831
1528473735109328032,0,1528473735108793928,odom,base_footprint,-0.573370803709,0.186444016554,0.0,0.0,0.0,-0.194148745994,0.980972101759
1528473735167987002,0,1528473735167549757,odom,base_footprint,-0.578536273452,0.188572014919,0.0,0.0,0.0,-0.189952291512,0.981793321911
1528473735225875852,0,1528473735225473422,odom,base_footprint,-0.583680184414,0.190639853867,0.0,0.0,0.0,-0.185495114273,0.982645186515
1528473735247934526,0,1528473735247502372,odom,base_footprint,-0.585387769312,0.191308361561,0.0,0.0,0.0,-0.184380219543,0.982854991665
1528473735307817871,0,1528473735307488430,odom,base_footprint,-0.59055480765,0.193317712878,0.0,0.0,0.0,-0.180004123711,0.983665855587
1528473735367799138,0,1528473735367387256,odom,base_footprint,-0.595779409109,0.195296094617,0.0,0.0,0.0,-0.175882186689,0.984411223222
1528473735427737921,0,1528473735427386669,odom,base_footprint,-0.60110041623,0.197260172937,0.0,0.0,0.0,-0.171843132619,0.985124326048
1528473735487803328,0,1528473735487395851,odom,base_footprint,-0.606357100848,0.199151659534,0.0,0.0,0.0,-0.16728499015,0.985908582005
1528473735547728409,0,1528473735547366869,odom,base_footprint,-0.61167131624,0.201008507308,0.0,0.0,0.0,-0.163412056282,0.986557904971
1528473735607713239,0,1528473735607383286,odom,base_footprint,-0.616919214333,0.202796059686,0.0,0.0,0.0,-0.158933531385,0.987289285165
1528473735666556029,0,1528473735666229504,odom,base_footprint,-0.622223610963,0.204549294155,0.0,0.0,0.0,-0.155313867735,0.987865174247
1528473735724571802,0,1528473735724223948,odom,base_footprint,-0.627581305438,0.206276684905,0.0,0.0,0.0,-0.150484412391,0.988612381891
1528473735747573431,0,1528473735747250750,odom,base_footprint,-0.629332031397,0.206822310539,0.0,0.0,0.0,-0.149103902864,0.988821534025
1528473735806596473,0,1528473735806245872,odom,base_footprint,-0.634629509647,0.208457089453,0.0,0.0,0.0,-0.145392350643,0.989374077068
1528473735864551746,0,1528473735864219543,odom,base_footprint,-0.640020793594,0.210076603669,0.0,0.0,0.0,-0.141074021516,0.989999050734
1528473735886583598,0,1528473735886266795,odom,base_footprint,-0.64178158216,0.210588826613,0.0,0.0,0.0,-0.139777995295,0.990182867975
1528473735946837530,0,1528473735946421809,odom,base_footprint,-0.647108932357,0.212123465913,0.0,0.0,0.0,-0.135023866942,0.990842346368
1528473736006489135,0,1528473736006147435,odom,base_footprint,-0.65245076836,0.213606896403,0.0,0.0,0.0,-0.131218319443,0.9913534953
1528473736066713052,0,1528473736066264049,odom,base_footprint,-0.657803838666,0.215049261198,0.0,0.0,0.0,-0.127324281602,0.991861143162
1528473736126509181,0,1528473736126162384,odom,base_footprint,-0.663250598728,0.21647108176,0.0,0.0,0.0,-0.123168478499,0.992385774739
1528473736186602702,0,1528473736186189427,odom,base_footprint,-0.668502318318,0.217795095756,0.0,0.0,0.0,-0.119443734243,0.992840971329
1528473736246372530,0,1528473736246010859,odom,base_footprint,-0.673929543324,0.21912011781,0.0,0.0,0.0,-0.114417005998,0.99343281038
1528473736305795797,0,1528473736305363232,odom,base_footprint,-0.679286844181,0.220370744051,0.0,0.0,0.0,-0.110167997914,0.993912980213
1528473736363416241,0,1528473736363014272,odom,base_footprint,-0.684779477058,0.221603526659,0.0,0.0,0.0,-0.104875610524,0.994485347462
1528473736386470321,0,1528473736386075594,odom,base_footprint,-0.686489502006,0.221968251628,0.0,0.0,0.0,-0.103400146944,0.994639839144
1528473736445405915,0,1528473736444983825,odom,base_footprint,-0.691914939699,0.223108604095,0.0,0.0,0.0,-0.0987987262748,0.995107437258
1528473736503265332,0,1528473736502857735,odom,base_footprint,-0.697350693663,0.224198721863,0.0,0.0,0.0,-0.0936739085191,0.995602932329
1528473736525246612,0,1528473736524891296,odom,base_footprint,-0.699152291454,0.224540765891,0.0,0.0,0.0,-0.0925443727831,0.99570856131
1528473736585343151,0,1528473736584930988,odom,base_footprint,-0.704559399133,0.225554632256,0.0,0.0,0.0,-0.08741654292,0.996171846633
1528473736645331178,0,1528473736644892198,odom,base_footprint,-0.710018654456,0.226520193869,0.0,0.0,0.0,-0.0824603354897,0.9965943473
1528473736705283703,0,1528473736704887417,odom,base_footprint,-0.715403113075,0.227417379345,0.0,0.0,0.0,-0.0780241010268,0.996951473071
1528473736765186719,0,1528473736764787170,odom,base_footprint,-0.720963851517,0.228293140086,0.0,0.0,0.0,-0.0728900642467,0.997339981418
1528473736825228691,0,1528473736824827358,odom,base_footprint,-0.726406734402,0.229092992796,0.0,0.0,0.0,-0.0684506060659,0.997654506595
1528473736885194166,0,1528473736884774706,odom,base_footprint,-0.731856521206,0.229844366384,0.0,0.0,0.0,-0.0628776135523,0.998021245122
1528473736944310654,0,1528473736943841990,odom,base_footprint,-0.737314360773,0.23053481966,0.0,0.0,0.0,-0.0586094563111,0.998280988315
1528473737002074209,0,1528473737001691990,odom,base_footprint,-0.742947317754,0.231198533513,0.0,0.0,0.0,-0.0533816897588,0.99857418112
1528473737024043346,0,1528473737023674182,odom,base_footprint,-0.744728243562,0.23138948836,0.0,0.0,0.0,-0.0518130678911,0.998656800906
1528473737081972133,0,1528473737081571892,odom,base_footprint,-0.750284879671,0.231967631818,0.0,0.0,0.0,-0.0479781285213,0.998848386485
1528473737104085749,0,1528473737103776243,odom,base_footprint,-0.752152666922,0.232147479275,0.0,0.0,0.0,-0.0455373406932,0.998962637241
1528473737162007219,0,1528473737161611850,odom,base_footprint,-0.757503783385,0.232636352445,0.0,0.0,0.0,-0.0410037387439,0.999158993058
1528473737184060706,0,1528473737183681560,odom,base_footprint,-0.759373899634,0.232790103988,0.0,0.0,0.0,-0.0394342135269,0.999222168891
1528473737241900026,0,1528473737241582998,odom,base_footprint,-0.764900642946,0.23322700932,0.0,0.0,0.0,-0.0343762121291,0.999408963358
1528473737263857461,0,1528473737263518593,odom,base_footprint,-0.766730088802,0.233353011618,0.0,0.0,0.0,-0.0329807409147,0.99945598739
1528473737323853507,0,1528473737323512408,odom,base_footprint,-0.772347120371,0.233724125125,0.0,0.0,0.0,-0.0287067219796,0.999587877134
1528473737381796402,0,1528473737381456135,odom,base_footprint,-0.777796817269,0.234037398367,0.0,0.0,0.0,-0.0228618212284,0.999738634409
1528473737404111874,0,1528473737403629268,odom,base_footprint,-0.779628680271,0.234121223548,0.0,0.0,0.0,-0.0211169142107,0.999777013106
1528473737462892706,0,1528473737462487650,odom,base_footprint,-0.785167721619,0.23435531508,0.0,0.0,0.0,-0.0164926136573,0.999863987598
1528473737483773873,0,1528473737483442587,odom,base_footprint,-0.78691525823,0.234412981503,0.0,0.0,0.0,-0.0139621803391,0.999902524009
1528473737544149316,0,1528473737543682321,odom,base_footprint,-0.79254234129,0.234570160165,0.0,0.0,0.0,-0.00916285035263,0.999958020206
1528473737602774337,0,1528473737602394855,odom,base_footprint,-0.79795747946,0.234669408866,0.0,0.0,0.0,-0.00436330928475,0.999990480721
1528473737661039422,0,1528473737660459130,odom,base_footprint,-0.803629187364,0.234718905111,0.0,0.0,0.0,0.00183259468883,0.999998320797
1528473737682900283,0,1528473737682471612,odom,base_footprint,-0.805462954946,0.234712183972,0.0,0.0,0.0,0.00349065141522,0.999993907658
1528473737742780286,0,1528473737742382807,odom,base_footprint,-0.81096416058,0.234673777687,0.0,0.0,0.0,0.00846474578303,0.999964173398
1528473737800715102,0,1528473737800352839,odom,base_footprint,-0.816592631713,0.23457848029,0.0,0.0,0.0,0.0130895955713,0.999914327574
1528473737822618547,0,1528473737822262464,odom,base_footprint,-0.818383151791,0.234531593872,0.0,0.0,0.0,0.0145729833896,0.999893808439
1528473737880652226,0,1528473737880220258,odom,base_footprint,-0.82392478276,0.234370026207,0.0,0.0,0.0,0.019982689822,0.999800326119
1528473737902823401,0,1528473737902322398,odom,base_footprint,-0.825842322146,0.23429334508,0.0,0.0,0.0,0.0215531472033,0.999767703942
1528473737962684059,0,1528473737962269044,odom,base_footprint,-0.831295944257,0.234058095685,0.0,0.0,0.0,0.0269620691806,0.999636457331
1528473738020789288,0,1528473738020276032,odom,base_footprint,-0.836831869562,0.233759249713,0.0,0.0,0.0,0.0332423967471,0.999447318801
1528473738042659111,0,1528473738042222737,odom,base_footprint,-0.838661596599,0.233637398617,0.0,0.0,0.0,0.0350739227745,0.999384720686
1528473738101620831,0,1528473738101161669,odom,base_footprint,-0.844277024378,0.233242759868,0.0,0.0,0.0,0.0408293519785,0.999166134343
1528473738122484903,0,1528473738122162764,odom,base_footprint,-0.846232201901,0.233082702094,0.0,0.0,0.0,0.0437065706034,0.999044411268
1528473738182620632,0,1528473738182163615,odom,base_footprint,-0.851712523573,0.232602272243,0.0,0.0,0.0,0.0490240936076,0.998797596236
1528473738241378811,0,1528473738241020393,odom,base_footprint,-0.85731474302,0.232050995412,0.0,0.0,0.0,0.0541659515417,0.998531947257
1528473738299341822,0,1528473738298976403,odom,base_footprint,-0.862741405602,0.231460512874,0.0,0.0,0.0,0.0612227459903,0.998124128239
1528473738321401789,0,1528473738321054877,odom,base_footprint,-0.864603765013,0.231231183976,0.0,0.0,0.0,0.0633130764713,0.997993714583
1528473738381399038,0,1528473738381001875,odom,base_footprint,-0.870230216556,0.230514411018,0.0,0.0,0.0,0.0697564737441,0.99756405026
1528473738441412394,0,1528473738441017731,odom,base_footprint,-0.87572024861,0.229742837331,0.0,0.0,0.0,0.0749787268263,0.997185133525
1528473738501574133,0,1528473738501149356,odom,base_footprint,-0.881201899888,0.228913815519,0.0,0.0,0.0,0.0821994248768,0.996615901213
1528473738561358168,0,1528473738560898371,odom,base_footprint,-0.886628897282,0.228012462227,0.0,0.0,0.0,0.0885466075362,0.996072034691
1528473738621227026,0,1528473738620894241,odom,base_footprint,-0.892127925075,0.227026993793,0.0,0.0,0.0,0.094542700201,0.995520807336
1528473738681287214,0,1528473738680876210,odom,base_footprint,-0.897656570308,0.225967347257,0.0,0.0,0.0,0.101577201628,0.994827659502
1528473738740275240,0,1528473738739857179,odom,base_footprint,-0.903044385153,0.224855506592,0.0,0.0,0.0,0.107825841986,0.994169798274
1528473738798223552,0,1528473738797848846,odom,base_footprint,-0.908584420777,0.223639477926,0.0,0.0,0.0,0.115023838182,0.993362731659
1528473738820196458,0,1528473738819766259,odom,base_footprint,-0.910411194676,0.223210675591,0.0,0.0,0.0,0.116930744566,0.993140071176
1528473738878058506,0,1528473738877713839,odom,base_footprint,-0.915845056675,0.221913140045,0.0,0.0,0.0,0.122822063017,0.992428708188
1528473738900314190,0,1528473738899809844,odom,base_footprint,-0.917623510484,0.221466093328,0.0,0.0,0.0,0.126025829689,0.992026960446
1528473738958049395,0,1528473738957710195,odom,base_footprint,-0.923115265585,0.220047873903,0.0,0.0,0.0,0.132602381688,0.991169313675
1528473738980078049,0,1528473738979749881,odom,base_footprint,-0.924884557344,0.219565841342,0.0,0.0,0.0,0.13459151757,0.990901167321
1528473739038046448,0,1528473739037725015,odom,base_footprint,-0.930268786839,0.218075697907,0.0,0.0,0.0,0.140987627263,0.990011357995
1528473739060074636,0,1528473739059745525,odom,base_footprint,-0.932070615428,0.217551877271,0.0,0.0,0.0,0.142715307433,0.989763780417
1528473739120348855,0,1528473739119886186,odom,base_footprint,-0.937388765148,0.215985652044,0.0,0.0,0.0,0.14849983838,0.988912431918
1528473739179989078,0,1528473739179650812,odom,base_footprint,-0.942729001868,0.214344821011,0.0,0.0,0.0,0.155486280367,0.987838051817
1528473739238964179,0,1528473739238619467,odom,base_footprint,-0.948167261092,0.212589359257,0.0,0.0,0.0,0.161689939895,0.986841610055
1528473739297032002,0,1528473739296661606,odom,base_footprint,-0.953421366936,0.210820136353,0.0,0.0,0.0,0.168489379565,0.985703469089
1528473739320056725,0,1528473739319657352,odom,base_footprint,-0.955191254401,0.210196860588,0.0,0.0,0.0,0.170553461035,0.985348424127
1528473739379255102,0,1528473739378801874,odom,base_footprint,-0.960493037926,0.208304808699,0.0,0.0,0.0,0.176741180461,0.984257362243
1528473739436990141,0,1528473739436584994,odom,base_footprint,-0.965730645507,0.206361121086,0.0,0.0,0.0,0.184380219543,0.982854991665
1528473739458817074,0,1528473739458515662,odom,base_footprint,-0.967479489252,0.205681032948,0.0,0.0,0.0,0.186609770269,0.982434116692
1528473739518932035,0,1528473739518525495,odom,base_footprint,-0.972637356275,0.203648255124,0.0,0.0,0.0,0.193035743749,0.981191725217
1528473739576932588,0,1528473739576489318,odom,base_footprint,-0.977886576638,0.201499672797,0.0,0.0,0.0,0.19996649912,0.979802734855
1528473739598929514,0,1528473739598553821,odom,base_footprint,-0.979652174294,0.200747673989,0.0,0.0,0.0,0.201847215651,0.97941702126
1528473739658839802,0,1528473739658471385,odom,base_footprint,-0.984666068495,0.198589387321,0.0,0.0,0.0,0.208679861943,0.977984005605
1528473739718844763,0,1528473739718387216,odom,base_footprint,-0.989727203185,0.196326492371,0.0,0.0,0.0,0.21499101201,0.976616027288
1528473739778793284,0,1528473739778400005,odom,base_footprint,-0.994797394044,0.193980512967,0.0,0.0,0.0,0.222059054235,0.975033218117
1528473739838660057,0,1528473739838340819,odom,base_footprint,-0.999833069706,0.191561334316,0.0,0.0,0.0,0.227841074111,0.973698333648
1528473739897811750,0,1528473739897285123,odom,base_footprint,-1.0049543352,0.189025797082,0.0,0.0,0.0,0.233699921703,0.972308771222
1528473739918737400,0,1528473739918248620,odom,base_footprint,-1.00658780893,0.18819242303,0.0,0.0,0.0,0.236838146066,0.971549119998
1528473739977677956,0,1528473739977299717,odom,base_footprint,-1.01147198295,0.185660707685,0.0,0.0,0.0,0.242853201028,0.970063050915
1528473740035610161,0,1528473740035233660,odom,base_footprint,-1.01643725732,0.1830083843,0.0,0.0,0.0,0.250211026602,0.968191325187
1528473740057684747,0,1528473740057301305,odom,base_footprint,-1.01807873387,0.182099247879,0.0,0.0,0.0,0.25232269527,0.967643145716
1528473740115752555,0,1528473740115289445,odom,base_footprint,-1.02295400036,0.179371202543,0.0,0.0,0.0,0.258313252067,0.966061211211
1528473740137674408,0,1528473740137328207,odom,base_footprint,-1.0245800145,0.178434691816,0.0,0.0,0.0,0.260251739574,0.965540797713
1528473740195420071,0,1528473740195087913,odom,base_footprint,-1.02952047772,0.175562735587,0.0,0.0,0.0,0.26715428244,0.963653770487
1528473740217519018,0,1528473740217141681,odom,base_footprint,-1.0310924987,0.174618543473,0.0,0.0,0.0,0.269003871381,0.963139095449
1528473740277478956,0,1528473740277053262,odom,base_footprint,-1.03590707273,0.171701585168,0.0,0.0,0.0,0.274294913043,0.961645621151
1528473740337334658,0,1528473740336994481,odom,base_footprint,-1.04079796933,0.16866437162,0.0,0.0,0.0,0.280415422868,0.959878737455
1528473740397657870,0,1528473740397278949,odom,base_footprint,-1.04536225886,0.165748752855,0.0,0.0,0.0,0.285688367405,0.958322574465
1528473740457409586,0,1528473740457011996,odom,base_footprint,-1.05017969172,0.162596313124,0.0,0.0,0.0,0.292288250276,0.956330266566
1528473740517505272,0,1528473740517032364,odom,base_footprint,-1.05477640521,0.159496957871,0.0,0.0,0.0,0.298207946716,0.954500927457
1528473740575273437,0,1528473740574956370,odom,base_footprint,-1.05950966601,0.156219492712,0.0,0.0,0.0,0.304947410079,0.952369191588
1528473740596671710,0,1528473740596196161,odom,base_footprint,-1.06107181777,0.155104809273,0.0,0.0,0.0,0.307024429971,0.951701633602
1528473740654266359,0,1528473740653874879,odom,base_footprint,-1.0656398191,0.151815108266,0.0,0.0,0.0,0.313163806484,0.949699126202
1528473740676279564,0,1528473740675930822,odom,base_footprint,-1.06718247829,0.150673600518,0.0,0.0,0.0,0.316063032151,0.948738193448
1528473740734344285,0,1528473740733908447,odom,base_footprint,-1.07182357612,0.147195294862,0.0,0.0,0.0,0.322017851993,0.946733596635
1528473740756244974,0,1528473740755886695,odom,base_footprint,-1.07327704658,0.146077183807,0.0,0.0,0.0,0.324082536309,0.946028810164
1528473740816289963,0,1528473740815949821,odom,base_footprint,-1.07775753191,0.142599257461,0.0,0.0,0.0,0.330761467895,0.943714390775
1528473740876429691,0,1528473740875991127,odom,base_footprint,-1.08225503276,0.139005092509,0.0,0.0,0.0,0.337013098336,0.941499958338
1528473740936251995,0,1528473740935894889,odom,base_footprint,-1.08670446455,0.135351588383,0.0,0.0,0.0,0.344233290465,0.938884147132
1528473740996264674,0,1528473740995854982,odom,base_footprint,-1.09099964228,0.131712877468,0.0,0.0,0.0,0.350125639858,0.936702747041
1528473741056172546,0,1528473741055794197,odom,base_footprint,-1.09537751774,0.127908589657,0.0,0.0,0.0,0.357308605763,0.933986381189
1528473741116154579,0,1528473741115803653,odom,base_footprint,-1.09956942208,0.124151369019,0.0,0.0,0.0,0.363007301834,0.931786294606
1528473741175116961,0,1528473741174776890,odom,base_footprint,-1.1038721453,0.120198968076,0.0,0.0,0.0,0.369341311525,0.92929381554
1528473741233282580,0,1528473741232813646,odom,base_footprint,-1.10802763192,0.116276183307,0.0,0.0,0.0,0.376466814872,0.92643010384
1528473741255387256,0,1528473741254783871,odom,base_footprint,-1.1093416186,0.114997047778,0.0,0.0,0.0,0.378406298442,0.925639602275
1528473741315027935,0,1528473741314636024,odom,base_footprint,-1.11354136665,0.110874287169,0.0,0.0,0.0,0.385342423908,0.922773653903
1528473741373136282,0,1528473741372690556,odom,base_footprint,-1.11758881862,0.106779941289,0.0,0.0,0.0,0.390891780942,0.920436643986
1528473741395059608,0,1528473741394697892,odom,base_footprint,-1.11889182237,0.10542969851,0.0,0.0,0.0,0.392658170968,0.919684489797
1528473741453226014,0,1528473741452772832,odom,base_footprint,-1.12296222518,0.101179185635,0.0,0.0,0.0,0.398508969497,0.917164435219
1528473741475087779,0,1528473741474668650,odom,base_footprint,-1.12421356211,0.0998386989323,0.0,0.0,0.0,0.400109115638,0.916467509289
1528473741535111538,0,1528473741534661804,odom,base_footprint,-1.12806947998,0.0956790573802,0.0,0.0,0.0,0.405301148026,0.914183230763
1528473741593254581,0,1528473741592727036,odom,base_footprint,-1.13202113707,0.0913179285226,0.0,0.0,0.0,0.411673422216,0.91133143995
1528473741614869850,0,1528473741614534795,odom,base_footprint,-1.13323335725,0.0899419666925,0.0,0.0,0.0,0.413501751195,0.91050332331
1528473741674988494,0,1528473741674577158,odom,base_footprint,-1.13699373057,0.0856389559052,0.0,0.0,0.0,0.41937286232,0.907814079176
1528473741734942883,0,1528473741734567701,odom,base_footprint,-1.14072586197,0.081255266718,0.0,0.0,0.0,0.426331939483,0.904566789893
1528473741793966491,0,1528473741793547603,odom,base_footprint,-1.14436308374,0.0768476679261,0.0,0.0,0.0,0.431613491188,0.902058642343
1528473741851940052,0,1528473741851510133,odom,base_footprint,-1.14800203078,0.0723314234923,0.0,0.0,0.0,0.437978932187,0.898985236231
1528473741873829966,0,1528473741873421887,odom,base_footprint,-1.1491848487,0.070820205757,0.0,0.0,0.0,0.439782427776,0.898104345953
1528473741931742294,0,1528473741931349697,odom,base_footprint,-1.15271507469,0.0662723447112,0.0,0.0,0.0,0.444869660735,0.895595324327
1528473741954050004,0,1528473741953577066,odom,base_footprint,-1.15390030936,0.0647091568066,0.0,0.0,0.0,0.447056682715,0.894505630189
1528473742011747933,0,1528473742011364852,odom,base_footprint,-1.15735625467,0.0601045962794,0.0,0.0,0.0,0.446978620671,0.894544639838
1528473742033755449,0,1528473742033408070,odom,base_footprint,-1.15853410985,0.0585358404652,0.0,0.0,0.0,0.446666338461,0.894700610308
1528473742091736501,0,1528473742091300022,odom,base_footprint,-1.16199407208,0.0539342975721,0.0,0.0,0.0,0.447915140373,0.894076074518
1528473742113641625,0,1528473742113289286,odom,base_footprint,-1.16311757096,0.0524313921874,0.0,0.0,0.0,0.448149193589,0.89395877997
1528473742173702185,0,1528473742173310315,odom,base_footprint,-1.16661328726,0.0477500603359,0.0,0.0,0.0,0.448305212004,0.893880549565
1528473742231604942,0,1528473742231236115,odom,base_footprint,-1.1700308565,0.0431700461653,0.0,0.0,0.0,0.449007125805,0.893528175816
1528473742253596847,0,1528473742253264754,odom,base_footprint,-1.17117613026,0.0416301808141,0.0,0.0,0.0,0.449007125805,0.893528175816
1528473742313611125,0,1528473742313231215,odom,base_footprint,-1.17461195156,0.0370105847608,0.0,0.0,0.0,0.449396958266,0.893332174447
1528473742373556789,0,1528473742373168542,odom,base_footprint,-1.17814542281,0.03225102644,0.0,0.0,0.0,0.449942579956,0.893057486807
1528473742432616931,0,1528473742432178132,odom,base_footprint,-1.1814954249,0.0277270619318,0.0,0.0,0.0,0.450332206951,0.892861077314
1528473742490338635,0,1528473742489961172,odom,base_footprint,-1.18506961778,0.0228915243854,0.0,0.0,0.0,0.45064384682,0.892703827326
1528473742513358075,0,1528473742513015859,odom,base_footprint,-1.18618391503,0.0213817840201,0.0,0.0,0.0,0.450877540689,0.892585818452
1528473742572649477,0,1528473742572182482,odom,base_footprint,-1.18962566268,0.0167135110654,0.0,0.0,0.0,0.451189084442,0.892428378124
1528473742630402733,0,1528473742630017813,odom,base_footprint,-1.19306415043,0.0120428364554,0.0,0.0,0.0,0.4517341537,0.892152595906
1528473742652248896,0,1528473742651911902,odom,base_footprint,-1.19419999638,0.0104960037989,0.0,0.0,0.0,0.451656296979,0.89219201375
1528473742712320326,0,1528473742711920862,odom,base_footprint,-1.19763359112,0.00582173097457,0.0,0.0,0.0,0.452123385691,0.891955404777
1528473742772263625,0,1528473742771853186,odom,base_footprint,-1.20111271113,0.00107507291608,0.0,0.0,0.0,0.452590350452,0.891718551269
1528473742832345890,0,1528473742831929322,odom,base_footprint,-1.20451133359,-0.00357195850024,0.0,0.0,0.0,0.453057191132,0.891481453292
1528473742892254088,0,1528473742891872806,odom,base_footprint,-1.20790508783,-0.00822254639701,0.0,0.0,0.0,0.452901591366,0.891560513111
1528473742952221793,0,1528473742951804062,odom,base_footprint,-1.2112250124,-0.0127686293008,0.0,0.0,0.0,0.451656296979,0.89219201375
1528473743012216601,0,1528473743011814000,odom,base_footprint,-1.21463336012,-0.017408532472,0.0,0.0,0.0,0.451111203656,0.892467748401
1528473743071541064,0,1528473743071055437,odom,base_footprint,-1.21792092905,-0.021872574187,0.0,0.0,0.0,0.450332206951,0.892861077314
1528473743129139939,0,1528473743128786582,odom,base_footprint,-1.22131767974,-0.0264680495857,0.0,0.0,0.0,0.449630816679,0.893214491985
1528473743151099649,0,1528473743150773660,odom,base_footprint,-1.22248620505,-0.0280437672714,0.0,0.0,0.0,0.449318998616,0.893371388328
1528473743211089215,0,1528473743210694542,odom,base_footprint,-1.22584252052,-0.032563049886,0.0,0.0,0.0,0.448617207859,0.89372400707
1528473743269579550,0,1528473743268847217,odom,base_footprint,-1.2292314111,-0.0371112518466,0.0,0.0,0.0,0.447837115811,0.894115159083
1528473743291056845,0,1528473743290675228,odom,base_footprint,-1.23032963224,-0.0385798086374,0.0,0.0,0.0,0.447603021665,0.894232371924
1528473743351030113,0,1528473743350652415,odom,base_footprint,-1.23380550735,-0.0432227270669,0.0,0.0,0.0,0.446666338461,0.894700610308
1528473743411292735,0,1528473743410765497,odom,base_footprint,-1.23716295218,-0.0476879279483,0.0,0.0,0.0,0.445963504554,0.895051145246
1528473743471093059,0,1528473743470676696,odom,base_footprint,-1.24057877251,-0.052215939866,0.0,0.0,0.0,0.444947814477,0.895556498716
1528473743530877515,0,1528473743530548605,odom,base_footprint,-1.24405637784,-0.0568041635691,0.0,0.0,0.0,0.44440066716,0.89582813476
1528473743589922122,0,1528473743589524989,odom,base_footprint,-1.24741057844,-0.0612183584273,0.0,0.0,0.0,0.443305875236,0.896370403896
1528473743610852778,0,1528473743610492997,odom,base_footprint,-1.248575378,-0.0627435073687,0.0,0.0,0.0,0.442992955938,0.896525092225
1528473743669866529,0,1528473743669529106,odom,base_footprint,-1.25204706198,-0.0672826394079,0.0,0.0,0.0,0.441897313571,0.897065640998
1528473743727783328,0,1528473743727458311,odom,base_footprint,-1.25547784522,-0.0717456535543,0.0,0.0,0.0,0.441270935972,0.897373924886
1528473743749859212,0,1528473743749534606,odom,base_footprint,-1.25670162959,-0.0733330498987,0.0,0.0,0.0,0.440801011617,0.897604850788
1528473743807900749,0,1528473743807517864,odom,base_footprint,-1.26006508782,-0.0776864264308,0.0,0.0,0.0,0.440017535871,0.897989180406
1528473743829758369,0,1528473743829409928,odom,base_footprint,-1.26126716808,-0.0792366975926,0.0,0.0,0.0,0.439704051713,0.89814272079
1528473743887676014,0,1528473743887333232,odom,base_footprint,-1.26474587637,-0.0837165758383,0.0,0.0,0.0,0.438528009266,0.898717522412
1528473743910007239,0,1528473743909580718,odom,base_footprint,-1.26584811573,-0.0851283934173,0.0,0.0,0.0,0.438292710543,0.898832297976
1528473743969791154,0,1528473743969429167,odom,base_footprint,-1.26952471052,-0.0898325275985,0.0,0.0,0.0,0.437272735822,0.899328946775
1528473744029935623,0,1528473744029506998,odom,base_footprint,-1.27286958087,-0.094092271021,0.0,0.0,0.0,0.435938073773,0.89997666405
1528473744089875404,0,1528473744089395820,odom,base_footprint,-1.27651788201,-0.0987101642134,0.0,0.0,0.0,0.434602452285,0.900622400603
1528473744147574169,0,1528473744147252826,odom,base_footprint,-1.28004718795,-0.103150290333,0.0,0.0,0.0,0.433344522957,0.901228341999
1528473744169786604,0,1528473744169346556,odom,base_footprint,-1.28129876309,-0.10471586851,0.0,0.0,0.0,0.432951246671,0.901417338421
1528473744228675976,0,1528473744228276112,odom,base_footprint,-1.28484431921,-0.109143029253,0.0,0.0,0.0,0.432085748802,0.901832526405
1528473744286601526,0,1528473744286212321,odom,base_footprint,-1.28847853485,-0.113663081906,0.0,0.0,0.0,0.430511096808,0.90258528435
1528473744308761188,0,1528473744308317683,odom,base_footprint,-1.28971308401,-0.115187623152,0.0,0.0,0.0,0.429565675827,0.903035619536
1528473744368574672,0,1528473744368229284,odom,base_footprint,-1.29318413591,-0.119455706693,0.0,0.0,0.0,0.426252999515,0.904603990929
1528473744428720524,0,1528473744428315167,odom,base_footprint,-1.29693072365,-0.123994221764,0.0,0.0,0.0,0.423962330854,0.905679823126
1528473744488653625,0,1528473744488266766,odom,base_footprint,-1.30064560419,-0.128448215687,0.0,0.0,0.0,0.422934597085,0.906160210221
1528473744548773211,0,1528473744548268665,odom,base_footprint,-1.30434319142,-0.13286108146,0.0,0.0,0.0,0.4213524058,0.90689698981
1528473744608508705,0,1528473744608145660,odom,base_footprint,-1.30813867031,-0.137358789626,0.0,0.0,0.0,0.420481653188,0.907301041183
1528473744666554522,0,1528473744666128127,odom,base_footprint,-1.31191521118,-0.141816663486,0.0,0.0,0.0,0.41937286232,0.907814079176
1528473744688687363,0,1528473744688235267,odom,base_footprint,-1.31313160956,-0.143245421443,0.0,0.0,0.0,0.418976713794,0.907996978683
1528473744747469738,0,1528473744747119413,odom,base_footprint,-1.31689523877,-0.147658299697,0.0,0.0,0.0,0.417867073801,0.908508177527
1528473744805516838,0,1528473744805124632,odom,base_footprint,-1.32072514532,-0.15212672834,0.0,0.0,0.0,0.41628079226,0.909236109047
1528473744827393201,0,1528473744827041443,odom,base_footprint,-1.3219791065,-0.153579456346,0.0,0.0,0.0,0.415804660306,0.909453948514
1528473744887499642,0,1528473744887054137,odom,base_footprint,-1.32580135103,-0.157998205832,0.0,0.0,0.0,0.414455001144,0.910069806128
1528473744947360746,0,1528473744947010216,odom,base_footprint,-1.32960869425,-0.162373424332,0.0,0.0,0.0,0.413104429825,0.910683660806
1528473745007557847,0,1528473745007138893,odom,base_footprint,-1.33348518322,-0.166801502014,0.0,0.0,0.0,0.411911994119,0.91122363287
1528473745067582549,0,1528473745067075511,odom,base_footprint,-1.33734507717,-0.17118740204,0.0,0.0,0.0,0.410002629777,0.912084340166
