%time,field.header.seq,field.header.stamp,field.time_stamp,field.left_encoder,field.right_encoder,field.left_pwm,field.right_pwm
1.52847372219395E+018,0,1.52847372219356E+018,44980,0,0,0,0
1.52847372221605E+018,1,1.52847372221575E+018,45000,0,0,0,0
1.52847372227599E+018,2,1.52847372227558E+018,45060,0,0,0,0
1.52847372233384E+018,3,1.52847372233342E+018,45120,0,0,0,0
1.52847372235583E+018,4,1.52847372235542E+018,45140,0,0,0,0
1.52847372241575E+018,5,1.5284737224154E+018,45200,0,0,0,0
1.52847372247585E+018,6,1.52847372247543E+018,45260,0,0,0,0
1.52847372253569E+018,7,1.52847372253528E+018,45320,0,0,0,0
1.52847372259575E+018,8,1.52847372259534E+018,45380,0,0,0,0
1.52847372265468E+018,9,1.52847372265427E+018,45440,0,0,0,0
1.52847372271267E+018,10,1.52847372271224E+018,45500,0,0,0,0
1.52847372273465E+018,11,1.5284737227343E+018,45520,0,0,0,0
1.52847372279478E+018,12,1.52847372279434E+018,45580,0,0,0,0
1.52847372285258E+018,13,1.52847372285214E+018,45640,0,0,0,0
1.52847372287512E+018,14,1.52847372287454E+018,45660,0,0,0,0
1.52847372293459E+018,15,1.52847372293419E+018,45720,0,0,0,0
1.52847372299454E+018,16,1.52847372299411E+018,45780,0,0,0,0
1.5284737230547E+018,17,1.52847372305421E+018,45840,0,0,0,0
1.52847372311445E+018,18,1.52847372311406E+018,45900,0,0,0,0
1.5284737231739E+018,19,1.52847372317314E+018,45960,0,0,0,0
1.52847372319443E+018,20,1.52847372319401E+018,45980,0,0,0,0
1.52847372325348E+018,21,1.52847372325307E+018,46040,0,0,0,0
1.52847372331331E+018,22,1.52847372331292E+018,46100,0,0,0,0
1.52847372337128E+018,23,1.52847372337087E+018,46160,0,0,0,0
1.52847372339325E+018,24,1.5284737233929E+018,46180,0,0,0,0
1.52847372345132E+018,25,1.52847372345089E+018,46240,0,0,0,0
1.52847372347431E+018,26,1.5284737234735E+018,46260,0,0,0,0
1.52847372353317E+018,27,1.52847372353279E+018,46320,0,0,0,0
1.52847372359124E+018,28,1.52847372359076E+018,46380,0,0,0,0
1.52847372361324E+018,29,1.52847372361286E+018,46400,0,0,0,0
1.52847372367243E+018,30,1.52847372367201E+018,46460,0,0,0,0
1.52847372369335E+018,31,1.52847372369294E+018,46480,0,0,0,0
1.52847372375318E+018,32,1.52847372375281E+018,46540,0,0,0,0
1.5284737238122E+018,33,1.52847372381186E+018,46600,0,0,0,0
1.52847372387001E+018,34,1.52847372386962E+018,46660,0,0,0,0
1.52847372389212E+018,35,1.52847372389178E+018,46680,0,0,0,0
1.52847372395205E+018,36,1.52847372395167E+018,46740,0,0,0,0
1.52847372401212E+018,37,1.52847372401168E+018,46800,0,0,0,0
1.52847372407205E+018,38,1.52847372407167E+018,46860,0,0,0,0
1.52847372413201E+018,39,1.52847372413156E+018,46920,0,0,0,0
1.52847372419105E+018,40,1.52847372419064E+018,46980,0,0,0,0
1.52847372421189E+018,41,1.52847372421153E+018,47000,0,0,0,0
1.52847372427121E+018,42,1.52847372427059E+018,47060,0,0,0,0
1.52847372432883E+018,43,1.52847372432839E+018,47120,0,0,0,0
1.52847372435185E+018,44,1.52847372435142E+018,47140,0,0,0,0
1.52847372441096E+018,45,1.52847372441056E+018,47200,0,0,0,0
1.52847372447123E+018,46,1.52847372447053E+018,47260,0,0,0,0
1.52847372452897E+018,47,1.5284737245285E+018,47320,0,0,0,0
1.52847372455099E+018,48,1.52847372455057E+018,47340,0,0,0,0
1.52847372460883E+018,49,1.52847372460841E+018,47400,0,0,0,0
1.52847372463063E+018,50,1.52847372463029E+018,47420,0,0,0,0
1.52847372469071E+018,51,1.52847372469035E+018,47480,0,0,0,0
1.52847372475072E+018,52,1.52847372475042E+018,47540,0,0,0,0
1.52847372480975E+018,53,1.52847372480933E+018,47600,0,0,0,0
1.52847372486759E+018,54,1.52847372486724E+018,47660,0,0,0,0
1.52847372489091E+018,55,1.52847372489038E+018,47680,0,0,0,0
1.52847372490676E+018,56,1.5284737249063E+018,47700,0,0,0,0
1.52847372492966E+018,57,1.52847372492927E+018,47720,0,0,0,0
1.52847372498849E+018,58,1.52847372498771E+018,47780,0,0,0,0
1.52847372500961E+018,59,1.52847372500926E+018,47800,0,0,0,0
1.52847372506962E+018,60,1.52847372506931E+018,47860,0,0,0,0
1.52847372512745E+018,61,1.52847372512711E+018,47920,0,0,0,0
1.52847372514976E+018,62,1.52847372514932E+018,47940,0,0,0,0
1.52847372520959E+018,63,1.52847372520922E+018,48000,0,0,0,0
1.52847372526971E+018,64,1.5284737252693E+018,48060,0,0,0,0
1.52847372532842E+018,65,1.52847372532805E+018,48120,0,0,0,0
1.52847372534934E+018,66,1.52847372534899E+018,48140,0,0,0,0
1.52847372540954E+018,67,1.52847372540917E+018,48200,0,0,0,0
1.52847372546839E+018,68,1.52847372546804E+018,48260,0,0,0,0
1.52847372552645E+018,69,1.52847372552603E+018,48320,0,0,0,0
1.52847372554838E+018,70,1.528473725548E+018,48340,0,0,0,0
1.52847372560851E+018,71,1.52847372560806E+018,48400,0,0,0,0
1.52847372566831E+018,72,1.52847372566795E+018,48460,0,0,0,0
1.52847372572838E+018,73,1.52847372572801E+018,48520,0,0,0,0
1.52847372578846E+018,74,1.52847372578797E+018,48580,0,0,0,0
1.5284737258473E+018,75,1.52847372584689E+018,48640,0,0,0,0
1.52847372586825E+018,76,1.52847372586789E+018,48660,0,0,0,0
1.52847372592812E+018,77,1.52847372592789E+018,48720,0,0,0,0
1.52847372598799E+018,78,1.52847372598727E+018,48780,0,0,0,0
1.52847372604517E+018,79,1.5284737260448E+018,48840,0,0,0,0
1.52847372606746E+018,80,1.52847372606693E+018,48860,0,0,0,0
1.52847372612718E+018,81,1.52847372612682E+018,48920,0,0,0,0
1.52847372618519E+018,82,1.52847372618472E+018,48980,0,0,0,0
1.52847372620714E+018,83,1.52847372620671E+018,49000,0,0,0,0
1.5284737262652E+018,84,1.52847372626473E+018,49060,0,0,0,0
1.52847372628777E+018,85,1.52847372628708E+018,49080,0,0,0,0
1.52847372634603E+018,86,1.52847372634569E+018,49140,0,0,0,0
1.52847372640398E+018,87,1.52847372640359E+018,49200,0,0,0,0
1.52847372642702E+018,88,1.52847372642668E+018,49220,0,0,0,0
1.5284737264861E+018,89,1.52847372648576E+018,49280,0,0,0,0
1.528473726544E+018,90,1.52847372654364E+018,49340,0,0,0,0
1.528473726566E+018,91,1.52847372656563E+018,49360,0,0,0,0
1.52847372662606E+018,92,1.52847372662564E+018,49420,0,0,0,0
1.52847372668396E+018,93,1.52847372668351E+018,49480,0,0,0,0
1.528473726706E+018,94,1.52847372670557E+018,49500,0,0,0,0
1.52847372676599E+018,95,1.52847372676558E+018,49560,0,0,0,0
1.52847372682583E+018,96,1.5284737268254E+018,49620,0,0,-19,-19
1.52847372688595E+018,97,1.5284737268855E+018,49680,0,0,-19,-19
1.52847372694574E+018,98,1.5284737269454E+018,49740,65520,65521,-11,-11
1.5284737270049E+018,99,1.52847372700453E+018,49800,65504,65506,-11,-11
1.52847372706254E+018,100,1.52847372706226E+018,49860,65485,65489,-9,-10
1.52847372708481E+018,101,1.52847372708436E+018,49880,65479,65483,-9,-9
1.52847372714477E+018,102,1.52847372714432E+018,49940,65458,65462,-9,-9
1.52847372720263E+018,103,1.52847372720224E+018,50000,65435,65441,-8,-9
1.52847372722492E+018,104,1.52847372722448E+018,50020,65431,65435,-10,-10
1.52847372728478E+018,105,1.52847372728438E+018,50080,65413,65417,-10,-10
1.52847372734499E+018,106,1.52847372734447E+018,50140,65394,65399,-10,-10
1.52847372740455E+018,107,1.52847372740419E+018,50200,65373,65379,-9,-9
1.52847372746456E+018,108,1.5284737274642E+018,50260,65353,65358,-9,-9
1.52847372752457E+018,109,1.52847372752416E+018,50320,65331,65337,-9,-9
1.52847372758443E+018,110,1.52847372758407E+018,50380,65312,65319,-10,-11
1.52847372764343E+018,111,1.52847372764306E+018,50440,65294,65301,-11,-11
1.52847372770156E+018,112,1.52847372770118E+018,50500,65275,65282,-10,-10
1.52847372772366E+018,113,1.52847372772322E+018,50520,65268,65275,-10,-10
1.52847372778365E+018,114,1.52847372778323E+018,50580,65216,65228,-13,-16
1.52847372784136E+018,115,1.52847372784099E+018,50640,65170,65181,-16,-16
1.52847372786349E+018,116,1.52847372786312E+018,50660,65153,65167,-16,-17
1.5284737279235E+018,117,1.52847372792306E+018,50720,65101,65113,-14,-13
1.52847372798439E+018,118,1.5284737279832E+018,50780,65050,65064,-14,-15
1.52847372804331E+018,119,1.52847372804293E+018,50840,64994,65009,-12,-12
1.52847372810238E+018,120,1.52847372810198E+018,50900,64949,64963,-17,-17
1.52847372816025E+018,121,1.52847372815996E+018,50960,64894,64911,-13,-14
1.52847372818356E+018,122,1.52847372818299E+018,50980,64881,64896,-15,-15
1.52847372824215E+018,123,1.52847372824187E+018,51040,64830,64847,-15,-16
1.5284737283015E+018,124,1.52847372830026E+018,51100,64779,64796,-15,-15
1.52847372832236E+018,125,1.52847372832197E+018,51120,64763,64779,-15,-15
1.52847372838227E+018,126,1.52847372838193E+018,51180,64709,64727,-14,-15
1.52847372844022E+018,127,1.52847372843977E+018,51240,64660,64676,-16,-15
1.52847372846239E+018,128,1.52847372846196E+018,51260,64643,64659,-17,-16
1.52847372852212E+018,129,1.52847372852168E+018,51320,64589,64608,-14,-15
1.52847372858023E+018,130,1.52847372857978E+018,51380,64539,64557,-16,-15
1.52847372860214E+018,131,1.52847372860174E+018,51400,64522,64540,-16,-16
1.52847372866203E+018,132,1.52847372866165E+018,51460,64468,64489,-14,-16
1.52847372872206E+018,133,1.52847372872171E+018,51520,64418,64438,-16,-16
1.5284737287811E+018,134,1.52847372878069E+018,51580,64364,64386,-14,-15
1.52847372883911E+018,135,1.52847372883866E+018,51640,64314,64334,-16,-15
1.52847372886105E+018,136,1.52847372886067E+018,51660,64296,64317,-16,-15
1.52847372891886E+018,137,1.52847372891851E+018,51720,64243,64267,-15,-17
1.52847372894093E+018,138,1.52847372894054E+018,51740,64227,64249,-16,-16
1.52847372899888E+018,139,1.52847372899851E+018,51800,64174,64198,-15,-16
1.528473729021E+018,140,1.52847372902056E+018,51820,64156,64181,-15,-17
1.52847372907918E+018,141,1.52847372907865E+018,51880,64106,64127,-17,-15
1.52847372910078E+018,142,1.52847372910044E+018,51900,64088,64110,-16,-15
1.52847372916094E+018,143,1.52847372916043E+018,51960,64035,64059,-15,-17
1.52847372921869E+018,144,1.52847372921845E+018,52020,63996,63993,-6,-23
1.5284737292408E+018,145,1.52847372924044E+018,52040,63986,63971,-10,-21
1.52847372929975E+018,146,1.52847372929938E+018,52100,63943,63908,-4,-25
1.52847372932097E+018,147,1.52847372932055E+018,52120,63931,63885,-6,-23
1.52847372938008E+018,148,1.52847372937953E+018,52180,63891,63820,-6,-24
1.52847372943799E+018,149,1.52847372943764E+018,52240,63852,63754,-6,-24
1.52847372945973E+018,150,1.52847372945934E+018,52260,63840,63733,-6,-24
1.52847372951785E+018,151,1.52847372951732E+018,52320,63805,63665,-8,-23
1.52847372953946E+018,152,1.52847372953923E+018,52340,63796,63644,-10,-24
1.52847372959767E+018,153,1.52847372959726E+018,52400,63756,63574,-6,-22
1.52847372961967E+018,154,1.52847372961922E+018,52420,63744,63551,-5,-22
1.52847372967981E+018,155,1.52847372967933E+018,52480,63708,63488,-8,-26
1.52847372973958E+018,156,1.52847372973919E+018,52540,63672,63417,-8,-22
1.52847372979965E+018,157,1.52847372979923E+018,52600,63632,63350,-6,-24
1.52847372985732E+018,158,1.52847372985703E+018,52660,63595,63285,-7,-26
1.52847372987966E+018,159,1.52847372987912E+018,52680,63584,63261,-8,-25
1.52847372993956E+018,160,1.52847372993915E+018,52740,63546,63191,-7,-23
1.52847372999958E+018,161,1.52847372999911E+018,52800,63509,63123,-8,-25
1.52847373005858E+018,162,1.52847373005814E+018,52860,63473,63054,-8,-24
1.52847373007945E+018,163,1.52847373007899E+018,52880,63461,63030,-8,-24
1.52847373013826E+018,164,1.5284737301379E+018,52940,63421,62961,-6,-24
1.52847373019624E+018,165,1.52847373019591E+018,53000,63387,62893,-9,-25
1.52847373021829E+018,166,1.52847373021794E+018,53020,63376,62870,-10,-25
1.52847373027631E+018,167,1.52847373027586E+018,53080,63337,62799,-7,-24
1.5284737302983E+018,168,1.52847373029794E+018,53100,63324,62775,-7,-23
1.52847373035622E+018,169,1.52847373035588E+018,53160,63286,62708,-7,-26
1.52847373037815E+018,170,1.5284737303778E+018,53180,63275,62683,-9,-24
1.52847373043823E+018,171,1.52847373043785E+018,53240,63236,62612,-7,-24
1.52847373049822E+018,172,1.52847373049781E+018,53300,63197,62543,-7,-25
1.52847373055829E+018,173,1.52847373055796E+018,53360,63162,62471,-9,-24
1.5284737306161E+018,174,1.52847373061577E+018,53420,63124,62400,-7,-25
1.52847373063811E+018,175,1.52847373063774E+018,53440,63111,62376,-7,-24
1.52847373069728E+018,176,1.52847373069678E+018,53500,63073,62306,-7,-25
1.52847373075496E+018,177,1.52847373075462E+018,53560,63040,62233,-10,-24
1.52847373077828E+018,178,1.52847373077785E+018,53580,63029,62207,-10,-24
1.52847373083712E+018,179,1.52847373083673E+018,53640,62992,62134,-8,-24
1.528473730895E+018,180,1.52847373089475E+018,53700,62955,62061,-8,-24
1.52847373091713E+018,181,1.52847373091673E+018,53720,62944,62036,-9,-24
1.52847373097707E+018,182,1.5284737309767E+018,53780,62906,61962,-7,-24
1.52847373103732E+018,183,1.52847373103688E+018,53840,62866,61891,-6,-26
1.52847373109701E+018,184,1.52847373109663E+018,53900,62833,61817,-10,-24
1.52847373115723E+018,185,1.52847373115679E+018,53960,62796,61741,-8,-23
1.52847373121693E+018,186,1.52847373121655E+018,54020,62758,61668,-7,-25
1.5284737312779E+018,187,1.52847373127735E+018,54080,62725,61592,-10,-24
1.52847373133584E+018,188,1.52847373133545E+018,54140,62685,61517,-7,-24
1.52847373135675E+018,189,1.52847373135636E+018,54160,62672,61492,-7,-24
1.52847373141603E+018,190,1.52847373141559E+018,54220,62636,61420,-9,-26
1.52847373147415E+018,191,1.52847373147367E+018,54280,62604,61344,-11,-24
1.52847373149571E+018,192,1.52847373149533E+018,54300,62591,61316,-9,-23
1.52847373155369E+018,193,1.52847373155329E+018,54360,62552,61241,-7,-25
1.52847373157583E+018,194,1.52847373157539E+018,54380,62539,61217,-7,-25
1.52847373163361E+018,195,1.52847373163321E+018,54440,62506,61142,-10,-25
1.52847373165588E+018,196,1.52847373165544E+018,54460,62494,61117,-10,-24
1.52847373171574E+018,197,1.52847373171532E+018,54520,62456,61040,-8,-24
1.52847373177622E+018,198,1.52847373177535E+018,54580,62420,60964,-9,-25
1.52847373183556E+018,199,1.5284737318352E+018,54640,62387,60887,-10,-24
1.52847373189363E+018,200,1.52847373189322E+018,54700,62346,60805,-6,-22
1.52847373191558E+018,201,1.52847373191518E+018,54720,62332,60781,-6,-24
1.52847373197453E+018,202,1.52847373197417E+018,54780,62296,60706,-9,-26
1.5284737319954E+018,203,1.52847373199507E+018,54800,62283,60680,-9,-26
1.52847373205462E+018,204,1.5284737320542E+018,54860,62242,60601,-6,-24
1.52847373211237E+018,205,1.52847373211207E+018,54920,62205,60525,-8,-25
1.52847373213441E+018,206,1.52847373213419E+018,54940,62194,60501,-10,-25
1.52847373219257E+018,207,1.52847373219203E+018,55000,62156,60420,-8,-23
1.52847373221443E+018,208,1.5284737322141E+018,55020,62141,60395,-7,-24
1.52847373227256E+018,209,1.52847373227212E+018,55080,62103,60319,-8,-26
1.52847373229427E+018,210,1.52847373229404E+018,55100,62090,60296,-8,-26
1.52847373235423E+018,211,1.528473732354E+018,55160,62030,60234,-13,-19
1.52847373241439E+018,212,1.52847373241399E+018,55220,61975,60175,-16,-20
1.52847373247435E+018,213,1.52847373247393E+018,55280,61918,60113,-15,-19
1.52847373253227E+018,214,1.52847373253191E+018,55340,61855,60053,-12,-20
1.52847373255414E+018,215,1.52847373255378E+018,55360,61836,60031,-12,-19
1.5284737326132E+018,216,1.52847373261289E+018,55420,61777,59968,-14,-18
1.52847373267115E+018,217,1.52847373267076E+018,55480,61718,59904,-14,-18
1.52847373269317E+018,218,1.52847373269283E+018,55500,61697,59881,-14,-16
1.52847373275339E+018,219,1.52847373275297E+018,55560,61637,59819,-14,-19
1.52847373281111E+018,220,1.52847373281076E+018,55620,61574,59754,-12,-18
1.52847373283305E+018,221,1.52847373283271E+018,55640,61554,59735,-12,-19
1.52847373289315E+018,222,1.52847373289276E+018,55700,61495,59670,-14,-18
1.5284737329143E+018,223,1.52847373291381E+018,55720,61473,59649,-12,-18
1.52847373295303E+018,224,1.52847373295269E+018,55760,61421,59620,-21,-9
1.52847373301333E+018,225,1.52847373301289E+018,55820,61353,59565,-24,-6
1.52847373307318E+018,226,1.52847373307275E+018,55880,61283,59515,-23,-9
1.52847373313213E+018,227,1.52847373313165E+018,55940,61213,59460,-23,-6
1.52847373315293E+018,228,1.52847373315258E+018,55960,61191,59443,-23,-8
1.52847373321193E+018,229,1.52847373321163E+018,56020,61121,59393,-24,-9
1.52847373327004E+018,230,1.52847373326957E+018,56080,61050,59341,-23,-8
1.52847373329199E+018,231,1.52847373329159E+018,56100,61025,59325,-23,-8
1.52847373334984E+018,232,1.52847373334951E+018,56160,60956,59270,-24,-6
1.52847373337202E+018,233,1.52847373337172E+018,56180,60933,59252,-24,-6
1.52847373342974E+018,234,1.52847373342945E+018,56240,60863,59199,-24,-7
1.52847373345179E+018,235,1.52847373345149E+018,56260,60840,59182,-25,-8
1.52847373351187E+018,236,1.52847373351147E+018,56320,60770,59130,-24,-7
1.52847373357175E+018,237,1.52847373357141E+018,56380,60701,59078,-25,-7
1.52847373363187E+018,238,1.52847373363148E+018,56440,60631,59026,-25,-7
1.52847373369166E+018,239,1.5284737336913E+018,56500,60563,58974,-26,-7
1.52847373375087E+018,240,1.52847373375048E+018,56560,60494,58921,-25,-7
1.52847373380866E+018,241,1.52847373380823E+018,56620,60419,58870,-23,-7
1.52847373383171E+018,242,1.52847373383133E+018,56640,60396,58854,-23,-7
1.52847373389065E+018,243,1.52847373389018E+018,56700,60325,58806,-25,-9
1.52847373394864E+018,244,1.52847373394819E+018,56760,60255,58749,-25,-4
1.5284737339708E+018,245,1.52847373397039E+018,56780,60232,58732,-25,-5
1.52847373403056E+018,246,1.5284737340302E+018,56840,60159,58681,-24,-7
1.52847373408833E+018,247,1.528473734088E+018,56900,60088,58633,-25,-9
1.52847373411059E+018,248,1.52847373411017E+018,56920,60064,58616,-25,-8
1.52847373417044E+018,249,1.52847373417019E+018,56980,59990,58565,-24,-7
1.52847373419182E+018,250,1.52847373419134E+018,57000,59967,58548,-25,-7
1.52847373423074E+018,251,1.52847373423024E+018,57040,59919,58515,-26,-8
1.52847373429027E+018,252,1.52847373428994E+018,57100,59845,58463,-24,-6
1.52847373435059E+018,253,1.52847373435018E+018,57160,59770,58413,-24,-7
1.52847373440938E+018,254,1.52847373440896E+018,57220,59695,58363,-24,-7
1.52847373443036E+018,255,1.52847373442996E+018,57240,59669,58347,-23,-7
1.52847373448939E+018,256,1.52847373448899E+018,57300,59594,58294,-24,-6
1.5284737345473E+018,257,1.52847373454692E+018,57360,59519,58242,-24,-6
1.52847373456928E+018,258,1.52847373456887E+018,57380,59493,58225,-24,-6
1.52847373462718E+018,259,1.52847373462682E+018,57440,59414,58173,-23,-6
1.52847373465226E+018,260,1.52847373465189E+018,57460,59389,58156,-23,-6
1.5284737347073E+018,261,1.52847373470688E+018,57520,59311,58104,-23,-6
1.52847373472933E+018,262,1.52847373472906E+018,57540,59285,58086,-23,-6
1.52847373478913E+018,263,1.52847373478886E+018,57600,59208,58034,-24,-6
1.52847373485234E+018,264,1.52847373485196E+018,57660,59130,57982,-23,-6
1.52847373490912E+018,265,1.52847373490873E+018,57720,59053,57930,-24,-6
1.52847373496982E+018,266,1.52847373496909E+018,57780,58975,57878,-24,-6
1.52847373502811E+018,267,1.52847373502778E+018,57840,58898,57824,-24,-5
1.52847373508625E+018,268,1.52847373508592E+018,57900,58819,57774,-23,-7
1.52847373510937E+018,269,1.52847373510895E+018,57920,58793,57758,-23,-7
1.52847373516815E+018,270,1.52847373516766E+018,57980,58715,57705,-24,-5
1.52847373522592E+018,271,1.52847373522554E+018,58040,58637,57653,-24,-5
1.52847373524795E+018,272,1.52847373524756E+018,58060,58611,57636,-25,-6
1.52847373530785E+018,273,1.5284737353076E+018,58120,58533,57584,-24,-5
1.52847373536784E+018,274,1.52847373536745E+018,58180,58452,57534,-23,-6
1.52847373542792E+018,275,1.52847373542745E+018,58240,58372,57481,-23,-5
1.52847373548784E+018,276,1.52847373548746E+018,58300,58293,57429,-24,-5
1.52847373554787E+018,277,1.52847373554744E+018,58360,58214,57376,-24,-5
1.52847373560774E+018,278,1.52847373560743E+018,58420,58134,57326,-24,-6
1.52847373566663E+018,279,1.52847373566634E+018,58480,58054,57275,-24,-5
1.52847373572464E+018,280,1.52847373572434E+018,58540,57974,57223,-24,-5
1.52847373574761E+018,281,1.52847373574736E+018,58560,57946,57208,-23,-6
1.52847373580663E+018,282,1.52847373580637E+018,58620,57868,57156,-25,-5
1.52847373586468E+018,283,1.52847373586436E+018,58680,57786,57106,-23,-6
1.52847373588667E+018,284,1.52847373588632E+018,58700,57759,57090,-24,-6
1.52847373594688E+018,285,1.5284737359465E+018,58760,57680,57039,-25,-5
1.52847373600657E+018,286,1.52847373600621E+018,58820,57599,56990,-24,-6
1.52847373606681E+018,287,1.52847373606647E+018,58880,57521,56938,-25,-5
1.52847373612655E+018,288,1.52847373612622E+018,58940,57441,56886,-25,-5
1.52847373618665E+018,289,1.52847373618625E+018,59000,57362,56838,-25,-6
1.52847373624643E+018,290,1.52847373624613E+018,59060,57281,56788,-24,-5
1.52847373630586E+018,291,1.52847373630551E+018,59120,57200,56740,-24,-6
1.52847373636353E+018,292,1.52847373636319E+018,59180,57119,56689,-24,-5
1.52847373638652E+018,293,1.52847373638623E+018,59200,57092,56675,-24,-5
1.52847373644545E+018,294,1.52847373644516E+018,59260,57011,56626,-25,-6
1.52847373650331E+018,295,1.52847373650301E+018,59320,56930,56577,-25,-6
1.52847373652539E+018,296,1.52847373652498E+018,59340,56903,56561,-25,-5
1.52847373658541E+018,297,1.528473736585E+018,59400,56821,56514,-24,-7
1.52847373664541E+018,298,1.52847373664503E+018,59460,56739,56466,-24,-6
1.52847373670532E+018,299,1.52847373670495E+018,59520,56659,56418,-25,-6
1.5284737367656E+018,300,1.52847373676486E+018,59580,56578,56367,-25,-4
1.52847373682531E+018,301,1.52847373682489E+018,59640,56496,56320,-25,-6
1.52847373688523E+018,302,1.52847373688485E+018,59700,56414,56273,-25,-6
1.52847373694435E+018,303,1.52847373694393E+018,59760,56333,56225,-25,-6
1.52847373700211E+018,304,1.52847373700175E+018,59820,56252,56173,-25,-4
1.5284737370242E+018,305,1.52847373702379E+018,59840,56224,56159,-25,-5
1.52847373708201E+018,306,1.52847373708165E+018,59900,56144,56108,-26,-4
1.52847373710412E+018,307,1.52847373710383E+018,59920,56115,56093,-24,-5
1.52847373716205E+018,308,1.52847373716168E+018,59980,56037,56045,-27,-6
1.52847373718414E+018,309,1.52847373718375E+018,60000,56008,56030,-26,-6
1.52847373724196E+018,310,1.52847373724171E+018,60060,55929,55979,-27,-4
1.52847373726394E+018,311,1.52847373726358E+018,60080,55901,55964,-26,-5
1.52847373732389E+018,312,1.52847373732357E+018,60140,55818,55915,-25,-5
1.52847373738183E+018,313,1.52847373738151E+018,60200,55738,55867,-26,-5
1.52847373740415E+018,314,1.52847373740372E+018,60220,55710,55852,-26,-5
1.52847373746292E+018,315,1.52847373746256E+018,60280,55628,55804,-26,-5
1.52847373748385E+018,316,1.52847373748349E+018,60300,55601,55790,-26,-6
1.52847373754418E+018,317,1.52847373754378E+018,60360,55519,55740,-26,-4
1.52847373760281E+018,318,1.52847373760245E+018,60420,55436,55696,-25,-7
1.52847373766106E+018,319,1.52847373766064E+018,60480,55353,55646,-25,-4
1.52847373768293E+018,320,1.52847373768264E+018,60500,55326,55630,-26,-5
1.52847373774283E+018,321,1.52847373774253E+018,60560,55243,55584,-25,-6
1.52847373780089E+018,322,1.52847373780048E+018,60620,55160,55535,-26,-5
1.52847373782265E+018,323,1.52847373782233E+018,60640,55133,55520,-26,-6
1.52847373788072E+018,324,1.52847373788031E+018,60700,55049,55474,-25,-6
1.5284737379029E+018,325,1.52847373790247E+018,60720,55021,55457,-24,-6
1.52847373796272E+018,326,1.52847373796241E+018,60780,54937,55413,-25,-7
1.52847373802082E+018,327,1.52847373802035E+018,60840,54853,55367,-25,-6
1.52847373804272E+018,328,1.5284737380423E+018,60860,54824,55353,-25,-7
1.52847373810166E+018,329,1.52847373810122E+018,60920,54740,55305,-25,-5
1.52847373812265E+018,330,1.52847373812222E+018,60940,54710,55289,-24,-5
1.52847373818267E+018,331,1.52847373818226E+018,61000,54627,55243,-26,-6
1.52847373824142E+018,332,1.5284737382411E+018,61060,54543,55195,-26,-5
1.52847373829938E+018,333,1.52847373829904E+018,61120,54457,55153,-25,-8
1.52847373832143E+018,334,1.52847373832112E+018,61140,54429,55137,-25,-6
1.52847373838144E+018,335,1.52847373838107E+018,61200,54344,55089,-25,-5
1.52847373844145E+018,336,1.52847373844108E+018,61260,54258,55045,-25,-7
1.52847373850162E+018,337,1.52847373850121E+018,61320,54172,55001,-25,-7
1.5284737385614E+018,338,1.52847373856096E+018,61380,54088,54956,-26,-6
1.52847373862131E+018,339,1.52847373862102E+018,61440,54003,54910,-25,-6
1.52847373868132E+018,340,1.52847373868095E+018,61500,53916,54865,-25,-6
1.52847373874034E+018,341,1.52847373873992E+018,61560,53829,54823,-25,-8
1.5284737387983E+018,342,1.52847373879793E+018,61620,53743,54776,-25,-5
1.52847373882023E+018,343,1.52847373881992E+018,61640,53715,54760,-25,-6
1.52847373887809E+018,344,1.52847373887777E+018,61700,53627,54717,-24,-7
1.52847373890035E+018,345,1.52847373889988E+018,61720,53600,54701,-25,-7
1.52847373895813E+018,346,1.52847373895777E+018,61780,53512,54656,-24,-6
1.52847373898015E+018,347,1.5284737389798E+018,61800,53485,54640,-25,-6
1.52847373903818E+018,348,1.52847373903786E+018,61860,53400,54594,-26,-6
1.52847373906014E+018,349,1.52847373905979E+018,61880,53372,54578,-26,-5
1.52847373912039E+018,350,1.52847373912004E+018,61940,53285,54535,-25,-7
1.52847373918011E+018,351,1.52847373917978E+018,62000,53198,54491,-25,-6
1.52847373923904E+018,352,1.52847373923873E+018,62060,53111,54444,-25,-5
1.52847373929707E+018,353,1.52847373929673E+018,62120,53026,54399,-26,-6
1.52847373932018E+018,354,1.52847373931977E+018,62140,52996,54385,-25,-6
1.52847373937948E+018,355,1.52847373937895E+018,62200,52909,54340,-25,-6
1.52847373943703E+018,356,1.52847373943669E+018,62260,52822,54296,-25,-6
1.52847373945893E+018,357,1.52847373945862E+018,62280,52792,54282,-25,-6
1.52847373951897E+018,358,1.52847373951858E+018,62340,52706,54238,-26,-6
1.52847373957698E+018,359,1.52847373957656E+018,62400,52620,54191,-26,-5
1.52847373959899E+018,360,1.52847373959862E+018,62420,52590,54176,-26,-5
1.52847373965888E+018,361,1.52847373965861E+018,62480,52506,54132,-27,-6
1.52847373971891E+018,362,1.52847373971847E+018,62540,52419,54089,-26,-7
1.52847373977897E+018,363,1.52847373977847E+018,62600,52333,54044,-26,-6
1.52847373983884E+018,364,1.52847373983845E+018,62660,52247,53999,-26,-6
1.52847373989788E+018,365,1.52847373989744E+018,62720,52159,53953,-25,-5
1.52847373991877E+018,366,1.52847373991832E+018,62740,52130,53939,-25,-5
1.52847373997774E+018,367,1.52847373997737E+018,62800,52044,53896,-26,-7
1.52847374003565E+018,368,1.52847374003529E+018,62860,51957,53851,-26,-6
1.52847374005772E+018,369,1.52847374005737E+018,62880,51928,53836,-25,-5
1.5284737401158E+018,370,1.52847374011537E+018,62940,51842,53791,-26,-6
1.52847374013778E+018,371,1.5284737401374E+018,62960,51812,53777,-25,-6
1.52847374019547E+018,372,1.52847374019516E+018,63020,51726,53729,-26,-4
1.52847374021763E+018,373,1.52847374021721E+018,63040,51696,53716,-26,-5
1.52847374027751E+018,374,1.52847374027712E+018,63100,51610,53670,-27,-5
1.52847374033738E+018,375,1.52847374033713E+018,63160,51524,53621,-27,-4
1.52847374039774E+018,376,1.52847374039736E+018,63220,51441,53577,-28,-6
1.52847374045744E+018,377,1.52847374045707E+018,63280,51352,53531,-25,-5
1.52847374051751E+018,378,1.52847374051709E+018,63340,51264,53489,-26,-7
1.52847374057542E+018,379,1.52847374057508E+018,63400,51174,53444,-25,-5
1.52847374059671E+018,380,1.52847374059628E+018,63420,51146,53427,-25,-5
1.5284737406543E+018,381,1.52847374065394E+018,63480,51058,53383,-26,-6
1.52847374067631E+018,382,1.52847374067598E+018,63500,51029,53367,-25,-6
1.52847374073437E+018,383,1.52847374073398E+018,63560,50939,53321,-25,-5
1.52847374075629E+018,384,1.52847374075594E+018,63580,50912,53305,-26,-4
1.52847374081632E+018,385,1.52847374081606E+018,63640,50823,53261,-26,-6
1.52847374087649E+018,386,1.52847374087607E+018,63700,50734,53215,-26,-5
1.52847374093633E+018,387,1.52847374093596E+018,63760,50645,53169,-26,-5
1.5284737409963E+018,388,1.52847374099593E+018,63820,50557,53125,-26,-6
1.52847374105623E+018,389,1.52847374105585E+018,63880,50468,53078,-26,-4
1.52847374111619E+018,390,1.52847374111586E+018,63940,50379,53035,-26,-6
1.52847374117527E+018,391,1.52847374117492E+018,64000,50289,52988,-25,-4
1.52847374123331E+018,392,1.5284737412329E+018,64060,50199,52944,-25,-6
1.52847374125574E+018,393,1.52847374125493E+018,64080,50170,52930,-26,-6
1.52847374131507E+018,394,1.5284737413147E+018,64140,50080,52882,-25,-4
1.5284737413732E+018,395,1.52847374137286E+018,64200,49991,52836,-26,-4
1.5284737413951E+018,396,1.52847374139482E+018,64220,49963,52820,-26,-4
1.52847374145326E+018,397,1.52847374145286E+018,64280,49874,52771,-26,-3
1.52847374147513E+018,398,1.52847374147473E+018,64300,49846,52756,-26,-4
1.52847374153514E+018,399,1.52847374153473E+018,64360,49757,52712,-26,-5
1.52847374159328E+018,400,1.52847374159287E+018,64420,49666,52665,-25,-4
1.52847374161491E+018,401,1.52847374161466E+018,64440,49638,52650,-26,-5
1.52847374167504E+018,402,1.52847374167466E+018,64500,49547,52607,-25,-6
1.52847374173498E+018,403,1.52847374173471E+018,64560,49459,52560,-27,-4
1.52847374179401E+018,404,1.52847374179369E+018,64620,49371,52514,-27,-4
1.52847374185197E+018,405,1.52847374185158E+018,64680,49283,52466,-27,-3
1.52847374187389E+018,406,1.52847374187356E+018,64700,49253,52451,-27,-3
1.5284737419318E+018,407,1.52847374193142E+018,64760,49182,52387,-21,-11
1.52847374195408E+018,408,1.52847374195365E+018,64780,49155,52368,-22,-10
1.52847374201178E+018,409,1.52847374201144E+018,64840,49088,52300,-23,-10
1.52847374203391E+018,410,1.52847374203347E+018,64860,49061,52281,-21,-10
1.52847374209178E+018,411,1.52847374209139E+018,64920,48991,52216,-22,-11
1.52847374211368E+018,412,1.52847374211334E+018,64940,48967,52196,-22,-10
1.5284737421738E+018,413,1.52847374217337E+018,65000,48895,52131,-21,-11
1.52847374223165E+018,414,1.5284737422313E+018,65060,48825,52067,-22,-12
1.52847374225363E+018,415,1.52847374225331E+018,65080,48801,52046,-21,-12
1.52847374231365E+018,416,1.5284737423133E+018,65140,48729,51983,-21,-12
1.52847374237363E+018,417,1.52847374237323E+018,65200,48656,51917,-20,-11
1.5284737424327E+018,418,1.52847374243226E+018,65260,48588,51853,-23,-12
1.5284737424904E+018,419,1.52847374249002E+018,65320,48514,51786,-20,-10
1.5284737425134E+018,420,1.52847374251307E+018,65340,48491,51765,-21,-10
1.52847374257269E+018,421,1.52847374257226E+018,65400,48419,51701,-21,-12
1.52847374263044E+018,422,1.52847374263008E+018,65460,48348,51636,-21,-11
1.52847374265229E+018,423,1.52847374265196E+018,65480,48325,51614,-22,-11
1.52847374271237E+018,424,1.52847374271199E+018,4,48254,51549,-21,-11
1.52847374277237E+018,425,1.52847374277196E+018,64,48181,51484,-20,-11
1.52847374283238E+018,426,1.528473742832E+018,124,48123,51407,-11,-20
1.52847374289229E+018,427,1.52847374289193E+018,184,48063,51332,-10,-21
1.52847374295226E+018,428,1.52847374295187E+018,244,48004,51259,-11,-22
1.52847374301229E+018,429,1.52847374301187E+018,304,47944,51184,-10,-21
1.52847374307156E+018,430,1.52847374307117E+018,364,47882,51116,-9,-25
1.52847374312929E+018,431,1.52847374312884E+018,424,47819,51045,-8,-23
1.52847374315113E+018,432,1.52847374315089E+018,444,47798,51020,-8,-23
1.52847374321113E+018,433,1.52847374321077E+018,504,47736,50950,-9,-24
1.52847374326964E+018,434,1.52847374326902E+018,564,47675,50878,-9,-23
1.52847374329126E+018,435,1.52847374329083E+018,584,47655,50855,-10,-24
1.52847374335107E+018,436,1.52847374335071E+018,644,47591,50783,-7,-23
1.52847374341134E+018,437,1.52847374341086E+018,704,47531,50712,-9,-24
1.5284737434712E+018,438,1.52847374347078E+018,764,47470,50640,-9,-24
1.52847374353105E+018,439,1.52847374353062E+018,824,47407,50568,-8,-24
1.52847374359E+018,440,1.5284737435896E+018,884,47348,50497,-9,-24
1.52847374361093E+018,441,1.52847374361054E+018,904,47327,50473,-9,-24
1.5284737436699E+018,442,1.52847374366959E+018,964,47266,50400,-8,-24
1.52847374372782E+018,443,1.52847374372753E+018,1024,47206,50328,-9,-24
1.52847374374989E+018,444,1.52847374374958E+018,1044,47184,50303,-7,-23
1.52847374380795E+018,445,1.52847374380758E+018,1104,47126,50232,-9,-25
1.5284737438298E+018,446,1.52847374382947E+018,1124,47105,50207,-9,-24
1.5284737438877E+018,447,1.52847374388739E+018,1184,47045,50134,-8,-24
1.52847374391004E+018,448,1.52847374390966E+018,1204,47026,50111,-10,-25
1.52847374396991E+018,449,1.52847374396956E+018,1264,46962,50035,-6,-23
1.52847374402998E+018,450,1.52847374402958E+018,1324,46905,49965,-9,-26
1.52847374408998E+018,451,1.52847374408954E+018,1384,46843,49889,-7,-23
1.52847374414776E+018,452,1.52847374414737E+018,1444,46784,49815,-8,-24
1.52847374416983E+018,453,1.52847374416942E+018,1464,46762,49790,-7,-24
1.52847374422872E+018,454,1.52847374422833E+018,1524,46702,49717,-8,-25
1.52847374428668E+018,455,1.52847374428627E+018,1584,46644,49639,-8,-22
1.52847374430883E+018,456,1.5284737443084E+018,1604,46625,49612,-9,-22
1.52847374436868E+018,457,1.5284737443683E+018,1664,46571,49537,-10,-24
1.52847374442876E+018,458,1.52847374442838E+018,1724,46510,49460,-7,-23
1.52847374448873E+018,459,1.52847374448832E+018,1784,46449,49385,-7,-24
1.52847374454882E+018,460,1.52847374454835E+018,1844,46388,49311,-7,-25
1.5284737446087E+018,461,1.52847374460826E+018,1904,46326,49235,-6,-24
1.52847374466661E+018,462,1.52847374466621E+018,1964,46265,49159,-6,-24
1.52847374468872E+018,463,1.52847374468831E+018,1984,46245,49135,-6,-24
1.52847374474761E+018,464,1.52847374474719E+018,2044,46183,49061,-6,-25
1.52847374480556E+018,465,1.52847374480519E+018,2104,46121,48985,-6,-24
1.52847374482746E+018,466,1.5284737448271E+018,2124,46101,48960,-5,-25
1.52847374488755E+018,467,1.52847374488712E+018,2184,46040,48884,-6,-25
1.52847374494743E+018,468,1.52847374494707E+018,2244,45980,48808,-6,-25
1.52847374500761E+018,469,1.5284737450072E+018,2304,45919,48731,-6,-24
1.52847374506774E+018,470,1.52847374506726E+018,2364,45857,48656,-5,-25
1.52847374512749E+018,471,1.52847374512711E+018,2424,45797,48579,-6,-25
1.52847374518753E+018,472,1.52847374518716E+018,2484,45737,48502,-6,-25
1.5284737452464E+018,473,1.52847374524614E+018,2544,45677,48424,-6,-24
1.52847374530437E+018,474,1.52847374530403E+018,2604,45618,48349,-6,-26
1.52847374532648E+018,475,1.52847374532607E+018,2624,45597,48321,-5,-24
1.5284737453865E+018,476,1.52847374538611E+018,2684,45538,48247,-6,-27
1.52847374544426E+018,477,1.52847374544398E+018,2744,45478,48166,-5,-23
1.52847374546624E+018,478,1.52847374546593E+018,2764,45458,48142,-6,-25
1.52847374552646E+018,479,1.52847374552602E+018,2824,45399,48063,-6,-24
1.52847374558618E+018,480,1.52847374558584E+018,2884,45338,47986,-5,-25
1.52847374564645E+018,481,1.52847374564611E+018,2944,45277,47909,-4,-26
1.52847374570622E+018,482,1.52847374570586E+018,3004,45217,47834,-5,-27
1.5284737457654E+018,483,1.52847374576498E+018,3064,45157,47753,-5,-24
1.5284737457862E+018,484,1.52847374578584E+018,3084,45137,47730,-5,-25
1.52847374584616E+018,485,1.52847374584584E+018,3144,45080,47649,-6,-24
1.52847374590523E+018,486,1.52847374590478E+018,3204,45021,47572,-5,-26
1.52847374596276E+018,487,1.52847374596259E+018,3264,44962,47493,-5,-25
1.52847374598482E+018,488,1.52847374598454E+018,3284,44941,47467,-4,-26
1.52847374604295E+018,489,1.52847374604257E+018,3344,44884,47390,-6,-26
1.52847374606488E+018,490,1.52847374606469E+018,3364,44864,47364,-5,-27
1.52847374612525E+018,491,1.52847374612483E+018,3424,44807,47284,-5,-25
1.52847374618297E+018,492,1.52847374618257E+018,3484,44751,47204,-6,-25
1.52847374620487E+018,493,1.52847374620454E+018,3504,44731,47177,-5,-24
1.52847374626493E+018,494,1.52847374626452E+018,3564,44677,47097,-7,-25
1.52847374632286E+018,495,1.52847374632246E+018,3624,44618,47016,-4,-25
1.52847374634482E+018,496,1.52847374634454E+018,3644,44601,46989,-5,-25
1.5284737464049E+018,497,1.52847374640446E+018,3704,44545,46910,-6,-26
1.52847374646478E+018,498,1.52847374646434E+018,3764,44491,46830,-6,-25
1.52847374652367E+018,499,1.52847374652334E+018,3824,44440,46747,-8,-24
1.5284737465447E+018,500,1.52847374654432E+018,3844,44418,46719,-5,-24
1.52847374660497E+018,501,1.52847374660451E+018,3904,44367,46640,-8,-26
1.52847374666373E+018,502,1.52847374666335E+018,3964,44310,46557,-5,-24
1.52847374672173E+018,503,1.52847374672136E+018,4024,44258,46479,-7,-27
1.52847374674383E+018,504,1.52847374674347E+018,4044,44242,46451,-8,-25
1.52847374680358E+018,505,1.5284737468032E+018,4104,44187,46371,-6,-26
1.52847374686379E+018,506,1.52847374686339E+018,4164,44135,46289,-7,-25
1.52847374692366E+018,507,1.52847374692336E+018,4224,44081,46209,-6,-26
1.52847374698362E+018,508,1.52847374698325E+018,4284,44030,46126,-7,-25
1.52847374704346E+018,509,1.52847374704316E+018,4344,43974,46045,-5,-26
1.52847374710372E+018,510,1.52847374710329E+018,4404,43923,45966,-7,-27
1.52847374716347E+018,511,1.52847374716308E+018,4464,43872,45882,-7,-25
1.52847374722344E+018,512,1.52847374722309E+018,4524,43823,45798,-8,-25
1.52847374728232E+018,513,1.52847374728198E+018,4584,43768,45717,-5,-26
1.52847374734029E+018,514,1.52847374733996E+018,4644,43716,45637,-6,-27
1.52847374736246E+018,515,1.52847374736208E+018,4664,43699,45606,-5,-25
1.52847374742229E+018,516,1.52847374742196E+018,4724,43647,45527,-6,-27
1.52847374748249E+018,517,1.52847374748206E+018,4784,43598,45443,-8,-25
1.52847374754232E+018,518,1.52847374754196E+018,4844,43546,45357,-6,-24
1.52847374760067E+018,519,1.52847374760032E+018,4904,43494,45273,-6,-25
1.52847374762221E+018,520,1.52847374762189E+018,4924,43478,45245,-7,-25
1.52847374768217E+018,521,1.52847374768183E+018,4984,43426,45161,-6,-25
1.52847374774233E+018,522,1.52847374774195E+018,5044,43377,45076,-7,-25
1.52847374780124E+018,523,1.5284737478009E+018,5104,43327,44990,-7,-24
1.52847374782206E+018,524,1.52847374782175E+018,5124,43310,44962,-6,-25
1.52847374788118E+018,525,1.52847374788074E+018,5184,43258,44876,-6,-24
1.52847374793899E+018,526,1.52847374793866E+018,5244,43210,44793,-8,-26
1.52847374796135E+018,527,1.52847374796099E+018,5264,43192,44764,-7,-26
1.52847374801894E+018,528,1.52847374801865E+018,5324,43144,44679,-8,-25
1.52847374804113E+018,529,1.52847374804075E+018,5344,43127,44651,-7,-26
1.52847374809905E+018,530,1.52847374809867E+018,5404,43077,44568,-7,-26
1.52847374812102E+018,531,1.52847374812067E+018,5424,43061,44539,-7,-26
1.52847374818105E+018,532,1.52847374818068E+018,5484,43010,44453,-6,-25
1.52847374823889E+018,533,1.52847374823865E+018,5544,42962,44369,-7,-26
1.52847374826122E+018,534,1.52847374826066E+018,5564,42945,44340,-7,-26
1.52847374832113E+018,535,1.52847374832073E+018,5624,42894,44257,-6,-26
1.52847374838119E+018,536,1.52847374838068E+018,5684,42845,44172,-7,-26
1.52847374843996E+018,537,1.52847374843959E+018,5744,42794,44084,-6,-24
1.52847374849783E+018,538,1.52847374849755E+018,5804,42741,44000,-5,-26
1.52847374851982E+018,539,1.52847374851948E+018,5824,42724,43971,-5,-25
1.52847374857991E+018,540,1.52847374857952E+018,5884,42669,43888,-4,-27
1.52847374863773E+018,541,1.52847374863741E+018,5944,42614,43805,-4,-27
1.52847374865968E+018,542,1.52847374865933E+018,5964,42597,43776,-4,-26
1.5284737487198E+018,543,1.52847374871939E+018,6024,42544,43693,-4,-27
1.52847374877985E+018,544,1.52847374877939E+018,6084,42492,43608,-5,-26
1.52847374883985E+018,545,1.52847374883945E+018,6144,42441,43523,-5,-26
1.52847374889969E+018,546,1.52847374889935E+018,6204,42388,43437,-4,-26
1.52847374895994E+018,547,1.52847374895947E+018,6264,42334,43355,-4,-28
1.52847374901956E+018,548,1.52847374901931E+018,6324,42281,43270,-4,-26
1.52847374907881E+018,549,1.52847374907842E+018,6384,42231,43187,-6,-27
1.52847374913651E+018,550,1.52847374913619E+018,6444,42178,43102,-4,-26
1.5284737491586E+018,551,1.52847374915823E+018,6464,42158,43073,-2,-26
1.52847374921862E+018,552,1.52847374921832E+018,6524,42110,42990,-6,-27
1.52847374927654E+018,553,1.52847374927625E+018,6584,42057,42902,-4,-25
1.52847374929851E+018,554,1.52847374929827E+018,6604,42041,42876,-5,-27
1.52847374935849E+018,555,1.52847374935812E+018,6664,41993,42787,-6,-25
1.52847374941841E+018,556,1.52847374941808E+018,6724,41941,42698,-4,-25
1.52847374947854E+018,557,1.52847374947811E+018,6784,41891,42612,-5,-26
1.52847374953852E+018,558,1.52847374953811E+018,6844,41836,42527,-3,-27
1.52847374959732E+018,559,1.52847374959698E+018,6904,41789,42441,-6,-26
1.5284737496184E+018,560,1.52847374961796E+018,6924,41770,42411,-5,-26
1.52847374967731E+018,561,1.52847374967693E+018,6984,41720,42324,-5,-26
1.5284737497353E+018,562,1.52847374973499E+018,7044,41673,42234,-6,-25
1.52847374975728E+018,563,1.52847374975697E+018,7064,41656,42207,-6,-26
1.52847374981533E+018,564,1.52847374981496E+018,7124,41604,42119,-4,-26
1.52847374983716E+018,565,1.52847374983695E+018,7144,41588,42092,-5,-28
1.52847374989516E+018,566,1.52847374989481E+018,7204,41538,42004,-5,-26
1.52847374991717E+018,567,1.52847374991685E+018,7224,41521,41975,-5,-26
1.52847374997768E+018,568,1.52847374997729E+018,7284,41474,41887,-6,-26
1.52847375003718E+018,569,1.52847375003691E+018,7344,41426,41798,-6,-25
1.52847375009719E+018,570,1.52847375009685E+018,7404,41376,41709,-5,-25
1.52847375015724E+018,571,1.52847375015681E+018,7464,41326,41623,-4,-27
1.5284737502161E+018,572,1.52847375021574E+018,7524,41275,41536,-4,-26
1.52847375027419E+018,573,1.52847375027369E+018,7584,41230,41448,-7,-26
1.52847375029729E+018,574,1.52847375029688E+018,7604,41214,41418,-6,-26
1.52847375035589E+018,575,1.52847375035557E+018,7664,41165,41330,-5,-26
1.52847375041401E+018,576,1.52847375041361E+018,7724,41119,41240,-6,-25
1.5284737504361E+018,577,1.52847375043584E+018,7744,41102,41211,-5,-26
1.52847375049604E+018,578,1.52847375049565E+018,7804,41052,41124,-4,-27
1.52847375055402E+018,579,1.52847375055359E+018,7864,41005,41035,-6,-26
1.52847375057602E+018,580,1.52847375057565E+018,7884,40987,41006,-5,-27
1.5284737506358E+018,581,1.52847375063547E+018,7944,40941,40918,-6,-26
1.52847375069593E+018,582,1.52847375069552E+018,8004,40893,40828,-5,-25
1.52847375075591E+018,583,1.5284737507555E+018,8064,40845,40739,-5,-26
1.5284737508159E+018,584,1.52847375081556E+018,8124,40797,40649,-5,-25
1.5284737508748E+018,585,1.52847375087454E+018,8184,40746,40562,-3,-27
1.52847375089562E+018,586,1.52847375089532E+018,8204,40731,40531,-4,-25
1.52847375095447E+018,587,1.52847375095431E+018,8264,40684,40443,-5,-26
1.52847375101269E+018,588,1.52847375101235E+018,8324,40634,40354,-4,-26
1.52847375103569E+018,589,1.52847375103538E+018,8344,40621,40321,-5,-26
1.52847375109458E+018,590,1.5284737510943E+018,8404,40574,40236,-5,-28
1.52847375115483E+018,591,1.52847375115447E+018,8464,40525,40146,-4,-26
1.52847375121244E+018,592,1.52847375121207E+018,8524,40480,40057,-6,-26
1.52847375123449E+018,593,1.52847375123419E+018,8544,40462,40028,-5,-27
1.52847375129246E+018,594,1.52847375129215E+018,8604,40413,39939,-4,-26
1.52847375131443E+018,595,1.52847375131412E+018,8624,40398,39908,-5,-27
1.52847375137445E+018,596,1.52847375137409E+018,8684,40350,39819,-5,-26
1.52847375143452E+018,597,1.52847375143411E+018,8744,40302,39730,-4,-26
1.52847375149355E+018,598,1.52847375149313E+018,8804,40258,39641,-6,-26
1.52847375155141E+018,599,1.52847375155104E+018,8864,40210,39549,-4,-25
1.52847375157474E+018,600,1.52847375157422E+018,8884,40195,39520,-5,-25
1.52847375163341E+018,601,1.52847375163301E+018,8944,40152,39429,-7,-25
1.52847375169149E+018,602,1.52847375169119E+018,9004,40103,39338,-4,-25
1.52847375171319E+018,603,1.528473751713E+018,9024,40087,39309,-4,-26
1.52847375177354E+018,604,1.52847375177306E+018,9084,40042,39218,-6,-26
1.52847375183119E+018,605,1.52847375183082E+018,9144,39995,39129,-5,-27
1.52847375185319E+018,606,1.52847375185282E+018,9164,39980,39101,-5,-27
1.5284737519134E+018,607,1.5284737519129E+018,9224,39936,39010,-6,-26
1.52847375197345E+018,608,1.52847375197292E+018,9284,39889,38917,-5,-25
1.52847375203329E+018,609,1.5284737520329E+018,9344,39843,38830,-5,-28
1.52847375209325E+018,610,1.5284737520929E+018,9404,39794,38740,-4,-26
1.52847375215222E+018,611,1.52847375215186E+018,9464,39750,38653,-6,-28
1.52847375221015E+018,612,1.52847375220978E+018,9524,39708,38560,-7,-25
1.52847375223199E+018,613,1.5284737522317E+018,9544,39690,38530,-5,-25
1.52847375229007E+018,614,1.52847375228973E+018,9604,39646,38439,-6,-26
1.52847375231211E+018,615,1.52847375231174E+018,9624,39630,38410,-5,-27
1.52847375237002E+018,616,1.52847375236967E+018,9684,39583,38319,-4,-26
1.52847375239217E+018,617,1.52847375239178E+018,9704,39568,38288,-4,-26
1.52847375244995E+018,618,1.52847375244954E+018,9764,39525,38201,-6,-28
1.52847375247185E+018,619,1.52847375247156E+018,9784,39511,38168,-6,-26
1.52847375253209E+018,620,1.52847375253167E+018,9844,39464,38077,-4,-26
1.52847375259193E+018,621,1.52847375259159E+018,9904,39421,37987,-6,-26
1.52847375265203E+018,622,1.52847375265165E+018,9964,39375,37896,-5,-26
1.52847375271182E+018,623,1.52847375271144E+018,10024,39330,37804,-5,-26
1.52847375277102E+018,624,1.52847375277067E+018,10084,39288,37713,-7,-26
1.52847375282879E+018,625,1.52847375282842E+018,10144,39241,37620,-4,-25
1.52847375285183E+018,626,1.52847375285149E+018,10164,39225,37590,-5,-25
1.52847375291072E+018,627,1.52847375291041E+018,10224,39183,37499,-7,-26
1.52847375296876E+018,628,1.5284737529684E+018,10284,39139,37404,-6,-24
1.52847375299098E+018,629,1.52847375299065E+018,10304,39125,37374,-6,-24
1.52847375305074E+018,630,1.52847375305037E+018,10364,39085,37284,-8,-27
1.52847375311093E+018,631,1.52847375311056E+018,10424,39039,37189,-5,-24
1.52847375317103E+018,632,1.52847375317044E+018,10484,38996,37099,-6,-27
1.52847375323077E+018,633,1.52847375323037E+018,10544,38948,37009,-4,-27
1.52847375329075E+018,634,1.52847375329039E+018,10604,38902,36920,-5,-27
1.52847375335066E+018,635,1.52847375335036E+018,10664,38861,36829,-7,-26
1.52847375340965E+018,636,1.52847375340922E+018,10724,38815,36736,-5,-25
1.52847375346808E+018,637,1.52847375346726E+018,10784,38773,36644,-7,-26
1.52847375348971E+018,638,1.52847375348931E+018,10804,38758,36616,-7,-27
1.52847375354968E+018,639,1.52847375354934E+018,10864,38711,36523,-4,-25
1.52847375360771E+018,640,1.52847375360732E+018,10924,38670,36433,-7,-27
1.52847375362955E+018,641,1.52847375362918E+018,10944,38655,36405,-7,-27
1.5284737536896E+018,642,1.52847375368927E+018,11004,38611,36312,-5,-26
1.52847375374957E+018,643,1.52847375374917E+018,11064,38569,36220,-6,-26
1.52847375380956E+018,644,1.52847375380913E+018,11124,38526,36128,-6,-26
1.52847375386959E+018,645,1.52847375386927E+018,11184,38479,36038,-4,-27
1.52847375392863E+018,646,1.52847375392818E+018,11244,38439,35948,-7,-27
1.52847375394923E+018,647,1.52847375394901E+018,11264,38426,35916,-7,-27
1.52847375400837E+018,648,1.528473754008E+018,11324,38380,35824,-4,-26
1.5284737540663E+018,649,1.52847375406591E+018,11384,38340,35733,-7,-27
1.52847375408837E+018,650,1.52847375408804E+018,11404,38327,35701,-7,-26
1.52847375414611E+018,651,1.5284737541458E+018,11464,38281,35609,-4,-26
1.52847375416825E+018,652,1.52847375416795E+018,11484,38268,35579,-5,-27
1.52847375422641E+018,653,1.52847375422601E+018,11544,38228,35487,-7,-26
1.52847375424845E+018,654,1.52847375424797E+018,11564,38214,35456,-7,-25
1.52847375430815E+018,655,1.52847375430784E+018,11624,38170,35363,-5,-26
1.52847375436838E+018,656,1.528473754368E+018,11684,38126,35270,-5,-26
1.52847375442822E+018,657,1.52847375442776E+018,11744,38082,35179,-5,-27
1.52847375448619E+018,658,1.52847375448578E+018,11804,38039,35089,-6,-27
1.52847375450806E+018,659,1.52847375450774E+018,11824,38026,35056,-6,-26
1.528473754567E+018,660,1.52847375456678E+018,11884,37986,34964,-7,-26
1.52847375458822E+018,661,1.52847375458784E+018,11904,37973,34932,-7,-25
1.52847375464809E+018,662,1.52847375464765E+018,11964,37930,34839,-6,-26
1.52847375470713E+018,663,1.52847375470675E+018,12024,37889,34748,-7,-27
1.52847375476498E+018,664,1.52847375476469E+018,12084,37844,34657,-5,-27
1.52847375478697E+018,665,1.52847375478671E+018,12104,37830,34625,-5,-27
1.52847375484724E+018,666,1.52847375484685E+018,12164,37790,34534,-7,-27
1.52847375490698E+018,667,1.52847375490655E+018,12224,37748,34441,-6,-26
1.52847375496687E+018,668,1.52847375496651E+018,12284,37706,34350,-6,-27
1.52847375502687E+018,669,1.52847375502658E+018,12344,37664,34258,-6,-27
1.52847375508705E+018,670,1.52847375508665E+018,12404,37621,34166,-6,-27
1.52847375514683E+018,671,1.52847375514648E+018,12464,37582,34073,-8,-26
1.52847375520583E+018,672,1.52847375520541E+018,12524,37540,33981,-6,-27
1.52847375522672E+018,673,1.52847375522634E+018,12544,37525,33950,-6,-26
1.52847375528575E+018,674,1.52847375528539E+018,12604,37484,33859,-7,-27
1.52847375534382E+018,675,1.5284737553434E+018,12664,37442,33766,-6,-26
1.52847375536571E+018,676,1.52847375536535E+018,12684,37427,33737,-5,-26
1.52847375542364E+018,677,1.52847375542339E+018,12744,37386,33646,-7,-27
1.52847375544568E+018,678,1.52847375544535E+018,12764,37371,33617,-7,-28
1.52847375550394E+018,679,1.52847375550347E+018,12824,37327,33523,-5,-26
1.52847375552578E+018,680,1.52847375552541E+018,12844,37312,33492,-5,-27
1.52847375558576E+018,681,1.52847375558544E+018,12904,37270,33401,-6,-27
1.52847375564558E+018,682,1.52847375564527E+018,12964,37227,33307,-6,-26
1.52847375570581E+018,683,1.52847375570536E+018,13024,37185,33215,-6,-27
1.52847375576354E+018,684,1.52847375576325E+018,13084,37144,33121,-7,-26
1.52847375578551E+018,685,1.52847375578509E+018,13104,37130,33091,-7,-25
1.5284737558447E+018,686,1.52847375584423E+018,13164,37087,32998,-6,-26
1.52847375586543E+018,687,1.52847375586509E+018,13184,37072,32968,-6,-26
1.52847375592436E+018,688,1.52847375592408E+018,13244,37031,32874,-7,-26
1.52847375598247E+018,689,1.5284737559821E+018,13304,36986,32781,-5,-26
1.52847375600445E+018,690,1.52847375600413E+018,13324,36972,32752,-6,-26
1.52847375606253E+018,691,1.52847375606221E+018,13384,36932,32659,-7,-27
1.52847375608437E+018,692,1.52847375608408E+018,13404,36916,32628,-6,-26
1.52847375614226E+018,693,1.52847375614194E+018,13464,36872,32535,-5,-27
1.52847375616429E+018,694,1.52847375616404E+018,13484,36858,32504,-5,-27
1.52847375622433E+018,695,1.52847375622403E+018,13544,36816,32411,-6,-27
1.52847375628425E+018,696,1.52847375628396E+018,13604,36768,32319,-3,-27
1.5284737563442E+018,697,1.52847375634384E+018,13664,36728,32228,-7,-28
1.52847375640211E+018,698,1.52847375640178E+018,13724,36684,32130,-5,-24
1.52847375642446E+018,699,1.52847375642402E+018,13744,36668,32101,-4,-26
1.52847375648326E+018,700,1.52847375648289E+018,13804,36627,32009,-6,-27
1.52847375650414E+018,701,1.52847375650389E+018,13824,36613,31977,-6,-27
1.52847375656328E+018,702,1.52847375656288E+018,13884,36568,31882,-4,-26
1.52847375662105E+018,703,1.52847375662081E+018,13944,36528,31791,-7,-28
1.52847375664306E+018,704,1.52847375664276E+018,13964,36514,31760,-7,-28
1.52847375670114E+018,705,1.52847375670072E+018,14024,36471,31665,-5,-26
1.52847375672307E+018,706,1.52847375672276E+018,14044,36455,31632,-4,-26
1.52847375678115E+018,707,1.52847375678079E+018,14104,36413,31540,-6,-27
1.52847375680318E+018,708,1.52847375680284E+018,14124,36400,31506,-6,-26
1.52847375686309E+018,709,1.52847375686277E+018,14184,36354,31414,-4,-27
1.52847375692319E+018,710,1.52847375692276E+018,14244,36313,31321,-6,-27
1.528473756983E+018,711,1.52847375698269E+018,14304,36272,31227,-6,-26
1.52847375704119E+018,712,1.52847375704078E+018,14364,36224,31133,-3,-26
1.52847375706299E+018,713,1.52847375706258E+018,14384,36210,31103,-4,-27
1.52847375712187E+018,714,1.52847375712151E+018,14444,36169,31010,-6,-27
1.52847375714279E+018,715,1.52847375714254E+018,14464,36154,30977,-5,-26
1.52847375720194E+018,716,1.52847375720161E+018,14524,36110,30887,-5,-28
1.52847375725979E+018,717,1.52847375725945E+018,14584,36067,30792,-5,-26
1.52847375728173E+018,718,1.52847375728147E+018,14604,36055,30760,-6,-26
1.5284737573397E+018,719,1.52847375733935E+018,14664,36012,30666,-5,-26
1.52847375736202E+018,720,1.52847375736147E+018,14684,35998,30635,-5,-27
1.5284737574199E+018,721,1.52847375741946E+018,14744,35955,30542,-5,-27
1.52847375744175E+018,722,1.52847375744141E+018,14764,35941,30511,-6,-26
1.52847375750172E+018,723,1.52847375750136E+018,14824,35896,30417,-4,-26
1.52847375756176E+018,724,1.5284737575614E+018,14884,35855,30322,-6,-26
1.52847375762172E+018,725,1.52847375762136E+018,14944,35809,30230,-4,-27
1.5284737576796E+018,726,1.52847375767929E+018,15004,35766,30138,-5,-27
1.52847375770157E+018,727,1.52847375770123E+018,15024,35753,30105,-6,-26
1.52847375776051E+018,728,1.52847375776023E+018,15084,35711,30012,-6,-27
1.52847375778178E+018,729,1.52847375778148E+018,15104,35697,29981,-5,-26
1.52847375784049E+018,730,1.52847375784021E+018,15164,35655,29887,-6,-27
1.52847375789835E+018,731,1.52847375789814E+018,15224,35612,29791,-5,-26
1.52847375792055E+018,732,1.52847375792013E+018,15244,35597,29760,-4,-26
1.52847375797842E+018,733,1.52847375797811E+018,15304,35554,29667,-5,-27
1.52847375800075E+018,734,1.52847375800025E+018,15324,35539,29637,-6,-27
1.52847375805843E+018,735,1.52847375805807E+018,15384,35497,29540,-5,-25
1.52847375808031E+018,736,1.52847375808E+018,15404,35482,29509,-6,-26
1.52847375814052E+018,737,1.5284737581402E+018,15464,35443,29415,-7,-27
1.52847375820064E+018,738,1.52847375820012E+018,15524,35402,29318,-6,-25
1.52847375826066E+018,739,1.52847375826019E+018,15584,35358,29224,-5,-27
1.52847375831833E+018,740,1.52847375831795E+018,15644,35314,29130,-4,-27
1.52847375834032E+018,741,1.52847375833998E+018,15664,35300,29101,-5,-27
1.52847375839963E+018,742,1.52847375839929E+018,15724,35257,29006,-5,-26
1.52847375845737E+018,743,1.52847375845696E+018,15784,35218,28912,-7,-27
1.52847375847935E+018,744,1.52847375847894E+018,15804,35204,28881,-7,-27
1.52847375853935E+018,745,1.52847375853893E+018,15864,35159,28787,-4,-27
1.52847375859724E+018,746,1.52847375859695E+018,15924,35118,28694,-6,-27
1.52847375861918E+018,747,1.52847375861895E+018,15944,35104,28663,-6,-27
1.52847375867929E+018,748,1.52847375867893E+018,16004,35039,28586,-10,-21
1.52847375873926E+018,749,1.5284737587389E+018,16064,34983,28511,-15,-22
1.52847375879928E+018,750,1.52847375879885E+018,16124,34916,28435,-9,-21
1.52847375885913E+018,751,1.52847375885882E+018,16184,34851,28363,-10,-23
1.52847375891815E+018,752,1.52847375891779E+018,16244,34787,28292,-11,-24
1.52847375893902E+018,753,1.5284737589387E+018,16264,34764,28267,-10,-23
1.52847375899833E+018,754,1.5284737589979E+018,16324,34698,28192,-10,-22
1.5284737590561E+018,755,1.52847375905572E+018,16384,34632,28118,-10,-22
1.52847375907803E+018,756,1.52847375907764E+018,16404,34610,28092,-10,-21
1.52847375913814E+018,757,1.52847375913774E+018,16464,34545,28018,-11,-22
1.528473759196E+018,758,1.5284737591956E+018,16524,34478,27945,-10,-23
1.528473759218E+018,759,1.52847375921765E+018,16544,34455,27921,-9,-23
1.52847375927825E+018,760,1.52847375927775E+018,16604,34390,27847,-11,-22
1.5284737593358E+018,761,1.52847375933551E+018,16664,34324,27772,-10,-22
1.52847375935792E+018,762,1.52847375935752E+018,16684,34302,27748,-10,-22
1.52847375941788E+018,763,1.52847375941753E+018,16744,34235,27674,-10,-22
1.52847375947786E+018,764,1.52847375947756E+018,16804,34168,27600,-10,-22
1.52847375953688E+018,765,1.52847375953648E+018,16864,34103,27525,-11,-22
1.52847375959473E+018,766,1.52847375959443E+018,16924,34036,27450,-10,-22
1.52847375961776E+018,767,1.52847375961746E+018,16944,34014,27425,-11,-21
1.52847375967678E+018,768,1.52847375967638E+018,17004,33944,27350,-8,-22
1.52847375973491E+018,769,1.52847375973457E+018,17064,33874,27275,-8,-22
1.52847375975693E+018,770,1.52847375975642E+018,17084,33852,27248,-8,-21
1.52847375981676E+018,771,1.52847375981638E+018,17144,33780,27169,-7,-20
1.52847375987683E+018,772,1.52847375987646E+018,17204,33713,27092,-10,-21
1.52847375993671E+018,773,1.52847375993635E+018,17264,33646,27017,-10,-21
1.52847375999697E+018,774,1.52847375999649E+018,17324,33579,26942,-10,-21
1.52847376005669E+018,775,1.52847376005628E+018,17384,33511,26866,-9,-21
1.52847376011692E+018,776,1.52847376011642E+018,17444,33441,26788,-8,-20
1.52847376017557E+018,777,1.52847376017518E+018,17504,33372,26712,-9,-21
1.52847376023365E+018,778,1.5284737602332E+018,17564,33303,26635,-9,-20
1.52847376025595E+018,779,1.52847376025531E+018,17584,33281,26610,-9,-22
1.52847376031346E+018,780,1.52847376031307E+018,17644,33214,26534,-10,-21
1.52847376033546E+018,781,1.5284737603352E+018,17664,33191,26509,-9,-21
1.52847376039347E+018,782,1.52847376039309E+018,17724,33122,26433,-9,-21
1.52847376041545E+018,783,1.5284737604152E+018,17744,33100,26410,-9,-22
1.52847376047347E+018,784,1.52847376047318E+018,17804,33033,26335,-10,-21
1.52847376049559E+018,785,1.52847376049519E+018,17824,33011,26312,-10,-22
1.52847376055562E+018,786,1.52847376055503E+018,17884,32945,26238,-10,-22
1.52847376061354E+018,787,1.52847376061303E+018,17944,32878,26164,-10,-22
1.52847376063531E+018,788,1.528473760635E+018,17964,32858,26141,-11,-22
1.52847376069552E+018,789,1.52847376069505E+018,18024,32791,26067,-10,-22
1.52847376075523E+018,790,1.52847376075487E+018,18084,32725,25994,-11,-22
1.52847376081424E+018,791,1.52847376081387E+018,18144,32659,25921,-11,-22
1.52847376087226E+018,792,1.52847376087186E+018,18204,32593,25846,-11,-21
1.52847376089418E+018,793,1.52847376089394E+018,18224,32571,25823,-11,-21
1.52847376095222E+018,794,1.52847376095184E+018,18284,32504,25748,-10,-21
1.52847376097442E+018,795,1.52847376097411E+018,18304,32482,25724,-10,-21
1.5284737610321E+018,796,1.52847376103173E+018,18364,32413,25650,-9,-21
1.52847376105399E+018,797,1.52847376105377E+018,18384,32392,25626,-11,-22
1.52847376111211E+018,798,1.52847376111172E+018,18444,32322,25551,-9,-21
1.52847376113411E+018,799,1.52847376113376E+018,18464,32299,25526,-9,-21
1.52847376119411E+018,800,1.52847376119373E+018,18524,32231,25452,-10,-21
1.52847376125257E+018,801,1.52847376125177E+018,18584,32152,25391,-18,-12
1.52847376127399E+018,802,1.52847376127364E+018,18604,32121,25374,-14,-15
1.52847376133314E+018,803,1.52847376133276E+018,18664,32050,25309,-22,-10
1.52847376135409E+018,804,1.52847376135369E+018,18684,32023,25291,-21,-12
1.52847376141399E+018,805,1.52847376141363E+018,18744,31950,25224,-21,-8
1.52847376147324E+018,806,1.52847376147292E+018,18804,31878,25159,-22,-9
1.52847376153081E+018,807,1.52847376153049E+018,18864,31803,25099,-21,-12
1.52847376155296E+018,808,1.52847376155251E+018,18884,31779,25076,-21,-10
1.52847376161308E+018,809,1.52847376161265E+018,18944,31705,25014,-21,-10
1.528473761673E+018,810,1.52847376167256E+018,19004,31630,24949,-21,-9
1.528473761733E+018,811,1.52847376173256E+018,19064,31558,24885,-23,-9
1.52847376179285E+018,812,1.52847376179246E+018,19124,31483,24821,-21,-9
1.52847376185304E+018,813,1.52847376185248E+018,19184,31410,24762,-22,-11
1.52847376191289E+018,814,1.52847376191239E+018,19244,31337,24697,-23,-8
1.52847376197182E+018,815,1.52847376197143E+018,19304,31263,24634,-22,-9
1.52847376202971E+018,816,1.52847376202934E+018,19364,31190,24574,-23,-10
1.52847376205166E+018,817,1.52847376205133E+018,19384,31165,24552,-23,-10
1.52847376211164E+018,818,1.52847376211127E+018,19444,31091,24490,-23,-9
1.52847376216984E+018,819,1.52847376216924E+018,19504,31017,24427,-23,-9
1.52847376219157E+018,820,1.52847376219123E+018,19524,30992,24405,-22,-8
1.52847376225171E+018,821,1.52847376225116E+018,19584,30919,24343,-23,-9
1.5284737623117E+018,822,1.52847376231121E+018,19644,30847,24282,-24,-9
1.52847376237192E+018,823,1.52847376237128E+018,19704,30773,24222,-23,-10
1.52847376243149E+018,824,1.52847376243114E+018,19764,30700,24159,-24,-8
1.52847376249059E+018,825,1.52847376249001E+018,19824,30627,24098,-24,-9
1.52847376251134E+018,826,1.52847376251098E+018,19844,30602,24076,-23,-7
1.52847376257055E+018,827,1.52847376257013E+018,19904,30529,24021,-24,-12
1.5284737626283E+018,828,1.52847376262797E+018,19964,30436,23970,-29,0
1.52847376265043E+018,829,1.52847376264998E+018,19984,30405,23959,-26,-3
1.52847376270839E+018,830,1.52847376270797E+018,20044,30315,23916,-31,-2
1.52847376273022E+018,831,1.52847376272991E+018,20064,30284,23900,-28,-2
1.5284737627882E+018,832,1.52847376278796E+018,20124,30191,23859,-29,-3
1.52847376281042E+018,833,1.52847376281012E+018,20144,30159,23847,-28,-5
1.52847376287029E+018,834,1.52847376286987E+018,20204,30060,23814,-27,-7
1.52847376293046E+018,835,1.52847376293004E+018,20264,29961,23777,-27,-5
1.52847376299025E+018,836,1.52847376298988E+018,20324,29865,23741,-28,-5
1.52847376305046E+018,837,1.52847376304991E+018,20384,29766,23706,-27,-5
1.52847376310921E+018,838,1.52847376310884E+018,20444,29668,23668,-28,-4
