%time,field.header.seq,field.header.stamp,field.pose.pose.position.x,field.pose.pose.position.y,field.pose.pose.position.z,field.pose.pose.orientation.x,field.pose.pose.orientation.y,field.pose.pose.orientation.z,field.pose.pose.orientation.w,field.pose.covariance0,field.pose.covariance1,field.pose.covariance2,field.pose.covariance3,field.pose.covariance4,field.pose.covariance5,field.pose.covariance6,field.pose.covariance7,field.pose.covariance8,field.pose.covariance9,field.pose.covariance10,field.pose.covariance11,field.pose.covariance12,field.pose.covariance13,field.pose.covariance14,field.pose.covariance15,field.pose.covariance16,field.pose.covariance17,field.pose.covariance18,field.pose.covariance19,field.pose.covariance20,field.pose.covariance21,field.pose.covariance22,field.pose.covariance23,field.pose.covariance24,field.pose.covariance25,field.pose.covariance26,field.pose.covariance27,field.pose.covariance28,field.pose.covariance29,field.pose.covariance30,field.pose.covariance31,field.pose.covariance32,field.pose.covariance33,field.pose.covariance34,field.pose.covariance35,field.twist.twist.linear.x,field.twist.twist.linear.y,field.twist.twist.angular.z
1.52847372219398E+018,281,1.52847372219352E+018,0,0,0,0,0,0,1,0.1,0,0,0,0,0,0,0.1,0,0,0,0,0,0,10000000000,0,0,0,0,0,0,10000000000,0,0,0,0,0,0,10000000000,0,0,0,0,0,0,0.05,0,0,0
1.52847372221602E+018,282,1.5284737222156E+018,0,0,0,0,0,0,1,0.1,0,0,0,0,0,0,0.1,0,0,0,0,0,0,10000000000,0,0,0,0,0,0,10000000000,0,0,0,0,0,0,10000000000,0,0,0,0,0,0,0.05,0,0,0
1.52847372227584E+018,283,1.52847372227544E+018,0,0,0,0,0,0,1,0.1,0,0,0,0,0,0,0.1,0,0,0,0,0,0,10000000000,0,0,0,0,0,0,10000000000,0,0,0,0,0,0,10000000000,0,0,0,0,0,0,0.05,0,0,0
1.52847372233381E+018,284,1.52847372233336E+018,0,0,0,0,0,0,1,0.1,0,0,0,0,0,0,0.1,0,0,0,0,0,0,10000000000,0,0,0,0,0,0,10000000000,0,0,0,0,0,0,10000000000,0,0,0,0,0,0,0.05,0,0,0
1.5284737223557E+018,285,1.52847372235538E+018,0,0,0,0,0,0,1,0.1,0,0,0,0,0,0,0.1,0,0,0,0,0,0,10000000000,0,0,0,0,0,0,10000000000,0,0,0,0,0,0,10000000000,0,0,0,0,0,0,0.05,0,0,0
1.52847372241578E+018,286,1.52847372241536E+018,0,0,0,0,0,0,1,0.1,0,0,0,0,0,0,0.1,0,0,0,0,0,0,10000000000,0,0,0,0,0,0,10000000000,0,0,0,0,0,0,10000000000,0,0,0,0,0,0,0.05,0,0,0
1.52847372247583E+018,287,1.5284737224754E+018,0,0,0,0,0,0,1,0.1,0,0,0,0,0,0,0.1,0,0,0,0,0,0,10000000000,0,0,0,0,0,0,10000000000,0,0,0,0,0,0,10000000000,0,0,0,0,0,0,0.05,0,0,0
1.52847372253571E+018,288,1.52847372253525E+018,0,0,0,0,0,0,1,0.1,0,0,0,0,0,0,0.1,0,0,0,0,0,0,10000000000,0,0,0,0,0,0,10000000000,0,0,0,0,0,0,10000000000,0,0,0,0,0,0,0.05,0,0,0
1.52847372259571E+018,289,1.5284737225953E+018,0,0,0,0,0,0,1,0.1,0,0,0,0,0,0,0.1,0,0,0,0,0,0,10000000000,0,0,0,0,0,0,10000000000,0,0,0,0,0,0,10000000000,0,0,0,0,0,0,0.05,0,0,0
1.52847372265465E+018,290,1.52847372265423E+018,0,0,0,0,0,0,1,0.1,0,0,0,0,0,0,0.1,0,0,0,0,0,0,10000000000,0,0,0,0,0,0,10000000000,0,0,0,0,0,0,10000000000,0,0,0,0,0,0,0.05,0,0,0
1.52847372271271E+018,291,1.5284737227122E+018,0,0,0,0,0,0,1,0.1,0,0,0,0,0,0,0.1,0,0,0,0,0,0,10000000000,0,0,0,0,0,0,10000000000,0,0,0,0,0,0,10000000000,0,0,0,0,0,0,0.05,0,0,0
1.52847372273468E+018,292,1.52847372273427E+018,0,0,0,0,0,0,1,0.1,0,0,0,0,0,0,0.1,0,0,0,0,0,0,10000000000,0,0,0,0,0,0,10000000000,0,0,0,0,0,0,10000000000,0,0,0,0,0,0,0.05,0,0,0
1.52847372279475E+018,293,1.52847372279429E+018,0,0,0,0,0,0,1,0.1,0,0,0,0,0,0,0.1,0,0,0,0,0,0,10000000000,0,0,0,0,0,0,10000000000,0,0,0,0,0,0,10000000000,0,0,0,0,0,0,0.05,0,0,0
1.52847372285265E+018,294,1.52847372285209E+018,0,0,0,0,0,0,1,0.1,0,0,0,0,0,0,0.1,0,0,0,0,0,0,10000000000,0,0,0,0,0,0,10000000000,0,0,0,0,0,0,10000000000,0,0,0,0,0,0,0.05,0,0,0
1.52847372287522E+018,295,1.52847372287446E+018,0,0,0,0,0,0,1,0.1,0,0,0,0,0,0,0.1,0,0,0,0,0,0,10000000000,0,0,0,0,0,0,10000000000,0,0,0,0,0,0,10000000000,0,0,0,0,0,0,0.05,0,0,0
1.52847372293461E+018,296,1.52847372293415E+018,0,0,0,0,0,0,1,0.1,0,0,0,0,0,0,0.1,0,0,0,0,0,0,10000000000,0,0,0,0,0,0,10000000000,0,0,0,0,0,0,10000000000,0,0,0,0,0,0,0.05,0,0,0
1.52847372299456E+018,297,1.52847372299407E+018,0,0,0,0,0,0,1,0.1,0,0,0,0,0,0,0.1,0,0,0,0,0,0,10000000000,0,0,0,0,0,0,10000000000,0,0,0,0,0,0,10000000000,0,0,0,0,0,0,0.05,0,0,0
1.52847372305466E+018,298,1.52847372305417E+018,0,0,0,0,0,0,1,0.1,0,0,0,0,0,0,0.1,0,0,0,0,0,0,10000000000,0,0,0,0,0,0,10000000000,0,0,0,0,0,0,10000000000,0,0,0,0,0,0,0.05,0,0,0
1.5284737231144E+018,299,1.52847372311401E+018,0,0,0,0,0,0,1,0.1,0,0,0,0,0,0,0.1,0,0,0,0,0,0,10000000000,0,0,0,0,0,0,10000000000,0,0,0,0,0,0,10000000000,0,0,0,0,0,0,0.05,0,0,0
1.5284737231739E+018,300,1.52847372317308E+018,0,0,0,0,0,0,1,0.1,0,0,0,0,0,0,0.1,0,0,0,0,0,0,10000000000,0,0,0,0,0,0,10000000000,0,0,0,0,0,0,10000000000,0,0,0,0,0,0,0.05,0,0,0
1.52847372319445E+018,301,1.52847372319398E+018,0,0,0,0,0,0,1,0.1,0,0,0,0,0,0,0.1,0,0,0,0,0,0,10000000000,0,0,0,0,0,0,10000000000,0,0,0,0,0,0,10000000000,0,0,0,0,0,0,0.05,0,0,0
1.52847372325351E+018,302,1.52847372325303E+018,0,0,0,0,0,0,1,0.1,0,0,0,0,0,0,0.1,0,0,0,0,0,0,10000000000,0,0,0,0,0,0,10000000000,0,0,0,0,0,0,10000000000,0,0,0,0,0,0,0.05,0,0,0
1.52847372331331E+018,303,1.52847372331287E+018,0,0,0,0,0,0,1,0.1,0,0,0,0,0,0,0.1,0,0,0,0,0,0,10000000000,0,0,0,0,0,0,10000000000,0,0,0,0,0,0,10000000000,0,0,0,0,0,0,0.05,0,0,0
1.52847372337117E+018,304,1.52847372337083E+018,0,0,0,0,0,0,1,0.1,0,0,0,0,0,0,0.1,0,0,0,0,0,0,10000000000,0,0,0,0,0,0,10000000000,0,0,0,0,0,0,10000000000,0,0,0,0,0,0,0.05,0,0,0
1.5284737233933E+018,305,1.52847372339287E+018,0,0,0,0,0,0,1,0.1,0,0,0,0,0,0,0.1,0,0,0,0,0,0,10000000000,0,0,0,0,0,0,10000000000,0,0,0,0,0,0,10000000000,0,0,0,0,0,0,0.05,0,0,0
1.52847372345125E+018,306,1.52847372345084E+018,0,0,0,0,0,0,1,0.1,0,0,0,0,0,0,0.1,0,0,0,0,0,0,10000000000,0,0,0,0,0,0,10000000000,0,0,0,0,0,0,10000000000,0,0,0,0,0,0,0.05,0,0,0
1.52847372347405E+018,307,1.52847372347315E+018,0,0,0,0,0,0,1,0.1,0,0,0,0,0,0,0.1,0,0,0,0,0,0,10000000000,0,0,0,0,0,0,10000000000,0,0,0,0,0,0,10000000000,0,0,0,0,0,0,0.05,0,0,0
1.52847372353316E+018,308,1.52847372353276E+018,0,0,0,0,0,0,1,0.1,0,0,0,0,0,0,0.1,0,0,0,0,0,0,10000000000,0,0,0,0,0,0,10000000000,0,0,0,0,0,0,10000000000,0,0,0,0,0,0,0.05,0,0,0
1.52847372359111E+018,309,1.52847372359071E+018,0,0,0,0,0,0,1,0.1,0,0,0,0,0,0,0.1,0,0,0,0,0,0,10000000000,0,0,0,0,0,0,10000000000,0,0,0,0,0,0,10000000000,0,0,0,0,0,0,0.05,0,0,0
1.52847372361323E+018,310,1.52847372361283E+018,0,0,0,0,0,0,1,0.1,0,0,0,0,0,0,0.1,0,0,0,0,0,0,10000000000,0,0,0,0,0,0,10000000000,0,0,0,0,0,0,10000000000,0,0,0,0,0,0,0.05,0,0,0
1.52847372367238E+018,311,1.52847372367191E+018,0,0,0,0,0,0,1,0.1,0,0,0,0,0,0,0.1,0,0,0,0,0,0,10000000000,0,0,0,0,0,0,10000000000,0,0,0,0,0,0,10000000000,0,0,0,0,0,0,0.05,0,0,0
1.52847372369337E+018,312,1.52847372369289E+018,0,0,0,0,0,0,1,0.1,0,0,0,0,0,0,0.1,0,0,0,0,0,0,10000000000,0,0,0,0,0,0,10000000000,0,0,0,0,0,0,10000000000,0,0,0,0,0,0,0.05,0,0,0
1.52847372375313E+018,313,1.52847372375277E+018,0,0,0,0,0,0,1,0.1,0,0,0,0,0,0,0.1,0,0,0,0,0,0,10000000000,0,0,0,0,0,0,10000000000,0,0,0,0,0,0,10000000000,0,0,0,0,0,0,0.05,0,0,0
1.52847372381217E+018,314,1.52847372381174E+018,0,0,0,0,0,0,1,0.1,0,0,0,0,0,0,0.1,0,0,0,0,0,0,10000000000,0,0,0,0,0,0,10000000000,0,0,0,0,0,0,10000000000,0,0,0,0,0,0,0.05,0,0,0
1.52847372386992E+018,315,1.52847372386957E+018,0,0,0,0,0,0,1,0.1,0,0,0,0,0,0,0.1,0,0,0,0,0,0,10000000000,0,0,0,0,0,0,10000000000,0,0,0,0,0,0,10000000000,0,0,0,0,0,0,0.05,0,0,0
1.52847372389195E+018,316,1.52847372389165E+018,0,0,0,0,0,0,1,0.1,0,0,0,0,0,0,0.1,0,0,0,0,0,0,10000000000,0,0,0,0,0,0,10000000000,0,0,0,0,0,0,10000000000,0,0,0,0,0,0,0.05,0,0,0
1.52847372395203E+018,317,1.52847372395163E+018,0,0,0,0,0,0,1,0.1,0,0,0,0,0,0,0.1,0,0,0,0,0,0,10000000000,0,0,0,0,0,0,10000000000,0,0,0,0,0,0,10000000000,0,0,0,0,0,0,0.05,0,0,0
1.52847372401221E+018,318,1.52847372401164E+018,0,0,0,0,0,0,1,0.1,0,0,0,0,0,0,0.1,0,0,0,0,0,0,10000000000,0,0,0,0,0,0,10000000000,0,0,0,0,0,0,10000000000,0,0,0,0,0,0,0.05,0,0,0
1.52847372407198E+018,319,1.52847372407154E+018,0,0,0,0,0,0,1,0.1,0,0,0,0,0,0,0.1,0,0,0,0,0,0,10000000000,0,0,0,0,0,0,10000000000,0,0,0,0,0,0,10000000000,0,0,0,0,0,0,0.05,0,0,0
1.52847372413187E+018,320,1.52847372413151E+018,0,0,0,0,0,0,1,0.1,0,0,0,0,0,0,0.1,0,0,0,0,0,0,10000000000,0,0,0,0,0,0,10000000000,0,0,0,0,0,0,10000000000,0,0,0,0,0,0,0.05,0,0,0
1.52847372419107E+018,321,1.52847372419056E+018,0,0,0,0,0,0,1,0.1,0,0,0,0,0,0,0.1,0,0,0,0,0,0,10000000000,0,0,0,0,0,0,10000000000,0,0,0,0,0,0,10000000000,0,0,0,0,0,0,0.05,0,0,0
1.52847372421189E+018,322,1.5284737242115E+018,0,0,0,0,0,0,1,0.1,0,0,0,0,0,0,0.1,0,0,0,0,0,0,10000000000,0,0,0,0,0,0,10000000000,0,0,0,0,0,0,10000000000,0,0,0,0,0,0,0.05,0,0,0
1.52847372427123E+018,323,1.52847372427055E+018,0,0,0,0,0,0,1,0.1,0,0,0,0,0,0,0.1,0,0,0,0,0,0,10000000000,0,0,0,0,0,0,10000000000,0,0,0,0,0,0,10000000000,0,0,0,0,0,0,0.05,0,0,0
1.52847372432882E+018,324,1.52847372432836E+018,0,0,0,0,0,0,1,0.1,0,0,0,0,0,0,0.1,0,0,0,0,0,0,10000000000,0,0,0,0,0,0,10000000000,0,0,0,0,0,0,10000000000,0,0,0,0,0,0,0.05,0,0,0
1.52847372435188E+018,325,1.52847372435138E+018,0,0,0,0,0,0,1,0.1,0,0,0,0,0,0,0.1,0,0,0,0,0,0,10000000000,0,0,0,0,0,0,10000000000,0,0,0,0,0,0,10000000000,0,0,0,0,0,0,0.05,0,0,0
1.52847372441098E+018,326,1.52847372441051E+018,0,0,0,0,0,0,1,0.1,0,0,0,0,0,0,0.1,0,0,0,0,0,0,10000000000,0,0,0,0,0,0,10000000000,0,0,0,0,0,0,10000000000,0,0,0,0,0,0,0.05,0,0,0
1.52847372447124E+018,327,1.52847372447045E+018,0,0,0,0,0,0,1,0.1,0,0,0,0,0,0,0.1,0,0,0,0,0,0,10000000000,0,0,0,0,0,0,10000000000,0,0,0,0,0,0,10000000000,0,0,0,0,0,0,0.05,0,0,0
1.52847372452899E+018,328,1.52847372452844E+018,0,0,0,0,0,0,1,0.1,0,0,0,0,0,0,0.1,0,0,0,0,0,0,10000000000,0,0,0,0,0,0,10000000000,0,0,0,0,0,0,10000000000,0,0,0,0,0,0,0.05,0,0,0
1.52847372455106E+018,329,1.52847372455052E+018,0,0,0,0,0,0,1,0.1,0,0,0,0,0,0,0.1,0,0,0,0,0,0,10000000000,0,0,0,0,0,0,10000000000,0,0,0,0,0,0,10000000000,0,0,0,0,0,0,0.05,0,0,0
1.52847372460882E+018,330,1.52847372460835E+018,0,0,0,0,0,0,1,0.1,0,0,0,0,0,0,0.1,0,0,0,0,0,0,10000000000,0,0,0,0,0,0,10000000000,0,0,0,0,0,0,10000000000,0,0,0,0,0,0,0.05,0,0,0
1.52847372463061E+018,331,1.52847372463024E+018,0,0,0,0,0,0,1,0.1,0,0,0,0,0,0,0.1,0,0,0,0,0,0,10000000000,0,0,0,0,0,0,10000000000,0,0,0,0,0,0,10000000000,0,0,0,0,0,0,0.05,0,0,0
1.52847372469069E+018,332,1.52847372469031E+018,0,0,0,0,0,0,1,0.1,0,0,0,0,0,0,0.1,0,0,0,0,0,0,10000000000,0,0,0,0,0,0,10000000000,0,0,0,0,0,0,10000000000,0,0,0,0,0,0,0.05,0,0,0
1.52847372475069E+018,333,1.52847372475024E+018,0,0,0,0,0,0,1,0.1,0,0,0,0,0,0,0.1,0,0,0,0,0,0,10000000000,0,0,0,0,0,0,10000000000,0,0,0,0,0,0,10000000000,0,0,0,0,0,0,0.05,0,0,0
1.52847372480972E+018,334,1.52847372480928E+018,0,0,0,0,0,0,1,0.1,0,0,0,0,0,0,0.1,0,0,0,0,0,0,10000000000,0,0,0,0,0,0,10000000000,0,0,0,0,0,0,10000000000,0,0,0,0,0,0,0.05,0,0,0
1.52847372486757E+018,335,1.5284737248672E+018,0,0,0,0,0,0,1,0.1,0,0,0,0,0,0,0.1,0,0,0,0,0,0,10000000000,0,0,0,0,0,0,10000000000,0,0,0,0,0,0,10000000000,0,0,0,0,0,0,0.05,0,0,0
1.5284737248911E+018,336,1.52847372489034E+018,0,0,0,0,0,0,1,0.1,0,0,0,0,0,0,0.1,0,0,0,0,0,0,10000000000,0,0,0,0,0,0,10000000000,0,0,0,0,0,0,10000000000,0,0,0,0,0,0,0.05,0,0,0
1.52847372490678E+018,337,1.5284737249062E+018,0,0,0,0,0,0,1,0.1,0,0,0,0,0,0,0.1,0,0,0,0,0,0,10000000000,0,0,0,0,0,0,10000000000,0,0,0,0,0,0,10000000000,0,0,0,0,0,0,0.05,0,0,0
1.52847372492969E+018,338,1.52847372492924E+018,0,0,0,0,0,0,1,0.1,0,0,0,0,0,0,0.1,0,0,0,0,0,0,10000000000,0,0,0,0,0,0,10000000000,0,0,0,0,0,0,10000000000,0,0,0,0,0,0,0.05,0,0,0
1.52847372498845E+018,339,1.5284737249876E+018,0,0,0,0,0,0,1,0.1,0,0,0,0,0,0,0.1,0,0,0,0,0,0,10000000000,0,0,0,0,0,0,10000000000,0,0,0,0,0,0,10000000000,0,0,0,0,0,0,0.05,0,0,0
1.52847372500951E+018,340,1.52847372500917E+018,0,0,0,0,0,0,1,0.1,0,0,0,0,0,0,0.1,0,0,0,0,0,0,10000000000,0,0,0,0,0,0,10000000000,0,0,0,0,0,0,10000000000,0,0,0,0,0,0,0.05,0,0,0
1.52847372506957E+018,341,1.52847372506917E+018,0,0,0,0,0,0,1,0.1,0,0,0,0,0,0,0.1,0,0,0,0,0,0,10000000000,0,0,0,0,0,0,10000000000,0,0,0,0,0,0,10000000000,0,0,0,0,0,0,0.05,0,0,0
1.52847372512742E+018,342,1.52847372512707E+018,0,0,0,0,0,0,1,0.1,0,0,0,0,0,0,0.1,0,0,0,0,0,0,10000000000,0,0,0,0,0,0,10000000000,0,0,0,0,0,0,10000000000,0,0,0,0,0,0,0.05,0,0,0
1.52847372514977E+018,343,1.52847372514928E+018,0,0,0,0,0,0,1,0.1,0,0,0,0,0,0,0.1,0,0,0,0,0,0,10000000000,0,0,0,0,0,0,10000000000,0,0,0,0,0,0,10000000000,0,0,0,0,0,0,0.05,0,0,0
1.52847372520962E+018,344,1.52847372520916E+018,0,0,0,0,0,0,1,0.1,0,0,0,0,0,0,0.1,0,0,0,0,0,0,10000000000,0,0,0,0,0,0,10000000000,0,0,0,0,0,0,10000000000,0,0,0,0,0,0,0.05,0,0,0
1.52847372526975E+018,345,1.52847372526926E+018,0,0,0,0,0,0,1,0.1,0,0,0,0,0,0,0.1,0,0,0,0,0,0,10000000000,0,0,0,0,0,0,10000000000,0,0,0,0,0,0,10000000000,0,0,0,0,0,0,0.05,0,0,0
1.52847372532846E+018,346,1.52847372532801E+018,0,0,0,0,0,0,1,0.1,0,0,0,0,0,0,0.1,0,0,0,0,0,0,10000000000,0,0,0,0,0,0,10000000000,0,0,0,0,0,0,10000000000,0,0,0,0,0,0,0.05,0,0,0
1.52847372534939E+018,347,1.52847372534897E+018,0,0,0,0,0,0,1,0.1,0,0,0,0,0,0,0.1,0,0,0,0,0,0,10000000000,0,0,0,0,0,0,10000000000,0,0,0,0,0,0,10000000000,0,0,0,0,0,0,0.05,0,0,0
1.52847372540965E+018,348,1.52847372540906E+018,0,0,0,0,0,0,1,0.1,0,0,0,0,0,0,0.1,0,0,0,0,0,0,10000000000,0,0,0,0,0,0,10000000000,0,0,0,0,0,0,10000000000,0,0,0,0,0,0,0.05,0,0,0
1.52847372546841E+018,349,1.528473725468E+018,0,0,0,0,0,0,1,0.1,0,0,0,0,0,0,0.1,0,0,0,0,0,0,10000000000,0,0,0,0,0,0,10000000000,0,0,0,0,0,0,10000000000,0,0,0,0,0,0,0.05,0,0,0
1.52847372552649E+018,350,1.52847372552599E+018,0,0,0,0,0,0,1,0.1,0,0,0,0,0,0,0.1,0,0,0,0,0,0,10000000000,0,0,0,0,0,0,10000000000,0,0,0,0,0,0,10000000000,0,0,0,0,0,0,0.05,0,0,0
1.52847372554839E+018,351,1.52847372554797E+018,0,0,0,0,0,0,1,0.1,0,0,0,0,0,0,0.1,0,0,0,0,0,0,10000000000,0,0,0,0,0,0,10000000000,0,0,0,0,0,0,10000000000,0,0,0,0,0,0,0.05,0,0,0
1.52847372560835E+018,352,1.528473725608E+018,0,0,0,0,0,0,1,0.1,0,0,0,0,0,0,0.1,0,0,0,0,0,0,10000000000,0,0,0,0,0,0,10000000000,0,0,0,0,0,0,10000000000,0,0,0,0,0,0,0.05,0,0,0
1.52847372566838E+018,353,1.52847372566791E+018,0,0,0,0,0,0,1,0.1,0,0,0,0,0,0,0.1,0,0,0,0,0,0,10000000000,0,0,0,0,0,0,10000000000,0,0,0,0,0,0,10000000000,0,0,0,0,0,0,0.05,0,0,0
1.52847372572823E+018,354,1.52847372572788E+018,0,0,0,0,0,0,1,0.1,0,0,0,0,0,0,0.1,0,0,0,0,0,0,10000000000,0,0,0,0,0,0,10000000000,0,0,0,0,0,0,10000000000,0,0,0,0,0,0,0.05,0,0,0
1.52847372578832E+018,355,1.52847372578792E+018,0,0,0,0,0,0,1,0.1,0,0,0,0,0,0,0.1,0,0,0,0,0,0,10000000000,0,0,0,0,0,0,10000000000,0,0,0,0,0,0,10000000000,0,0,0,0,0,0,0.05,0,0,0
1.5284737258472E+018,356,1.52847372584685E+018,0,0,0,0,0,0,1,0.1,0,0,0,0,0,0,0.1,0,0,0,0,0,0,10000000000,0,0,0,0,0,0,10000000000,0,0,0,0,0,0,10000000000,0,0,0,0,0,0,0.05,0,0,0
1.52847372586827E+018,357,1.52847372586786E+018,0,0,0,0,0,0,1,0.1,0,0,0,0,0,0,0.1,0,0,0,0,0,0,10000000000,0,0,0,0,0,0,10000000000,0,0,0,0,0,0,10000000000,0,0,0,0,0,0,0.05,0,0,0
1.5284737259281E+018,358,1.52847372592787E+018,0,0,0,0,0,0,1,0.1,0,0,0,0,0,0,0.1,0,0,0,0,0,0,10000000000,0,0,0,0,0,0,10000000000,0,0,0,0,0,0,10000000000,0,0,0,0,0,0,0.05,0,0,0
1.52847372598803E+018,359,1.52847372598715E+018,0,0,0,0,0,0,1,0.1,0,0,0,0,0,0,0.1,0,0,0,0,0,0,10000000000,0,0,0,0,0,0,10000000000,0,0,0,0,0,0,10000000000,0,0,0,0,0,0,0.05,0,0,0
1.52847372604519E+018,360,1.52847372604476E+018,0,0,0,0,0,0,1,0.1,0,0,0,0,0,0,0.1,0,0,0,0,0,0,10000000000,0,0,0,0,0,0,10000000000,0,0,0,0,0,0,10000000000,0,0,0,0,0,0,0.05,0,0,0
1.52847372606728E+018,361,1.52847372606684E+018,0,0,0,0,0,0,1,0.1,0,0,0,0,0,0,0.1,0,0,0,0,0,0,10000000000,0,0,0,0,0,0,10000000000,0,0,0,0,0,0,10000000000,0,0,0,0,0,0,0.05,0,0,0
1.5284737261272E+018,362,1.52847372612678E+018,0,0,0,0,0,0,1,0.1,0,0,0,0,0,0,0.1,0,0,0,0,0,0,10000000000,0,0,0,0,0,0,10000000000,0,0,0,0,0,0,10000000000,0,0,0,0,0,0,0.05,0,0,0
1.52847372618506E+018,363,1.52847372618464E+018,0,0,0,0,0,0,1,0.1,0,0,0,0,0,0,0.1,0,0,0,0,0,0,10000000000,0,0,0,0,0,0,10000000000,0,0,0,0,0,0,10000000000,0,0,0,0,0,0,0.05,0,0,0
1.52847372620707E+018,364,1.52847372620666E+018,0,0,0,0,0,0,1,0.1,0,0,0,0,0,0,0.1,0,0,0,0,0,0,10000000000,0,0,0,0,0,0,10000000000,0,0,0,0,0,0,10000000000,0,0,0,0,0,0,0.05,0,0,0
1.52847372626508E+018,365,1.52847372626469E+018,0,0,0,0,0,0,1,0.1,0,0,0,0,0,0,0.1,0,0,0,0,0,0,10000000000,0,0,0,0,0,0,10000000000,0,0,0,0,0,0,10000000000,0,0,0,0,0,0,0.05,0,0,0
1.52847372628775E+018,366,1.52847372628699E+018,0,0,0,0,0,0,1,0.1,0,0,0,0,0,0,0.1,0,0,0,0,0,0,10000000000,0,0,0,0,0,0,10000000000,0,0,0,0,0,0,10000000000,0,0,0,0,0,0,0.05,0,0,0
1.52847372634606E+018,367,1.52847372634565E+018,0,0,0,0,0,0,1,0.1,0,0,0,0,0,0,0.1,0,0,0,0,0,0,10000000000,0,0,0,0,0,0,10000000000,0,0,0,0,0,0,10000000000,0,0,0,0,0,0,0.05,0,0,0
1.52847372640395E+018,368,1.52847372640355E+018,0,0,0,0,0,0,1,0.1,0,0,0,0,0,0,0.1,0,0,0,0,0,0,10000000000,0,0,0,0,0,0,10000000000,0,0,0,0,0,0,10000000000,0,0,0,0,0,0,0.05,0,0,0
1.52847372642713E+018,369,1.52847372642665E+018,0,0,0,0,0,0,1,0.1,0,0,0,0,0,0,0.1,0,0,0,0,0,0,10000000000,0,0,0,0,0,0,10000000000,0,0,0,0,0,0,10000000000,0,0,0,0,0,0,0.05,0,0,0
1.52847372648611E+018,370,1.52847372648572E+018,0,0,0,0,0,0,1,0.1,0,0,0,0,0,0,0.1,0,0,0,0,0,0,10000000000,0,0,0,0,0,0,10000000000,0,0,0,0,0,0,10000000000,0,0,0,0,0,0,0.05,0,0,0
1.52847372654398E+018,371,1.5284737265436E+018,0,0,0,0,0,0,1,0.1,0,0,0,0,0,0,0.1,0,0,0,0,0,0,10000000000,0,0,0,0,0,0,10000000000,0,0,0,0,0,0,10000000000,0,0,0,0,0,0,0.05,0,0,0
1.52847372656588E+018,372,1.52847372656554E+018,0,0,0,0,0,0,1,0.1,0,0,0,0,0,0,0.1,0,0,0,0,0,0,10000000000,0,0,0,0,0,0,10000000000,0,0,0,0,0,0,10000000000,0,0,0,0,0,0,0.05,0,0,0
1.52847372662615E+018,373,1.5284737266256E+018,0,0,0,0,0,0,1,0.1,0,0,0,0,0,0,0.1,0,0,0,0,0,0,10000000000,0,0,0,0,0,0,10000000000,0,0,0,0,0,0,10000000000,0,0,0,0,0,0,0.05,0,0,0
1.52847372668395E+018,374,1.52847372668346E+018,0,0,0,0,0,0,1,0.1,0,0,0,0,0,0,0.1,0,0,0,0,0,0,10000000000,0,0,0,0,0,0,10000000000,0,0,0,0,0,0,10000000000,0,0,0,0,0,0,0.05,0,0,0
1.52847372670598E+018,375,1.52847372670553E+018,0,0,0,0,0,0,1,0.1,0,0,0,0,0,0,0.1,0,0,0,0,0,0,10000000000,0,0,0,0,0,0,10000000000,0,0,0,0,0,0,10000000000,0,0,0,0,0,0,0.05,0,0,0
1.52847372676601E+018,376,1.52847372676555E+018,0,0,0,0,0,0,1,0.1,0,0,0,0,0,0,0.1,0,0,0,0,0,0,10000000000,0,0,0,0,0,0,10000000000,0,0,0,0,0,0,10000000000,0,0,0,0,0,0,0.05,0,0,0
1.52847372682575E+018,377,1.52847372682536E+018,0,0,0,0,0,0,1,0.1,0,0,0,0,0,0,0.1,0,0,0,0,0,0,10000000000,0,0,0,0,0,0,10000000000,0,0,0,0,0,0,10000000000,0,0,0,0,0,0,0.05,0,0,-0.0019198622
1.52847372688587E+018,378,1.52847372688546E+018,0,0,0,0,0,-8.7266462489E-05,0.9999999962,0.1,0,0,0,0,0,0,0.1,0,0,0,0,0,0,10000000000,0,0,0,0,0,0,10000000000,0,0,0,0,0,0,10000000000,0,0,0,0,0,0,0.05,0,0,-0.002443461
1.52847372694578E+018,379,1.52847372694536E+018,-0.0013220273,2.30737302763E-07,0,0,0,-0.0001745329,0.9999999848,0.1,0,0,0,0,0,0,0.1,0,0,0,0,0,0,10000000000,0,0,0,0,0,0,10000000000,0,0,0,0,0,0,10000000000,0,0,0,0,0,0,0.05,-0.0220337895,0,-0.0008726646
1.52847372700488E+018,380,1.52847372700442E+018,-0.0026440546,6.92211901262E-07,0,0,0,-0.0001745329,0.9999999848,0.1,0,0,0,0,0,0,0.1,0,0,0,0,0,0,10000000000,0,0,0,0,0,0,10000000000,0,0,0,0,0,0,10000000000,0,0,0,0,0,0,0.05,-0.0220337895,0,-0.0017453293
1.5284737270625E+018,381,1.52847372706217E+018,-0.0041793121,1.22811788661E-06,0,0,0,0,1,0.1,0,0,0,0,0,0,0.1,0,0,0,0,0,0,10000000000,0,0,0,0,0,0,10000000000,0,0,0,0,0,0,10000000000,0,0,0,0,0,0,0.05,-0.0255876265,0,0.0078539816
1.52847372708525E+018,382,1.52847372708432E+018,-0.0046910647,1.22811788661E-06,0,0,0,0,1,0.1,0,0,0,0,0,0,0.1,0,0,0,0,0,0,10000000000,0,0,0,0,0,0,10000000000,0,0,0,0,0,0,10000000000,0,0,0,0,0,0,0.05,-0.0255876265,0,0.006981317
1.52847372714477E+018,383,1.52847372714428E+018,-0.0064821985,1.22811788661E-06,0,0,0,0,1,0.1,0,0,0,0,0,0,0.1,0,0,0,0,0,0,10000000000,0,0,0,0,0,0,10000000000,0,0,0,0,0,0,10000000000,0,0,0,0,0,0,0.05,-0.0298522309,0,-0.0012217305
1.5284737272027E+018,384,1.52847372720221E+018,-0.0083586245,1.22811788661E-06,0,0,0,0,1,0.1,0,0,0,0,0,0,0.1,0,0,0,0,0,0,10000000000,0,0,0,0,0,0,10000000000,0,0,0,0,0,0,10000000000,0,0,0,0,0,0,0.05,-0.0312737657,0,-0.0068067841
1.5284737272249E+018,385,1.52847372722442E+018,-0.0087850849,1.22811788661E-06,0,0,0,-8.7266462489E-05,0.9999999962,0.1,0,0,0,0,0,0,0.1,0,0,0,0,0,0,10000000000,0,0,0,0,0,0,10000000000,0,0,0,0,0,0,10000000000,0,0,0,0,0,0,0.05,-0.0213230221,0,-0.0132645023
1.5284737272847E+018,386,1.52847372728428E+018,-0.0103203425,1.49607088337E-06,0,0,0,-0.0003490658,0.9999999391,0.1,0,0,0,0,0,0,0.1,0,0,0,0,0,0,10000000000,0,0,0,0,0,0,10000000000,0,0,0,0,0,0,10000000000,0,0,0,0,0,0,0.05,-0.0255876265,0,0.0012217305
1.52847372734502E+018,387,1.52847372734443E+018,-0.0118982457,2.59765534171E-06,0,0,0,-0.0002617994,0.9999999657,0.1,0,0,0,0,0,0,0.1,0,0,0,0,0,0,10000000000,0,0,0,0,0,0,10000000000,0,0,0,0,0,0,10000000000,0,0,0,0,0,0,0.05,-0.0262983939,0,0.0031415927
1.52847372740458E+018,388,1.52847372740416E+018,-0.0136467333,3.51316137678E-06,0,0,0,0,1,0.1,0,0,0,0,0,0,0.1,0,0,0,0,0,0,10000000000,0,0,0,0,0,0,10000000000,0,0,0,0,0,0,10000000000,0,0,0,0,0,0,0.05,-0.0291414635,0,0.0127409035
1.52847372746463E+018,389,1.52847372746417E+018,-0.0153952211,3.51316137678E-06,0,0,0,0,1,0.1,0,0,0,0,0,0,0.1,0,0,0,0,0,0,10000000000,0,0,0,0,0,0,10000000000,0,0,0,0,0,0,10000000000,0,0,0,0,0,0,0.05,-0.0291414635,0,-0.0061086524
1.52847372752462E+018,390,1.52847372752412E+018,-0.017229001,3.51316137678E-06,0,0,0,-0.0002617994,0.9999999657,0.1,0,0,0,0,0,0,0.1,0,0,0,0,0,0,10000000000,0,0,0,0,0,0,10000000000,0,0,0,0,0,0,10000000000,0,0,0,0,0,0,0.05,-0.0305629983,0,-0.0102974426
1.52847372758445E+018,391,1.52847372758403E+018,-0.0188069044,4.33934974989E-06,0,0,0,-0.0004363323,0.9999999048,0.1,0,0,0,0,0,0,0.1,0,0,0,0,0,0,10000000000,0,0,0,0,0,0,10000000000,0,0,0,0,0,0,10000000000,0,0,0,0,0,0,0.05,-0.0262983939,0,0.0006981317
1.52847372764345E+018,392,1.52847372764303E+018,-0.0203421614,5.67911457043E-06,0,0,0,-0.0002617994,0.9999999657,0.1,0,0,0,0,0,0,0.1,0,0,0,0,0,0,10000000000,0,0,0,0,0,0,10000000000,0,0,0,0,0,0,10000000000,0,0,0,0,0,0,0.05,-0.0255876265,0,0.0066322512
1.52847372770158E+018,393,1.52847372770114E+018,-0.0219627109,6.52763235903E-06,0,0,0,-8.7266462489E-05,0.9999999962,0.1,0,0,0,0,0,0,0.1,0,0,0,0,0,0,10000000000,0,0,0,0,0,0,10000000000,0,0,0,0,0,0,10000000000,0,0,0,0,0,0,0.05,-0.0270091613,0,0
1.5284737277237E+018,394,1.52847372772318E+018,-0.0225597555,6.63183630222E-06,0,0,0,-8.7266462489E-05,0.9999999962,0.1,0,0,0,0,0,0,0.1,0,0,0,0,0,0,10000000000,0,0,0,0,0,0,10000000000,0,0,0,0,0,0,10000000000,0,0,0,0,0,0,0.05,-0.0298522309,0,0.0010471976
1.52847372778361E+018,395,1.52847372778317E+018,-0.0267817138,7.3687070433E-06,0,0,0,-8.7266462489E-05,0.9999999962,0.1,0,0,0,0,0,0,0.1,0,0,0,0,0,0,10000000000,0,0,0,0,0,0,10000000000,0,0,0,0,0,0,10000000000,0,0,0,0,0,0,0.05,-0.0703659729,0,-0.0015707963
1.52847372784128E+018,396,1.52847372784095E+018,-0.0307477958,8.06091895159E-06,0,0,0,-0.0005235988,0.9999998629,0.1,0,0,0,0,0,0,0.1,0,0,0,0,0,0,10000000000,0,0,0,0,0,0,10000000000,0,0,0,0,0,0,10000000000,0,0,0,0,0,0,0.05,-0.0661013685,0,-0.0244346095
1.52847372786355E+018,397,1.52847372786308E+018,-0.0320698225,9.44534252217E-06,0,0,0,-0.0006981316,0.9999997563,0.1,0,0,0,0,0,0,0.1,0,0,0,0,0,0,10000000000,0,0,0,0,0,0,10000000000,0,0,0,0,0,0,10000000000,0,0,0,0,0,0,0.05,-0.0661013685,0,-0.0106465084
1.52847372792351E+018,398,1.52847372792303E+018,-0.0365902988,1.57571222048E-05,0,0,0,-8.7266462489E-05,0.9999999962,0.1,0,0,0,0,0,0,0.1,0,0,0,0,0,0,10000000000,0,0,0,0,0,0,10000000000,0,0,0,0,0,0,10000000000,0,0,0,0,0,0,0.05,-0.0753413447,0,0.0211184839
1.52847372798408E+018,399,1.52847372798308E+018,-0.0408549031,1.65014360846E-05,0,0,0,-0.0003490658,0.9999999391,0.1,0,0,0,0,0,0,0.1,0,0,0,0,0,0,10000000000,0,0,0,0,0,0,10000000000,0,0,0,0,0,0,10000000000,0,0,0,0,0,0,0.05,-0.0710767403,0,-0.030368729
1.52847372804323E+018,400,1.52847372804288E+018,-0.0455886129,1.98061894596E-05,0,0,0,0,1,0.1,0,0,0,0,0,0,0.1,0,0,0,0,0,0,10000000000,0,0,0,0,0,0,10000000000,0,0,0,0,0,0,10000000000,0,0,0,0,0,0,0.05,-0.0788951817,0,0.0385717765
1.52847372810241E+018,401,1.52847372810194E+018,-0.0494694029,1.98061894596E-05,0,0,0,-0.0001745329,0.9999999848,0.1,0,0,0,0,0,0,0.1,0,0,0,0,0,0,10000000000,0,0,0,0,0,0,10000000000,0,0,0,0,0,0,10000000000,0,0,0,0,0,0,0.05,-0.0646798337,0,-0.0383972435
1.52847372816023E+018,402,1.52847372815985E+018,-0.0540325293,0.000021399,0,0,0,-0.0001745329,0.9999999848,0.1,0,0,0,0,0,0,0.1,0,0,0,0,0,0,10000000000,0,0,0,0,0,0,10000000000,0,0,0,0,0,0,10000000000,0,0,0,0,0,0,0.05,-0.0760521121,0,0.034906585
1.5284737281836E+018,403,1.52847372818295E+018,-0.0552266185,2.18158369047E-05,0,0,0,8.7266462489E-05,0.9999999962,0.1,0,0,0,0,0,0,0.1,0,0,0,0,0,0,10000000000,0,0,0,0,0,0,10000000000,0,0,0,0,0,0,10000000000,0,0,0,0,0,0,0.05,-0.0597044618,0,0.034906585
1.52847372824213E+018,404,1.52847372824176E+018,-0.0594912228,2.10715230248E-05,0,0,0,-0.0001745329,0.9999999848,0.1,0,0,0,0,0,0,0.1,0,0,0,0,0,0,10000000000,0,0,0,0,0,0,10000000000,0,0,0,0,0,0,10000000000,0,0,0,0,0,0,0.05,-0.0710767403,0,-0.037350046
1.52847372830136E+018,405,1.52847372829992E+018,-0.0638411191,2.25899233167E-05,0,0,0,8.7266462489E-05,0.9999999962,0.1,0,0,0,0,0,0,0.1,0,0,0,0,0,0,10000000000,0,0,0,0,0,0,10000000000,0,0,0,0,0,0,10000000000,0,0,0,0,0,0,0.05,-0.0724982751,0,0.039618974
1.52847372832245E+018,406,1.52847372832192E+018,-0.0652484385,2.23442997363E-05,0,0,0,0.0002617994,0.9999999657,0.1,0,0,0,0,0,0,0.1,0,0,0,0,0,0,10000000000,0,0,0,0,0,0,10000000000,0,0,0,0,0,0,10000000000,0,0,0,0,0,0,0.05,-0.0703659729,0,0.016231562
1.52847372838227E+018,407,1.52847372838179E+018,-0.0697689186,1.99773816944E-05,0,0,0,-0.0003490658,0.9999999391,0.1,0,0,0,0,0,0,0.1,0,0,0,0,0,0,10000000000,0,0,0,0,0,0,10000000000,0,0,0,0,0,0,10000000000,0,0,0,0,0,0,0.05,-0.0753413447,0,-0.0317649924
1.52847372844017E+018,408,1.52847372843972E+018,-0.074033522,2.29546369872E-05,0,0,0,0.0002617994,0.9999999657,0.1,0,0,0,0,0,0,0.1,0,0,0,0,0,0,10000000000,0,0,0,0,0,0,10000000000,0,0,0,0,0,0,10000000000,0,0,0,0,0,0,0.05,-0.0710767403,0,0.0317649924
1.52847372846245E+018,409,1.52847372846192E+018,-0.0754834873,2.21954368606E-05,0,0,0,0.0002617994,0.9999999657,0.1,0,0,0,0,0,0,0.1,0,0,0,0,0,0,10000000000,0,0,0,0,0,0,10000000000,0,0,0,0,0,0,10000000000,0,0,0,0,0,0,0.05,-0.0724982751,0,-0.0029670597
1.528473728522E+018,410,1.52847372852164E+018,-0.0799613213,1.98508482342E-05,0,0,0,-0.0003490658,0.9999999391,0.1,0,0,0,0,0,0,0.1,0,0,0,0,0,0,10000000000,0,0,0,0,0,0,10000000000,0,0,0,0,0,0,10000000000,0,0,0,0,0,0,0.05,-0.0746305773,0,-0.0113446401
1.52847372858025E+018,411,1.52847372857973E+018,-0.0842685707,2.28578760799E-05,0,0,0,0.0002617994,0.9999999657,0.1,0,0,0,0,0,0,0.1,0,0,0,0,0,0,10000000000,0,0,0,0,0,0,10000000000,0,0,0,0,0,0,10000000000,0,0,0,0,0,0,0.05,-0.0717875077,0,-0.0010471976
1.52847372860216E+018,412,1.5284737286017E+018,-0.085718536,2.20986759532E-05,0,0,0,0,1,0.1,0,0,0,0,0,0,0.1,0,0,0,0,0,0,10000000000,0,0,0,0,0,0,10000000000,0,0,0,0,0,0,10000000000,0,0,0,0,0,0,0.05,-0.0724982751,0,-0.0340339204
1.52847372866204E+018,413,1.52847372866162E+018,-0.0901963706,2.20986759532E-05,0,0,0,-0.0005235988,0.9999998629,0.1,0,0,0,0,0,0,0.1,0,0,0,0,0,0,10000000000,0,0,0,0,0,0,10000000000,0,0,0,0,0,0,10000000000,0,0,0,0,0,0,0.05,-0.0746305773,0,0.016231562
1.52847372872208E+018,414,1.52847372872167E+018,-0.0945036187,2.66092172638E-05,0,0,0,0,1,0.1,0,0,0,0,0,0,0.1,0,0,0,0,0,0,10000000000,0,0,0,0,0,0,10000000000,0,0,0,0,0,0,10000000000,0,0,0,0,0,0,0.05,-0.0717875077,0,-0.020943951
1.52847372878102E+018,415,1.52847372878066E+018,-0.0990240994,2.66092172638E-05,0,0,0,-0.0006981316,0.9999997563,0.1,0,0,0,0,0,0,0.1,0,0,0,0,0,0,10000000000,0,0,0,0,0,0,10000000000,0,0,0,0,0,0,10000000000,0,0,0,0,0,0,0.05,-0.0753413447,0,0.002443461
1.52847372883911E+018,416,1.52847372883862E+018,-0.1033739917,3.2682816581E-05,0,0,0,0,1,0.1,0,0,0,0,0,0,0.1,0,0,0,0,0,0,10000000000,0,0,0,0,0,0,10000000000,0,0,0,0,0,0,10000000000,0,0,0,0,0,0,0.05,-0.0724982751,0,-0.0078539816
1.52847372886093E+018,417,1.52847372886053E+018,-0.1048666032,3.2682816581E-05,0,0,0,-0.0001745329,0.9999999848,0.1,0,0,0,0,0,0,0.1,0,0,0,0,0,0,10000000000,0,0,0,0,0,0,10000000000,0,0,0,0,0,0,10000000000,0,0,0,0,0,0,0.05,-0.0746305773,0,-0.0356047167
1.52847372891884E+018,418,1.52847372891846E+018,-0.1092591455,3.42161031502E-05,0,0,0,-0.0004363323,0.9999999048,0.1,0,0,0,0,0,0,0.1,0,0,0,0,0,0,10000000000,0,0,0,0,0,0,10000000000,0,0,0,0,0,0,10000000000,0,0,0,0,0,0,0.05,-0.0732090425,0,0.0270526034
1.52847372894091E+018,419,1.5284737289405E+018,-0.1107091105,3.54814365919E-05,0,0,0,0,1,0.1,0,0,0,0,0,0,0.1,0,0,0,0,0,0,10000000000,0,0,0,0,0,0,10000000000,0,0,0,0,0,0,10000000000,0,0,0,0,0,0,0.05,-0.0724982751,0,0.0298451302
1.52847372899886E+018,420,1.52847372899846E+018,-0.1151442991,3.54814365919E-05,0,0,0,-0.0005235988,0.9999998629,0.1,0,0,0,0,0,0,0.1,0,0,0,0,0,0,10000000000,0,0,0,0,0,0,10000000000,0,0,0,0,0,0,10000000000,0,0,0,0,0,0,0.05,-0.0739198099,0,-0.0390953752
1.52847372902089E+018,421,1.52847372902052E+018,-0.1166369098,3.70444954619E-05,0,0,0,-0.0006981316,0.9999997563,0.1,0,0,0,0,0,0,0.1,0,0,0,0,0,0,10000000000,0,0,0,0,0,0,10000000000,0,0,0,0,0,0,10000000000,0,0,0,0,0,0,0.05,-0.0746305773,0,-0.0085521133
1.52847372907906E+018,422,1.52847372907859E+018,-0.1210720941,4.32371849618E-05,0,0,0,0,1,0.1,0,0,0,0,0,0,0.1,0,0,0,0,0,0,10000000000,0,0,0,0,0,0,10000000000,0,0,0,0,0,0,10000000000,0,0,0,0,0,0,0.05,-0.0739198099,0,0.0006981317
1.5284737291008E+018,423,1.52847372910041E+018,-0.1225647056,4.32371849618E-05,0,0,0,-0.0001745329,0.9999999848,0.1,0,0,0,0,0,0,0.1,0,0,0,0,0,0,10000000000,0,0,0,0,0,0,10000000000,0,0,0,0,0,0,10000000000,0,0,0,0,0,0,0.05,-0.0746305773,0,-0.0265290046
1.52847372916107E+018,424,1.5284737291604E+018,-0.1269998939,4.47853578083E-05,0,0,0,-0.0005235988,0.9999998629,0.1,0,0,0,0,0,0,0.1,0,0,0,0,0,0,10000000000,0,0,0,0,0,0,10000000000,0,0,0,0,0,0,10000000000,0,0,0,0,0,0,0.05,-0.0739198099,0,0.0195476876
1.52847372921866E+018,425,1.52847372921835E+018,-0.1314777261,4.94745344184E-05,0,0,0,-8.7266462489E-05,0.9999999962,0.1,0,0,0,0,0,0,0.1,0,0,0,0,0,0,10000000000,0,0,0,0,0,0,10000000000,0,0,0,0,0,0,10000000000,0,0,0,0,0,0,0.05,-0.0746305773,0,-0.0284488668
1.52847372924083E+018,426,1.52847372924041E+018,-0.1328423995,4.97127148599E-05,0,0,0,-0.0004363323,0.9999999048,0.1,0,0,0,0,0,0,0.1,0,0,0,0,0,0,10000000000,0,0,0,0,0,0,10000000000,0,0,0,0,0,0,10000000000,0,0,0,0,0,0,0.05,-0.0682336707,0,-0.0399680399
1.52847372929976E+018,427,1.52847372929935E+018,-0.1373628785,5.36575779426E-05,0,0,0,-0.0021816598,0.9999976202,0.1,0,0,0,0,0,0,0.1,0,0,0,0,0,0,10000000000,0,0,0,0,0,0,10000000000,0,0,0,0,0,0,10000000000,0,0,0,0,0,0,0.05,-0.0753413447,0,-0.0940732467
1.52847372932095E+018,428,1.52847372932045E+018,-0.1388554758,6.01703037591E-05,0,0,0,-0.0036651832,0.9999932832,0.1,0,0,0,0,0,0,0.1,0,0,0,0,0,0,10000000000,0,0,0,0,0,0,10000000000,0,0,0,0,0,0,10000000000,0,0,0,0,0,0,0.05,-0.0746305773,0,-0.1027998929
1.52847372938E+018,429,1.52847372937948E+018,-0.1433331901,9.29942520636E-05,0,0,0,-0.0068067315,0.9999768339,0.1,0,0,0,0,0,0,0.1,0,0,0,0,0,0,10000000000,0,0,0,0,0,0,10000000000,0,0,0,0,0,0,10000000000,0,0,0,0,0,0,0.05,-0.0746305773,0,-0.1267109037
1.52847372943794E+018,430,1.5284737294375E+018,-0.1478106098,0.0001539517,0,0,0,-0.0115189183,0.9999336551,0.1,0,0,0,0,0,0,0.1,0,0,0,0,0,0,10000000000,0,0,0,0,0,0,10000000000,0,0,0,0,0,0,10000000000,0,0,0,0,0,0,0.05,-0.0746305773,0,-0.144687795
1.52847372945973E+018,431,1.52847372945931E+018,-0.1492175558,0.0001863711,0,0,0,-0.0128278182,0.9999177202,0.1,0,0,0,0,0,0,0.1,0,0,0,0,0,0,10000000000,0,0,0,0,0,0,10000000000,0,0,0,0,0,0,10000000000,0,0,0,0,0,0,0.05,-0.0703659729,0,-0.1333431549
1.52847372951767E+018,432,1.5284737295172E+018,-0.1536086528,0.0002990553,0,0,0,-0.016841631,0.9998581697,0.1,0,0,0,0,0,0,0.1,0,0,0,0,0,0,10000000000,0,0,0,0,0,0,10000000000,0,0,0,0,0,0,10000000000,0,0,0,0,0,0,0.05,-0.0732090425,0,-0.1759291886
1.52847372953949E+018,433,1.52847372953921E+018,-0.1548873083,0.0003421429,0,0,0,-0.0185866862,0.9998272526,0.1,0,0,0,0,0,0,0.1,0,0,0,0,0,0,10000000000,0,0,0,0,0,0,10000000000,0,0,0,0,0,0,10000000000,0,0,0,0,0,0,0.05,-0.0639690663,0,-0.1930334153
1.52847372959776E+018,434,1.52847372959722E+018,-0.159575132,0.0005164955,0,0,0,-0.0252173343,0.9996819925,0.1,0,0,0,0,0,0,0.1,0,0,0,0,0,0,10000000000,0,0,0,0,0,0,10000000000,0,0,0,0,0,0,10000000000,0,0,0,0,0,0,0.05,-0.0781844143,0,-0.2012364628
1.52847372961953E+018,435,1.52847372961918E+018,-0.1610658452,0.000591751,0,0,0,-0.0269620692,0.9996364573,0.1,0,0,0,0,0,0,0.1,0,0,0,0,0,0,10000000000,0,0,0,0,0,0,10000000000,0,0,0,0,0,0,10000000000,0,0,0,0,0,0,0.05,-0.0746305773,0,-0.1837831702
1.5284737296798E+018,436,1.52847372967927E+018,-0.1652816652,0.0008193337,0,0,0,-0.0308001894,0.9995255616,0.1,0,0,0,0,0,0,0.1,0,0,0,0,0,0,10000000000,0,0,0,0,0,0,10000000000,0,0,0,0,0,0,10000000000,0,0,0,0,0,0,0.05,-0.0703659729,0,-0.1089085453
1.52847372973965E+018,437,1.52847372973916E+018,-0.1698361343,0.0011002906,0,0,0,-0.0356844056,0.9993631088,0.1,0,0,0,0,0,0,0.1,0,0,0,0,0,0,10000000000,0,0,0,0,0,0,10000000000,0,0,0,0,0,0,10000000000,0,0,0,0,0,0,0.05,-0.0760521121,0,-0.1815142422
1.52847372979968E+018,438,1.52847372979919E+018,-0.1743876399,0.0014257481,0,0,0,-0.0404805747,0.9991803256,0.1,0,0,0,0,0,0,0.1,0,0,0,0,0,0,10000000000,0,0,0,0,0,0,10000000000,0,0,0,0,0,0,10000000000,0,0,0,0,0,0,0.05,-0.0760521121,0,-0.163362818
1.52847372985725E+018,439,1.52847372985701E+018,-0.1787232802,0.0017776321,0,0,0,-0.0449271007,0.998990268,0.1,0,0,0,0,0,0,0.1,0,0,0,0,0,0,10000000000,0,0,0,0,0,0,10000000000,0,0,0,0,0,0,10000000000,0,0,0,0,0,0,0.05,-0.0724982751,0,-0.1249655744
1.52847372987968E+018,440,1.52847372987905E+018,-0.1802098663,0.0019116141,0,0,0,-0.046234737,0.9989306027,0.1,0,0,0,0,0,0,0.1,0,0,0,0,0,0,10000000000,0,0,0,0,0,0,10000000000,0,0,0,0,0,0,10000000000,0,0,0,0,0,0,0.05,-0.0746305773,0,-0.1490511181
1.52847372993963E+018,441,1.52847372993911E+018,-0.184795948,0.002337052,0,0,0,-0.0513773167,0.9986793136,0.1,0,0,0,0,0,0,0.1,0,0,0,0,0,0,10000000000,0,0,0,0,0,0,10000000000,0,0,0,0,0,0,10000000000,0,0,0,0,0,0,0.05,-0.0767628795,0,-0.1888446251
1.5284737299996E+018,442,1.52847372999907E+018,-0.189250143,0.0027965626,0,0,0,-0.0568670389,0.9983817606,0.1,0,0,0,0,0,0,0.1,0,0,0,0,0,0,10000000000,0,0,0,0,0,0,10000000000,0,0,0,0,0,0,10000000000,0,0,0,0,0,0,0.05,-0.0746305773,0,-0.1591740278
1.52847373005848E+018,443,1.52847373005809E+018,-0.1936990162,0.0033050209,0,0,0,-0.061222746,0.9981241282,0.1,0,0,0,0,0,0,0.1,0,0,0,0,0,0,10000000000,0,0,0,0,0,0,10000000000,0,0,0,0,0,0,10000000000,0,0,0,0,0,0,0.05,-0.0746305773,0,-0.1626646863
1.5284737300793E+018,444,1.52847373007886E+018,-0.1952227648,0.0034926536,0,0,0,-0.0637485273,0.997965994,0.1,0,0,0,0,0,0,0.1,0,0,0,0,0,0,10000000000,0,0,0,0,0,0,10000000000,0,0,0,0,0,0,10000000000,0,0,0,0,0,0,0.05,-0.0767628795,0,-0.184306769
1.52847373013825E+018,445,1.52847373013787E+018,-0.1998334025,0.0040841078,0,0,0,-0.0686247286,0.9976425445,0.1,0,0,0,0,0,0,0.1,0,0,0,0,0,0,10000000000,0,0,0,0,0,0,10000000000,0,0,0,0,0,0,10000000000,0,0,0,0,0,0,0.05,-0.0774736469,0,-0.1535889742
1.52847373019622E+018,446,1.52847373019588E+018,-0.2041423286,0.0046797213,0,0,0,-0.0728030296,0.9973463385,0.1,0,0,0,0,0,0,0.1,0,0,0,0,0,0,10000000000,0,0,0,0,0,0,10000000000,0,0,0,0,0,0,10000000000,0,0,0,0,0,0,0.05,-0.0724982751,0,-0.15393804
1.52847373021831E+018,447,1.52847373021789E+018,-0.2055769236,0.0048902848,0,0,0,-0.0750657474,0.9971785866,0.1,0,0,0,0,0,0,0.1,0,0,0,0,0,0,10000000000,0,0,0,0,0,0,10000000000,0,0,0,0,0,0,10000000000,0,0,0,0,0,0,0.05,-0.0724982751,0,-0.1670280094
1.52847373027616E+018,448,1.52847373027582E+018,-0.2102151214,0.0055925744,0,0,0,-0.0802859094,0.996771876,0.1,0,0,0,0,0,0,0.1,0,0,0,0,0,0,10000000000,0,0,0,0,0,0,10000000000,0,0,0,0,0,0,10000000000,0,0,0,0,0,0,0.05,-0.0781844143,0,-0.2003637981
1.52847373029831E+018,449,1.52847373029791E+018,-0.2117726833,0.0058451233,0,0,0,-0.0821124534,0.9966230707,0.1,0,0,0,0,0,0,0.1,0,0,0,0,0,0,10000000000,0,0,0,0,0,0,10000000000,0,0,0,0,0,0,10000000000,0,0,0,0,0,0,0.05,-0.0788951817,0,-0.1911135531
1.5284737303562E+018,450,1.52847373035585E+018,-0.2161901347,0.006578012,0,0,0,-0.0873296102,0.9961794714,0.1,0,0,0,0,0,0,0.1,0,0,0,0,0,0,10000000000,0,0,0,0,0,0,10000000000,0,0,0,0,0,0,10000000000,0,0,0,0,0,0,0.05,-0.0746305773,0,-0.1504473815
1.52847373037813E+018,451,1.52847373037776E+018,-0.2177019752,0.0068451344,0,0,0,-0.0888073755,0.9960488191,0.1,0,0,0,0,0,0,0.1,0,0,0,0,0,0,10000000000,0,0,0,0,0,0,10000000000,0,0,0,0,0,0,10000000000,0,0,0,0,0,0,0.05,-0.0767628795,0,-0.1638864168
1.52847373043827E+018,452,1.52847373043781E+018,-0.2223190455,0.0076750446,0,0,0,-0.0939345535,0.9955783744,0.1,0,0,0,0,0,0,0.1,0,0,0,0,0,0,10000000000,0,0,0,0,0,0,10000000000,0,0,0,0,0,0,10000000000,0,0,0,0,0,0,0.05,-0.0781844143,0,-0.2024581932
1.52847373049825E+018,453,1.52847373049778E+018,-0.2268435384,0.0085365011,0,0,0,-0.0996670836,0.9950208402,0.1,0,0,0,0,0,0,0.1,0,0,0,0,0,0,10000000000,0,0,0,0,0,0,10000000000,0,0,0,0,0,0,10000000000,0,0,0,0,0,0,0.05,-0.0767628795,0,-0.1403244719
1.52847373055826E+018,454,1.52847373055785E+018,-0.2313160092,0.0094415592,0,0,0,-0.1038341306,0.9945946276,0.1,0,0,0,0,0,0,0.1,0,0,0,0,0,0,10000000000,0,0,0,0,0,0,10000000000,0,0,0,0,0,0,10000000000,0,0,0,0,0,0,0.05,-0.0760521121,0,-0.1731366618
1.52847373061608E+018,455,1.52847373061572E+018,-0.2358641939,0.0104016702,0,0,0,-0.1101679979,0.9939129802,0.1,0,0,0,0,0,0,0.1,0,0,0,0,0,0,10000000000,0,0,0,0,0,0,10000000000,0,0,0,0,0,0,10000000000,0,0,0,0,0,0,0.05,-0.0774736469,0,-0.1898918226
1.52847373063798E+018,456,1.52847373063764E+018,-0.2374037955,0.0107472229,0,0,0,-0.1119025346,0.9937191871,0.1,0,0,0,0,0,0,0.1,0,0,0,0,0,0,10000000000,0,0,0,0,0,0,10000000000,0,0,0,0,0,0,10000000000,0,0,0,0,0,0,0.05,-0.0788951817,0,-0.1832595715
1.52847373069711E+018,457,1.52847373069674E+018,-0.2418942197,0.011771544,0,0,0,-0.1165840662,0.9931808272,0.1,0,0,0,0,0,0,0.1,0,0,0,0,0,0,10000000000,0,0,0,0,0,0,10000000000,0,0,0,0,0,0,10000000000,0,0,0,0,0,0,0.05,-0.0767628795,0,-0.1548107047
1.52847373075504E+018,458,1.52847373075458E+018,-0.246291817,0.0128183884,0,0,0,-0.1229086683,0.9924179862,0.1,0,0,0,0,0,0,0.1,0,0,0,0,0,0,10000000000,0,0,0,0,0,0,10000000000,0,0,0,0,0,0,10000000000,0,0,0,0,0,0,0.05,-0.0753413447,0,-0.2265437369
1.52847373077828E+018,459,1.52847373077781E+018,-0.2478220473,0.0132033236,0,0,0,-0.125160075,0.992136561,0.1,0,0,0,0,0,0,0.1,0,0,0,0,0,0,10000000000,0,0,0,0,0,0,10000000000,0,0,0,0,0,0,10000000000,0,0,0,0,0,0,0.05,-0.0788951817,0,-0.2420771673
1.52847373083719E+018,460,1.5284737308367E+018,-0.2523661407,0.0143683579,0,0,0,-0.1314778507,0.9913191085,0.1,0,0,0,0,0,0,0.1,0,0,0,0,0,0,10000000000,0,0,0,0,0,0,10000000000,0,0,0,0,0,0,10000000000,0,0,0,0,0,0,0.05,-0.0781844143,0,-0.2237512101
1.52847373089496E+018,461,1.52847373089464E+018,-0.2568950221,0.0155911919,0,0,0,-0.1375309838,0.9904974652,0.1,0,0,0,0,0,0,0.1,0,0,0,0,0,0,10000000000,0,0,0,0,0,0,10000000000,0,0,0,0,0,0,10000000000,0,0,0,0,0,0,0.05,-0.0781844143,0,-0.1761037215
1.52847373091713E+018,462,1.52847373091669E+018,-0.2583722016,0.01600947,0,0,0,-0.1393459332,0.9902437634,0.1,0,0,0,0,0,0,0.1,0,0,0,0,0,0,10000000000,0,0,0,0,0,0,10000000000,0,0,0,0,0,0,10000000000,0,0,0,0,0,0,0.05,-0.0767628795,0,-0.2014109957
1.52847373097709E+018,463,1.52847373097667E+018,-0.2629630707,0.017327615,0,0,0,-0.1462556869,0.9892468216,0.1,0,0,0,0,0,0,0.1,0,0,0,0,0,0,10000000000,0,0,0,0,0,0,10000000000,0,0,0,0,0,0,10000000000,0,0,0,0,0,0,0.05,-0.0796059491,0,-0.2097885761
1.52847373103737E+018,464,1.52847373103684E+018,-0.2674942666,0.0186973898,0,0,0,-0.1514333427,0.9884674718,0.1,0,0,0,0,0,0,0.1,0,0,0,0,0,0,10000000000,0,0,0,0,0,0,10000000000,0,0,0,0,0,0,10000000000,0,0,0,0,0,0,0.05,-0.0788951817,0,-0.170344135
1.52847373109704E+018,465,1.52847373109656E+018,-0.2718481096,0.0200634706,0,0,0,-0.157554861,0.9875102358,0.1,0,0,0,0,0,0,0.1,0,0,0,0,0,0,10000000000,0,0,0,0,0,0,10000000000,0,0,0,0,0,0,10000000000,0,0,0,0,0,0,0.05,-0.0760521121,0,-0.2279400003
1.52847373115726E+018,466,1.52847373115675E+018,-0.2764278632,0.0215630194,0,0,0,-0.1643590085,0.9864005861,0.1,0,0,0,0,0,0,0.1,0,0,0,0,0,0,10000000000,0,0,0,0,0,0,10000000000,0,0,0,0,0,0,10000000000,0,0,0,0,0,0,0.05,-0.0803167165,0,-0.2408554368
1.52847373121695E+018,467,1.52847373121651E+018,-0.2809058223,0.0230979141,0,0,0,-0.1702954916,0.9853930412,0.1,0,0,0,0,0,0,0.1,0,0,0,0,0,0,10000000000,0,0,0,0,0,0,10000000000,0,0,0,0,0,0,10000000000,0,0,0,0,0,0,0.05,-0.0788951817,0,-0.1923352836
1.52847373127762E+018,468,1.52847373127699E+018,-0.2852846276,0.0246579977,0,0,0,-0.1764834964,0.9843035992,0.1,0,0,0,0,0,0,0.1,0,0,0,0,0,0,10000000000,0,0,0,0,0,0,10000000000,0,0,0,0,0,0,10000000000,0,0,0,0,0,0,0.05,-0.0774736469,0,-0.212232037
1.52847373133586E+018,469,1.52847373133542E+018,-0.2898834202,0.0263618807,0,0,0,-0.1825787351,0.9831912355,0.1,0,0,0,0,0,0,0.1,0,0,0,0,0,0,10000000000,0,0,0,0,0,0,10000000000,0,0,0,0,0,0,10000000000,0,0,0,0,0,0,0.05,-0.0817382513,0,-0.2254965394
1.5284737313568E+018,470,1.52847373135633E+018,-0.2913959278,0.0269436898,0,0,0,-0.1854951143,0.9826451865,0.1,0,0,0,0,0,0,0.1,0,0,0,0,0,0,10000000000,0,0,0,0,0,0,10000000000,0,0,0,0,0,0,10000000000,0,0,0,0,0,0,0.05,-0.0810274839,0,-0.2049016542
1.52847373141605E+018,471,1.52847373141551E+018,-0.2956847457,0.0286227324,0,0,0,-0.1904663312,0.9816937285,0.1,0,0,0,0,0,0,0.1,0,0,0,0,0,0,10000000000,0,0,0,0,0,0,10000000000,0,0,0,0,0,0,10000000000,0,0,0,0,0,0,0.05,-0.0767628795,0,-0.1832595715
1.52847373147419E+018,472,1.52847373147359E+018,-0.2999563474,0.0303451035,0,0,0,-0.1966306946,0.9804776234,0.1,0,0,0,0,0,0,0.1,0,0,0,0,0,0,10000000000,0,0,0,0,0,0,10000000000,0,0,0,0,0,0,10000000000,0,0,0,0,0,0,0.05,-0.0767628795,0,-0.2605776573
1.52847373149566E+018,473,1.52847373149529E+018,-0.3015696294,0.0310192924,0,0,0,-0.2003085026,0.9797328737,0.1,0,0,0,0,0,0,0.1,0,0,0,0,0,0,10000000000,0,0,0,0,0,0,10000000000,0,0,0,0,0,0,10000000000,0,0,0,0,0,0,0.05,-0.0874243905,0,-0.2649409805
1.52847373155372E+018,474,1.52847373155326E+018,-0.3060411457,0.0329274783,0,0,0,-0.2067165032,0.9784008827,0.1,0,0,0,0,0,0,0.1,0,0,0,0,0,0,10000000000,0,0,0,0,0,0,10000000000,0,0,0,0,0,0,10000000000,0,0,0,0,0,0,0.05,-0.0810274839,0,-0.2003637981
1.52847373157594E+018,475,1.52847373157536E+018,-0.3074841963,0.0335657454,0,0,0,-0.2083384684,0.978056789,0.1,0,0,0,0,0,0,0.1,0,0,0,0,0,0,10000000000,0,0,0,0,0,0,10000000000,0,0,0,0,0,0,10000000000,0,0,0,0,0,0,0.05,-0.0788951817,0,-0.1727875959
1.52847373163363E+018,476,1.52847373163318E+018,-0.3116901427,0.035442753,0,0,0,-0.2144796276,0.9767284624,0.1,0,0,0,0,0,0,0.1,0,0,0,0,0,0,10000000000,0,0,0,0,0,0,10000000000,0,0,0,0,0,0,10000000000,0,0,0,0,0,0,0.05,-0.0767628795,0,-0.2174680248
1.5284737316559E+018,477,1.5284737316554E+018,-0.3131228744,0.0361038579,0,0,0,-0.216524811,0.9762771155,0.1,0,0,0,0,0,0,0.1,0,0,0,0,0,0,10000000000,0,0,0,0,0,0,10000000000,0,0,0,0,0,0,10000000000,0,0,0,0,0,0,0.05,-0.0788951817,0,-0.2207841504
1.52847373171566E+018,478,1.52847373171528E+018,-0.3175673134,0.0381772783,0,0,0,-0.2229949165,0.9748196075,0.1,0,0,0,0,0,0,0.1,0,0,0,0,0,0,10000000000,0,0,0,0,0,0,10000000000,0,0,0,0,0,0,10000000000,0,0,0,0,0,0,0.05,-0.0817382513,0,-0.2254965394
1.52847373177615E+018,479,1.52847373177529E+018,-0.3218686451,0.0402538455,0,0,0,-0.2292003909,0.9733792585,0.1,0,0,0,0,0,0,0.1,0,0,0,0,0,0,10000000000,0,0,0,0,0,0,10000000000,0,0,0,0,0,0,10000000000,0,0,0,0,0,0,0.05,-0.0796059491,0,-0.2127556358
1.5284737318355E+018,480,1.52847373183516E+018,-0.3260668403,0.0423469884,0,0,0,-0.2359054169,0.9717760206,0.1,0,0,0,0,0,0,0.1,0,0,0,0,0,0,10000000000,0,0,0,0,0,0,10000000000,0,0,0,0,0,0,10000000000,0,0,0,0,0,0,0.05,-0.0781844143,0,-0.2733185609
1.52847373189368E+018,481,1.52847373189318E+018,-0.3307284693,0.0447520043,0,0,0,-0.2447151397,0.9695950188,0.1,0,0,0,0,0,0,0.1,0,0,0,0,0,0,10000000000,0,0,0,0,0,0,10000000000,0,0,0,0,0,0,10000000000,0,0,0,0,0,0,0.05,-0.0874243905,0,-0.2455678258
1.52847373191558E+018,482,1.52847373191515E+018,-0.3321549241,0.0455210347,0,0,0,-0.2466607474,0.9691018913,0.1,0,0,0,0,0,0,0.1,0,0,0,0,0,0,10000000000,0,0,0,0,0,0,10000000000,0,0,0,0,0,0,10000000000,0,0,0,0,0,0,0.05,-0.0810274839,0,-0.2071705822
1.52847373197451E+018,483,1.52847373197413E+018,-0.3363126227,0.0477841215,0,0,0,-0.2514781714,0.9678629703,0.1,0,0,0,0,0,0,0.1,0,0,0,0,0,0,10000000000,0,0,0,0,0,0,10000000000,0,0,0,0,0,0,10000000000,0,0,0,0,0,0,0.05,-0.0788951817,0,-0.1675516082
1.5284737319954E+018,484,1.52847373199504E+018,-0.3377654532,0.0485937533,0,0,0,-0.2539267608,0.9672234489,0.1,0,0,0,0,0,0,0.1,0,0,0,0,0,0,10000000000,0,0,0,0,0,0,10000000000,0,0,0,0,0,0,10000000000,0,0,0,0,0,0,0.05,-0.0831597861,0,-0.1829105056
1.52847373205464E+018,485,1.52847373205417E+018,-0.3422230347,0.0511075218,0,0,0,-0.2599146864,0.9656315839,0.1,0,0,0,0,0,0,0.1,0,0,0,0,0,0,10000000000,0,0,0,0,0,0,10000000000,0,0,0,0,0,0,10000000000,0,0,0,0,0,0,0.05,-0.0852920883,0,-0.2230530784
1.5284737321123E+018,486,1.52847373211197E+018,-0.346390936,0.0535264862,0,0,0,-0.2661450003,0.9639330054,0.1,0,0,0,0,0,0,0.1,0,0,0,0,0,0,10000000000,0,0,0,0,0,0,10000000000,0,0,0,0,0,0,10000000000,0,0,0,0,0,0,0.05,-0.0803167165,0,-0.1942551457
1.52847373215282E+018,487,1.52847373213406E+018,-0.3476720947,0.0542923331,0,0,0,-0.2679110519,0.9634436508,0.1,0,0,0,0,0,0,0.1,0,0,0,0,0,0,10000000000,0,0,0,0,0,0,10000000000,0,0,0,0,0,0,10000000000,0,0,0,0,0,0,0.05,-0.0746305773,0,-0.1897172897
1.5284737321968E+018,488,1.528473732192E+018,-0.3520184615,0.0569121603,0,0,0,-0.2739592187,0.9617413095,0.1,0,0,0,0,0,0,0.1,0,0,0,0,0,0,10000000000,0,0,0,0,0,0,10000000000,0,0,0,0,0,0,10000000000,0,0,0,0,0,0,0.05,-0.0845813209,0,-0.2532472745
1.52847373224081E+018,489,1.52847373221406E+018,-0.353468244,0.0578110635,0,0,0,-0.2760567591,0.961141335,0.1,0,0,0,0,0,0,0.1,0,0,0,0,0,0,10000000000,0,0,0,0,0,0,10000000000,0,0,0,0,0,0,10000000000,0,0,0,0,0,0,0.05,-0.0852920883,0,-0.2274164015
1.52847373228482E+018,490,1.52847373227206E+018,-0.3575889064,0.060390942,0,0,0,-0.2818391225,0.9594616767,0.1,0,0,0,0,0,0,0.1,0,0,0,0,0,0,10000000000,0,0,0,0,0,0,10000000000,0,0,0,0,0,0,10000000000,0,0,0,0,0,0,0.05,-0.0810274839,0,-0.1600466924
1.52847373232881E+018,491,1.52847373229392E+018,-0.3588802629,0.0612212518,0,0,0,-0.2831785086,0.9590672199,0.1,0,0,0,0,0,0,0.1,0,0,0,0,0,0,10000000000,0,0,0,0,0,0,10000000000,0,0,0,0,0,0,10000000000,0,0,0,0,0,0,0.05,-0.0767628795,0,-0.1507964474
1.5284737323729E+018,492,1.52847373235389E+018,-0.3632486517,0.0640472892,0,0,0,-0.2879455667,0.9576467776,0.1,0,0,0,0,0,0,0.1,0,0,0,0,0,0,10000000000,0,0,0,0,0,0,10000000000,0,0,0,0,0,0,10000000000,0,0,0,0,0,0,0.05,-0.0867136231,0,-0.2190388211
1.52847373241675E+018,493,1.52847373241394E+018,-0.3673041163,0.0667284901,0,0,0,-0.2905351937,0.9568643066,0.1,0,0,0,0,0,0,0.1,0,0,0,0,0,0,10000000000,0,0,0,0,0,0,10000000000,0,0,0,0,0,0,10000000000,0,0,0,0,0,0,0.05,-0.0810274839,0,0.0638790506
1.52847373247435E+018,494,1.52847373247389E+018,-0.3715222474,0.0695501509,0,0,0,-0.2896165362,0.9571427595,0.1,0,0,0,0,0,0,0.1,0,0,0,0,0,0,10000000000,0,0,0,0,0,0,10000000000,0,0,0,0,0,0,10000000000,0,0,0,0,0,0,0.05,-0.0845813209,0,-0.0401425728
1.52847373253223E+018,495,1.52847373253185E+018,-0.3758877556,0.0724582817,0,0,0,-0.2907021936,0.9568135841,0.1,0,0,0,0,0,0,0.1,0,0,0,0,0,0,10000000000,0,0,0,0,0,0,10000000000,0,0,0,0,0,0,10000000000,0,0,0,0,0,0,0.05,-0.0874243905,0,0.002268928
1.52847373257681E+018,496,1.52847373255376E+018,-0.3773407218,0.0734309578,0,0,0,-0.2906186948,0.956838949,0.1,0,0,0,0,0,0,0.1,0,0,0,0,0,0,10000000000,0,0,0,0,0,0,10000000000,0,0,0,0,0,0,10000000000,0,0,0,0,0,0,0.05,-0.0874243905,0,0.0020943951
1.5284737326209E+018,497,1.52847373261285E+018,-0.3816646873,0.0763245077,0,0,0,-0.2911196546,0.9566866502,0.1,0,0,0,0,0,0,0.1,0,0,0,0,0,0,10000000000,0,0,0,0,0,0,10000000000,0,0,0,0,0,0,10000000000,0,0,0,0,0,0,0.05,-0.0867136231,0,-0.0146607657
1.52847373267116E+018,498,1.52847373267073E+018,-0.3860210379,0.0792463387,0,0,0,-0.2908691846,0.9567628324,0.1,0,0,0,0,0,0,0.1,0,0,0,0,0,0,10000000000,0,0,0,0,0,0,10000000000,0,0,0,0,0,0,10000000000,0,0,0,0,0,0,0.05,-0.0874243905,0,-0.0085521133
1.52847373271281E+018,499,1.5284737326928E+018,-0.3875799542,0.0802907305,0,0,0,-0.2910361668,0.9567120516,0.1,0,0,0,0,0,0,0.1,0,0,0,0,0,0,10000000000,0,0,0,0,0,0,10000000000,0,0,0,0,0,0,10000000000,0,0,0,0,0,0,0.05,-0.0938212972,0,-0.0228638132
1.52847373275699E+018,500,1.52847373275291E+018,-0.391901393,0.0831880526,0,0,0,-0.2913701046,0.9566104025,0.1,0,0,0,0,0,0,0.1,0,0,0,0,0,0,10000000000,0,0,0,0,0,0,10000000000,0,0,0,0,0,0,10000000000,0,0,0,0,0,0,0.05,-0.0867136231,0,-0.0031415927
1.52847373281112E+018,501,1.52847373281073E+018,-0.3964332383,0.0862310306,0,0,0,-0.2921213347,0.9563812659,0.1,0,0,0,0,0,0,0.1,0,0,0,0,0,0,10000000000,0,0,0,0,0,0,10000000000,0,0,0,0,0,0,10000000000,0,0,0,0,0,0,0.05,-0.0909782276,0,-0.0359537826
1.52847373285281E+018,502,1.52847373283268E+018,-0.3978125768,0.0871603557,0,0,0,-0.2922882503,0.9563302666,0.1,0,0,0,0,0,0,0.1,0,0,0,0,0,0,10000000000,0,0,0,0,0,0,10000000000,0,0,0,0,0,0,10000000000,0,0,0,0,0,0,0.05,-0.0831597861,0,-0.0097738438
1.52847373289681E+018,503,1.52847373289272E+018,-0.4021971343,0.0901166638,0,0,0,-0.2921213347,0.9563812659,0.1,0,0,0,0,0,0,0.1,0,0,0,0,0,0,10000000000,0,0,0,0,0,0,10000000000,0,0,0,0,0,0,10000000000,0,0,0,0,0,0,0.05,-0.0881351579,0,-0.0167551608
1.52847373294083E+018,504,1.52847373291374E+018,-0.4037179434,0.0911413044,0,0,0,-0.2923717047,0.956304756,0.1,0,0,0,0,0,0,0.1,0,0,0,0,0,0,10000000000,0,0,0,0,0,0,10000000000,0,0,0,0,0,0,10000000000,0,0,0,0,0,0,0.05,-0.091688995,0,-0.0340339204
1.5284737329849E+018,505,1.52847373295265E+018,-0.4065817124,0.093072941,0,0,0,-0.2927055002,0.9562026407,0.1,0,0,0,0,0,0,0.1,0,0,0,0,0,0,10000000000,0,0,0,0,0,0,10000000000,0,0,0,0,0,0,10000000000,0,0,0,0,0,0,0.05,-0.0863582394,0,-0.0026179939
1.52847373302882E+018,506,1.52847373301284E+018,-0.4109283499,0.0960092021,0,0,0,-0.2923717047,0.956304756,0.1,0,0,0,0,0,0,0.1,0,0,0,0,0,0,10000000000,0,0,0,0,0,0,10000000000,0,0,0,0,0,0,10000000000,0,0,0,0,0,0,0.05,-0.0874243905,0,0.0293215314
1.52847373307311E+018,507,1.52847373307256E+018,-0.4151709706,0.098870886,0,0,0,-0.2909526768,0.9567374456,0.1,0,0,0,0,0,0,0.1,0,0,0,0,0,0,10000000000,0,0,0,0,0,0,10000000000,0,0,0,0,0,0,10000000000,0,0,0,0,0,0,0.05,-0.0852920883,0,0.0387463094
1.52847373313212E+018,508,1.52847373313155E+018,-0.4195991923,0.1018386809,0,0,0,-0.2902011674,0.9569656642,0.1,0,0,0,0,0,0,0.1,0,0,0,0,0,0,10000000000,0,0,0,0,0,0,10000000000,0,0,0,0,0,0,10000000000,0,0,0,0,0,0,0.05,-0.0888459253,0,0.0502654825
1.52847373317284E+018,509,1.5284737331525E+018,-0.4209822503,0.1027624616,0,0,0,-0.2893659469,0.9572185481,0.1,0,0,0,0,0,0,0.1,0,0,0,0,0,0,10000000000,0,0,0,0,0,0,10000000000,0,0,0,0,0,0,10000000000,0,0,0,0,0,0,0.05,-0.0831597861,0,0.0621337214
1.52847373321679E+018,510,1.52847373321153E+018,-0.4252427677,0.1055974319,0,0,0,-0.287276933,0.9578475681,0.1,0,0,0,0,0,0,0.1,0,0,0,0,0,0,10000000000,0,0,0,0,0,0,10000000000,0,0,0,0,0,0,10000000000,0,0,0,0,0,0,0.05,-0.0852920883,0,0.1034980246
1.52847373327E+018,511,1.52847373326949E+018,-0.4296224355,0.1084841941,0,0,0,-0.2838479948,0.9588692903,0.1,0,0,0,0,0,0,0.1,0,0,0,0,0,0,10000000000,0,0,0,0,0,0,10000000000,0,0,0,0,0,0,10000000000,0,0,0,0,0,0,0.05,-0.0874243905,0,0.0991347015
1.52847373331276E+018,512,1.52847373329154E+018,-0.4310891731,0.1094359769,0,0,0,-0.2829274157,0.959141323,0.1,0,0,0,0,0,0,0.1,0,0,0,0,0,0,10000000000,0,0,0,0,0,0,10000000000,0,0,0,0,0,0,10000000000,0,0,0,0,0,0,0.05,-0.0874243905,0,0.100356432
1.52847373335699E+018,513,1.52847373334947E+018,-0.4355306782,0.1123060177,0,0,0,-0.2804154229,0.9598787375,0.1,0,0,0,0,0,0,0.1,0,0,0,0,0,0,10000000000,0,0,0,0,0,0,10000000000,0,0,0,0,0,0,10000000000,0,0,0,0,0,0,0.05,-0.0881351579,0,0.0790634151
1.52847373340485E+018,514,1.5284737333716E+018,-0.437004189,0.1132472805,0,0,0,-0.279829014,0.9600498544,0.1,0,0,0,0,0,0,0.1,0,0,0,0,0,0,10000000000,0,0,0,0,0,0,10000000000,0,0,0,0,0,0,10000000000,0,0,0,0,0,0,0.05,-0.0874243905,0,0.0548033385
1.52847373344876E+018,515,1.52847373342935E+018,-0.441428168,0.1160656659,0,0,0,-0.2781529856,0.9605367857,0.1,0,0,0,0,0,0,0.1,0,0,0,0,0,0,10000000000,0,0,0,0,0,0,10000000000,0,0,0,0,0,0,10000000000,0,0,0,0,0,0,0.05,-0.0874243905,0,0.072256631
1.52847373349691E+018,516,1.5284737334514E+018,-0.4428700509,0.1169771865,0,0,0,-0.277398496,0.9607549502,0.1,0,0,0,0,0,0,0.1,0,0,0,0,0,0,10000000000,0,0,0,0,0,0,10000000000,0,0,0,0,0,0,10000000000,0,0,0,0,0,0,0.05,-0.0852920883,0,0.086219265
1.52847373354081E+018,517,1.52847373351144E+018,-0.4472721555,0.1197504128,0,0,0,-0.2757212407,0.9612376384,0.1,0,0,0,0,0,0,0.1,0,0,0,0,0,0,10000000000,0,0,0,0,0,0,10000000000,0,0,0,0,0,0,10000000000,0,0,0,0,0,0,0.05,-0.0867136231,0,0.0591666616
1.52847373358477E+018,518,1.52847373357139E+018,-0.4516477517,0.1224856507,0,0,0,-0.273707426,0.9618129989,0.1,0,0,0,0,0,0,0.1,0,0,0,0,0,0,10000000000,0,0,0,0,0,0,10000000000,0,0,0,0,0,0,10000000000,0,0,0,0,0,0,0.05,-0.0860028557,0,0.0595157275
1.52847373363188E+018,519,1.52847373363144E+018,-0.4560710231,0.1252249898,0,0,0,-0.272280247,0.9622179935,0.1,0,0,0,0,0,0,0.1,0,0,0,0,0,0,10000000000,0,0,0,0,0,0,10000000000,0,0,0,0,0,0,10000000000,0,0,0,0,0,0,0.05,-0.0867136231,0,0.0628318531
1.5284737336917E+018,520,1.52847373369128E+018,-0.4604297572,0.127906501,0,0,0,-0.2702643867,0.9627861451,0.1,0,0,0,0,0,0,0.1,0,0,0,0,0,0,10000000000,0,0,0,0,0,0,10000000000,0,0,0,0,0,0,10000000000,0,0,0,0,0,0,0.05,-0.0852920883,0,0.0708603676
1.52847373375089E+018,521,1.52847373375044E+018,-0.4648725175,0.130614118,0,0,0,-0.268667656,0.9632329368,0.1,0,0,0,0,0,0,0.1,0,0,0,0,0,0,10000000000,0,0,0,0,0,0,10000000000,0,0,0,0,0,0,10000000000,0,0,0,0,0,0,0.05,-0.0867136231,0,0.0555014702
1.52847373380876E+018,522,1.5284737338082E+018,-0.46947019,0.1333952782,0,0,0,-0.2659767582,0.9639794417,0.1,0,0,0,0,0,0,0.1,0,0,0,0,0,0,10000000000,0,0,0,0,0,0,10000000000,0,0,0,0,0,0,10000000000,0,0,0,0,0,0,0.05,-0.0895566928,0,0.1162389282
1.52847373384893E+018,523,1.52847373383129E+018,-0.4708980647,0.134248152,0,0,0,-0.2649671356,0.9642574433,0.1,0,0,0,0,0,0,0.1,0,0,0,0,0,0,10000000000,0,0,0,0,0,0,10000000000,0,0,0,0,0,0,10000000000,0,0,0,0,0,0,0.05,-0.0831597861,0,0.1089085453
1.52847373389281E+018,524,1.52847373389014E+018,-0.4752603539,0.1368413801,0,0,0,-0.2621891786,0.9650164945,0.1,0,0,0,0,0,0,0.1,0,0,0,0,0,0,10000000000,0,0,0,0,0,0,10000000000,0,0,0,0,0,0,10000000000,0,0,0,0,0,0,0.05,-0.0845813209,0,0.0975639052
1.52847373394871E+018,525,1.52847373394812E+018,-0.479931769,0.1395820831,0,0,0,-0.2597461479,0.9656769328,0.1,0,0,0,0,0,0,0.1,0,0,0,0,0,0,10000000000,0,0,0,0,0,0,10000000000,0,0,0,0,0,0,10000000000,0,0,0,0,0,0,0.05,-0.0902674602,0,0.060562925
1.52847373398892E+018,526,1.52847373397035E+018,-0.4814074311,0.1404378386,0,0,0,-0.2592404851,0.9658128032,0.1,0,0,0,0,0,0,0.1,0,0,0,0,0,0,10000000000,0,0,0,0,0,0,10000000000,0,0,0,0,0,0,10000000000,0,0,0,0,0,0,0.05,-0.0852920883,0,0.0598647933
1.52847373403282E+018,527,1.52847373403017E+018,-0.4859847592,0.1430858888,0,0,0,-0.2567111076,0.9664881827,0.1,0,0,0,0,0,0,0.1,0,0,0,0,0,0,10000000000,0,0,0,0,0,0,10000000000,0,0,0,0,0,0,10000000000,0,0,0,0,0,0,0.05,-0.0881351579,0,0.0966912406
1.52847373408835E+018,528,1.52847373408797E+018,-0.4903907633,0.1456041277,0,0,0,-0.2535891207,0.9673120272,0.1,0,0,0,0,0,0,0.1,0,0,0,0,0,0,10000000000,0,0,0,0,0,0,10000000000,0,0,0,0,0,0,10000000000,0,0,0,0,0,0,0.05,-0.0845813209,0,0.1041961563
1.52847373412883E+018,529,1.52847373411011E+018,-0.4919143696,0.1464619351,0,0,0,-0.2526604511,0.9675550095,0.1,0,0,0,0,0,0,0.1,0,0,0,0,0,0,10000000000,0,0,0,0,0,0,10000000000,0,0,0,0,0,0,10000000000,0,0,0,0,0,0,0.05,-0.0874243905,0,0.1017526954
1.52847373417282E+018,530,1.52847373417007E+018,-0.496564523,0.1490682789,0,0,0,-0.249197002,0.9684528146,0.1,0,0,0,0,0,0,0.1,0,0,0,0,0,0,10000000000,0,0,0,0,0,0,10000000000,0,0,0,0,0,0,10000000000,0,0,0,0,0,0,0.05,-0.0888459253,0,0.1216494489
1.528473734221E+018,531,1.5284737341913E+018,-0.4980585021,0.1498916394,0,0,0,-0.248098167,0.9687348964,0.1,0,0,0,0,0,0,0.1,0,0,0,0,0,0,10000000000,0,0,0,0,0,0,10000000000,0,0,0,0,0,0,10000000000,0,0,0,0,0,0,0.05,-0.0852920883,0,0.1090830783
1.52847373426481E+018,532,1.5284737342302E+018,-0.501087585,0.1515520758,0,0,0,-0.2464070286,0.9691664337,0.1,0,0,0,0,0,0,0.1,0,0,0,0,0,0,10000000000,0,0,0,0,0,0,10000000000,0,0,0,0,0,0,10000000000,0,0,0,0,0,0,0.05,-0.0863582394,0,0.1031489588
1.52847373430879E+018,533,1.5284737342899E+018,-0.5058084792,0.1541185137,0,0,0,-0.2433610915,0.9699357603,0.1,0,0,0,0,0,0,0.1,0,0,0,0,0,0,10000000000,0,0,0,0,0,0,10000000000,0,0,0,0,0,0,10000000000,0,0,0,0,0,0,0.05,-0.0895566928,0,0.0874409955
1.52847373435297E+018,534,1.52847373435004E+018,-0.5105078107,0.1566351061,0,0,0,-0.2407362755,0.9705905654,0.1,0,0,0,0,0,0,0.1,0,0,0,0,0,0,10000000000,0,0,0,0,0,0,10000000000,0,0,0,0,0,0,10000000000,0,0,0,0,0,0,0.05,-0.0888459253,0,0.1021017612
1.5284737344094E+018,535,1.52847373440892E+018,-0.5152206895,0.1591262359,0,0,0,-0.2376011258,0.9713628081,0.1,0,0,0,0,0,0,0.1,0,0,0,0,0,0,10000000000,0,0,0,0,0,0,10000000000,0,0,0,0,0,0,10000000000,0,0,0,0,0,0,0.05,-0.0888459253,0,0.1225221135
1.52847373445681E+018,536,1.52847373442988E+018,-0.516809589,0.1599530122,0,0,0,-0.2357358064,0.9718171791,0.1,0,0,0,0,0,0,0.1,0,0,0,0,0,0,10000000000,0,0,0,0,0,0,10000000000,0,0,0,0,0,0,10000000000,0,0,0,0,0,0,0.05,-0.0895566928,0,0.1436405974
1.52847373450082E+018,537,1.52847373448893E+018,-0.5216615885,0.1624540994,0,0,0,-0.2326815944,0.972552968,0.1,0,0,0,0,0,0,0.1,0,0,0,0,0,0,10000000000,0,0,0,0,0,0,10000000000,0,0,0,0,0,0,10000000000,0,0,0,0,0,0,0.05,-0.0909782276,0,0.0958185759
1.52847373454727E+018,538,1.52847373454688E+018,-0.5264911786,0.1649053503,0,0,0,-0.2292003909,0.9733792585,0.1,0,0,0,0,0,0,0.1,0,0,0,0,0,0,10000000000,0,0,0,0,0,0,10000000000,0,0,0,0,0,0,10000000000,0,0,0,0,0,0,0.05,-0.0902674602,0,0.1207767842
1.52847373458896E+018,539,1.52847373456882E+018,-0.5281322912,0.1657235789,0,0,0,-0.2280959799,0.9736386516,0.1,0,0,0,0,0,0,0.1,0,0,0,0,0,0,10000000000,0,0,0,0,0,0,10000000000,0,0,0,0,0,0,10000000000,0,0,0,0,0,0,0.05,-0.091688995,0,0.1199041196
1.52847373463681E+018,540,1.52847373462678E+018,-0.533137603,0.1682049715,0,0,0,-0.2247809913,0.9744093113,0.1,0,0,0,0,0,0,0.1,0,0,0,0,0,0,10000000000,0,0,0,0,0,0,10000000000,0,0,0,0,0,0,10000000000,0,0,0,0,0,0,0.05,-0.0931105298,0,0.1300270293
1.5284737346808E+018,541,1.52847373465186E+018,-0.5347477374,0.1689895909,0,0,0,-0.2235903582,0.9746832058,0.1,0,0,0,0,0,0,0.1,0,0,0,0,0,0,10000000000,0,0,0,0,0,0,10000000000,0,0,0,0,0,0,10000000000,0,0,0,0,0,0,0.05,-0.0895566928,0,0.1267109037
1.52847373472885E+018,542,1.52847373470682E+018,-0.5397374061,0.1714059899,0,0,0,-0.2191650992,0.9756877878,0.1,0,0,0,0,0,0,0.1,0,0,0,0,0,0,10000000000,0,0,0,0,0,0,10000000000,0,0,0,0,0,0,10000000000,0,0,0,0,0,0,0.05,-0.0923997624,0,0.1324704902
1.52847373477314E+018,543,1.52847373472893E+018,-0.54143357,0.1722084874,0,0,0,-0.2180580758,0.9759357948,0.1,0,0,0,0,0,0,0.1,0,0,0,0,0,0,10000000000,0,0,0,0,0,0,10000000000,0,0,0,0,0,0,10000000000,0,0,0,0,0,0,0.05,-0.0938212972,0,0.1225221135
1.52847373481677E+018,544,1.52847373478876E+018,-0.5464117397,0.1745499751,0,0,0,-0.2145648624,0.9767097418,0.1,0,0,0,0,0,0,0.1,0,0,0,0,0,0,10000000000,0,0,0,0,0,0,10000000000,0,0,0,0,0,0,10000000000,0,0,0,0,0,0,0.05,-0.091688995,0,0.1293288976
1.52847373486089E+018,545,1.52847373485193E+018,-0.5514452566,0.1768736546,0,0,0,-0.2108982982,0.9775080091,0.1,0,0,0,0,0,0,0.1,0,0,0,0,0,0,10000000000,0,0,0,0,0,0,10000000000,0,0,0,0,0,0,10000000000,0,0,0,0,0,0,0.05,-0.0923997624,0,0.1181587904
1.52847373490917E+018,546,1.52847373490869E+018,-0.5564572181,0.1791419095,0,0,0,-0.2072287644,0.9782925121,0.1,0,0,0,0,0,0,0.1,0,0,0,0,0,0,10000000000,0,0,0,0,0,0,10000000000,0,0,0,0,0,0,10000000000,0,0,0,0,0,0,0.05,-0.091688995,0,0.1480039206
