%time,field.header.seq,field.header.stamp,field.time_stamp,field.left_encoder,field.right_encoder,field.left_pwm,field.right_pwm
1.52847323585954E+018,0,1.52847323585908E+018,14360,0,0,0,0
1.52847323591923E+018,1,1.52847323591891E+018,14420,0,0,0,0
1.5284732359782E+018,2,1.52847323597786E+018,14480,0,0,0,0
1.52847323603811E+018,3,1.5284732360378E+018,14540,0,0,0,0
1.52847323609603E+018,4,1.5284732360957E+018,14600,0,0,0,0
1.52847323611834E+018,5,1.5284732361179E+018,14620,0,0,0,0
1.52847323617817E+018,6,1.5284732361778E+018,14680,0,0,0,0
1.52847323623814E+018,7,1.52847323623775E+018,14740,0,0,0,0
1.52847323629797E+018,8,1.5284732362976E+018,14800,0,0,0,0
1.52847323635813E+018,9,1.52847323635769E+018,14860,0,0,0,0
1.5284732364171E+018,10,1.52847323641671E+018,14920,0,0,0,0
1.52847323643803E+018,11,1.52847323643764E+018,14940,0,0,0,0
1.52847323649716E+018,12,1.52847323649673E+018,15000,0,0,0,0
1.52847323655504E+018,13,1.52847323655458E+018,15060,0,0,0,0
1.52847323657796E+018,14,1.52847323657756E+018,15080,0,0,0,0
1.52847323663693E+018,15,1.52847323663653E+018,15140,0,0,0,0
1.52847323669696E+018,16,1.52847323669655E+018,15200,0,0,0,0
1.52847323675505E+018,17,1.5284732367545E+018,15260,0,0,0,0
1.52847323677692E+018,18,1.52847323677645E+018,15280,0,0,0,0
1.52847323683493E+018,19,1.52847323683453E+018,15340,0,0,0,0
1.52847323685698E+018,20,1.52847323685646E+018,15360,0,0,0,0
1.52847323691679E+018,21,1.52847323691642E+018,15420,0,0,0,0
1.52847323697689E+018,22,1.52847323697644E+018,15480,0,0,0,0
1.52847323703681E+018,23,1.52847323703642E+018,15540,0,0,0,0
1.52847323709489E+018,24,1.52847323709446E+018,15600,0,0,0,0
1.52847323711668E+018,25,1.52847323711629E+018,15620,0,0,0,0
1.52847323717568E+018,26,1.52847323717529E+018,15680,0,0,0,0
1.52847323719688E+018,27,1.52847323719643E+018,15700,0,0,0,0
1.52847323725665E+018,28,1.52847323725625E+018,15760,0,0,0,0
1.52847323731577E+018,29,1.5284732373154E+018,15820,0,0,0,0
1.52847323733664E+018,30,1.52847323733624E+018,15840,0,0,0,0
1.52847323739551E+018,31,1.52847323739515E+018,15900,0,0,0,0
1.52847323745566E+018,32,1.52847323745524E+018,15960,0,0,0,0
1.52847323751342E+018,33,1.52847323751311E+018,16020,0,0,0,0
1.52847323753553E+018,34,1.52847323753514E+018,16040,0,0,0,0
1.52847323759347E+018,35,1.5284732375931E+018,16100,0,0,0,0
1.52847323761551E+018,36,1.52847323761516E+018,16120,0,0,0,0
1.52847323767559E+018,37,1.52847323767518E+018,16180,0,0,0,0
1.52847323773347E+018,38,1.52847323773311E+018,16240,0,0,0,0
1.52847323775549E+018,39,1.52847323775516E+018,16260,0,0,0,0
1.52847323781466E+018,40,1.52847323781423E+018,16320,0,0,0,0
1.52847323783561E+018,41,1.52847323783518E+018,16340,0,0,0,0
1.5284732378945E+018,42,1.52847323789415E+018,16400,0,0,0,0
1.52847323795264E+018,43,1.52847323795216E+018,16460,0,0,0,0
1.52847323797548E+018,44,1.52847323797516E+018,16480,0,0,0,0
1.52847323803443E+018,45,1.52847323803412E+018,16540,0,0,0,0
1.52847323809441E+018,46,1.52847323809405E+018,16600,0,0,0,0
1.52847323815235E+018,47,1.528473238152E+018,16660,0,0,0,0
1.52847323817443E+018,48,1.52847323817407E+018,16680,0,0,0,0
1.52847323823227E+018,49,1.52847323823187E+018,16740,0,0,0,0
1.52847323825499E+018,50,1.52847323825426E+018,16760,0,0,0,0
1.52847323831439E+018,51,1.52847323831396E+018,16820,0,0,0,0
1.52847323837234E+018,52,1.52847323837188E+018,16880,0,0,0,0
1.52847323839445E+018,53,1.52847323839399E+018,16900,0,0,0,0
1.52847323845431E+018,54,1.52847323845389E+018,16960,0,0,0,0
1.52847323851401E+018,55,1.52847323851374E+018,17020,0,0,0,0
1.52847323857297E+018,56,1.5284732385727E+018,17080,0,0,0,0
1.52847323859405E+018,57,1.52847323859369E+018,17100,0,0,0,0
1.52847323865396E+018,58,1.52847323865362E+018,17160,0,0,0,0
1.52847323871306E+018,59,1.5284732387127E+018,17220,0,0,0,0
1.52847323873401E+018,60,1.52847323873362E+018,17240,0,0,0,0
1.52847323879329E+018,61,1.52847323879288E+018,17300,0,0,0,0
1.52847323885305E+018,62,1.52847323885258E+018,17360,0,0,0,0
1.528473238911E+018,63,1.52847323891061E+018,17420,0,0,0,0
1.52847323893315E+018,64,1.52847323893274E+018,17440,0,0,0,0
1.52847323899083E+018,65,1.52847323899047E+018,17500,0,0,0,0
1.52847323901289E+018,66,1.52847323901248E+018,17520,0,0,0,0
1.52847323907297E+018,67,1.52847323907256E+018,17580,0,0,0,0
1.52847323913073E+018,68,1.52847323913044E+018,17640,0,0,0,0
1.52847323915279E+018,69,1.52847323915244E+018,17660,0,0,0,0
1.52847323921283E+018,70,1.52847323921241E+018,17720,0,0,0,0
1.52847323927281E+018,71,1.52847323927244E+018,17780,0,0,0,0
1.52847323933166E+018,72,1.52847323933129E+018,17840,0,0,0,0
1.52847323935264E+018,73,1.52847323935229E+018,17860,0,0,0,0
1.52847323941282E+018,74,1.52847323941237E+018,17920,0,0,0,0
1.52847323947169E+018,75,1.52847323947132E+018,17980,0,0,0,0
1.52847323949253E+018,76,1.52847323949221E+018,18000,0,0,0,0
1.5284732395518E+018,77,1.52847323955137E+018,18060,0,0,0,0
1.52847323961162E+018,78,1.52847323961125E+018,18120,0,0,0,0
1.52847323966966E+018,79,1.52847323966928E+018,18180,0,0,0,0
1.5284732396915E+018,80,1.52847323969117E+018,18200,0,0,0,0
1.52847323975144E+018,81,1.52847323975114E+018,18260,0,0,0,0
1.52847323981157E+018,82,1.52847323981118E+018,18320,0,0,0,0
1.52847323987175E+018,83,1.52847323987123E+018,18380,0,0,0,0
1.52847323993155E+018,84,1.52847323993117E+018,18440,0,0,0,0
1.52847323999156E+018,85,1.52847323999119E+018,18500,0,0,0,0
1.52847324005151E+018,86,1.52847324005111E+018,18560,0,0,0,0
1.52847324011045E+018,87,1.52847324011003E+018,18620,0,0,0,0
1.52847324013131E+018,88,1.52847324013096E+018,18640,0,0,0,0
1.52847324019039E+018,89,1.52847324019001E+018,18700,0,0,0,0
1.52847324024817E+018,90,1.52847324024784E+018,18760,0,0,0,0
1.5284732402712E+018,91,1.52847324027088E+018,18780,0,0,0,0
1.52847324033017E+018,92,1.5284732403298E+018,18840,0,0,0,0
1.52847324038779E+018,93,1.52847324038758E+018,18900,0,0,0,0
1.52847324041005E+018,94,1.52847324040974E+018,18920,0,0,0,0
1.5284732404701E+018,95,1.5284732404697E+018,18980,0,0,0,0
1.52847324052794E+018,96,1.52847324052754E+018,19040,0,0,0,0
1.5284732405499E+018,97,1.52847324054955E+018,19060,0,0,0,0
1.52847324060988E+018,98,1.52847324060954E+018,19120,0,0,0,0
1.52847324066994E+018,99,1.52847324066957E+018,19180,0,0,0,0
1.52847324072986E+018,100,1.52847324072952E+018,19240,0,0,0,0
1.52847324078787E+018,101,1.52847324078751E+018,19300,0,0,0,0
1.52847324080998E+018,102,1.52847324080954E+018,19320,0,0,0,0
1.52847324086881E+018,103,1.52847324086848E+018,19380,0,0,0,0
1.52847324089E+018,104,1.52847324088957E+018,19400,0,0,0,0
1.52847324094879E+018,105,1.52847324094842E+018,19460,0,0,0,0
1.52847324100683E+018,106,1.52847324100648E+018,19520,0,0,0,0
1.52847324102907E+018,107,1.52847324102855E+018,19540,0,0,0,0
1.52847324108667E+018,108,1.52847324108634E+018,19600,0,0,0,0
1.5284732411088E+018,109,1.52847324110842E+018,19620,0,0,0,0
1.52847324116682E+018,110,1.52847324116637E+018,19680,0,0,0,0
1.52847324118883E+018,111,1.52847324118842E+018,19700,0,0,0,0
1.52847324124863E+018,112,1.52847324124841E+018,19760,0,0,0,0
1.52847324130852E+018,113,1.52847324130828E+018,19820,0,0,0,0
1.52847324136823E+018,114,1.52847324136806E+018,19880,0,0,0,0
1.52847324142855E+018,115,1.52847324142819E+018,19940,0,0,0,0
1.52847324148856E+018,116,1.5284732414882E+018,20000,0,0,0,0
1.52847324154637E+018,117,1.52847324154602E+018,20060,0,0,0,0
1.5284732415687E+018,118,1.52847324156815E+018,20080,0,0,0,0
1.52847324162754E+018,119,1.52847324162716E+018,20140,0,0,0,0
1.52847324164841E+018,120,1.52847324164802E+018,20160,0,0,0,0
1.52847324170826E+018,121,1.52847324170791E+018,20220,0,0,0,0
1.52847324176735E+018,122,1.52847324176699E+018,20280,0,0,0,0
1.5284732417884E+018,123,1.52847324178795E+018,20300,0,0,0,0
1.52847324184725E+018,124,1.52847324184691E+018,20360,0,0,0,0
1.52847324190725E+018,125,1.52847324190679E+018,20420,0,0,0,0
1.52847324196577E+018,126,1.52847324196478E+018,20480,0,0,0,0
1.52847324198734E+018,127,1.52847324198694E+018,20500,0,0,0,0
1.52847324204512E+018,128,1.52847324204473E+018,20560,0,0,0,0
1.52847324206719E+018,129,1.5284732420668E+018,20580,0,0,0,0
1.52847324212713E+018,130,1.52847324212674E+018,20640,0,0,0,0
1.52847324218506E+018,131,1.52847324218473E+018,20700,0,0,0,0
1.52847324220709E+018,132,1.52847324220668E+018,20720,0,0,0,0
1.52847324226709E+018,133,1.52847324226668E+018,20780,0,0,0,0
1.5284732423267E+018,134,1.52847324232649E+018,20840,0,0,0,0
1.52847324238667E+018,135,1.52847324238641E+018,20900,0,0,0,0
1.52847324244441E+018,136,1.5284732424442E+018,20960,0,0,0,0
1.52847324246632E+018,137,1.52847324246611E+018,20980,0,0,0,0
1.52847324252616E+018,138,1.52847324252598E+018,21040,0,0,0,0
1.52847324258603E+018,139,1.52847324258584E+018,21100,0,0,0,0
1.52847324264574E+018,140,1.52847324264555E+018,21160,0,0,0,0
1.5284732427037E+018,141,1.52847324270343E+018,21220,0,0,0,0
1.52847324272555E+018,142,1.52847324272533E+018,21240,0,0,0,0
1.52847324278543E+018,143,1.52847324278521E+018,21300,0,0,0,0
1.52847324284344E+018,144,1.52847324284307E+018,21360,0,0,0,0
1.52847324286521E+018,145,1.52847324286496E+018,21380,0,0,0,0
1.5284732429252E+018,146,1.52847324292486E+018,21440,0,0,0,0
1.52847324298278E+018,147,1.52847324298262E+018,21500,0,0,0,0
1.52847324300506E+018,148,1.52847324300464E+018,21520,0,0,0,0
1.5284732430648E+018,149,1.52847324306301E+018,21580,0,0,0,0
1.52847324308592E+018,150,1.52847324308557E+018,21600,0,0,0,0
1.52847324314489E+018,151,1.52847324314444E+018,21660,0,0,0,0
1.52847324320281E+018,152,1.5284732432024E+018,21720,0,0,0,0
1.52847324322578E+018,153,1.52847324322541E+018,21740,0,0,0,0
1.52847324324159E+018,154,1.52847324324127E+018,21760,0,0,0,0
1.52847324326463E+018,155,1.52847324326431E+018,21780,0,0,0,0
1.52847324332268E+018,156,1.52847324332229E+018,21840,0,0,0,0
1.52847324334476E+018,157,1.5284732433443E+018,21860,0,0,0,0
1.52847324340456E+018,158,1.52847324340422E+018,21920,0,0,0,0
1.5284732434627E+018,159,1.52847324346228E+018,21980,0,0,0,0
1.52847324348474E+018,160,1.52847324348435E+018,22000,0,0,0,0
1.52847324354459E+018,161,1.52847324354426E+018,22060,0,0,0,0
1.52847324360452E+018,162,1.52847324360409E+018,22120,0,0,0,0
1.52847324366449E+018,163,1.52847324366409E+018,22180,0,0,0,0
1.52847324372442E+018,164,1.52847324372407E+018,22240,0,0,0,0
1.52847324378352E+018,165,1.52847324378313E+018,22300,0,0,0,0
1.52847324384129E+018,166,1.52847324384093E+018,22360,0,0,0,0
1.52847324386436E+018,167,1.52847324386397E+018,22380,0,0,0,0
1.52847324392319E+018,168,1.52847324392282E+018,22440,0,0,0,0
1.52847324394429E+018,169,1.52847324394392E+018,22460,0,0,0,0
1.52847324400315E+018,170,1.52847324400283E+018,22520,0,0,0,0
1.52847324406321E+018,171,1.52847324406283E+018,22580,0,0,0,0
1.52847324412121E+018,172,1.52847324412079E+018,22640,0,0,0,0
1.52847324414323E+018,173,1.52847324414292E+018,22660,0,0,0,0
1.52847324420303E+018,174,1.52847324420273E+018,22720,0,0,0,0
1.52847324426106E+018,175,1.52847324426068E+018,22780,0,0,0,0
1.5284732442832E+018,176,1.5284732442828E+018,22800,0,0,0,0
1.52847324434106E+018,177,1.52847324434068E+018,22860,0,0,0,0
1.52847324436311E+018,178,1.52847324436279E+018,22880,0,0,0,0
1.52847324442294E+018,179,1.52847324442264E+018,22940,0,0,0,0
1.52847324448097E+018,180,1.52847324448053E+018,23000,0,0,0,0
1.52847324450296E+018,181,1.52847324450257E+018,23020,0,0,0,0
1.52847324456218E+018,182,1.52847324456173E+018,23080,0,0,0,0
1.52847324458294E+018,183,1.52847324458256E+018,23100,0,0,0,0
1.52847324464182E+018,184,1.52847324464145E+018,23160,0,0,0,0
1.52847324469989E+018,185,1.52847324469946E+018,23220,0,0,0,0
1.52847324472284E+018,186,1.52847324472245E+018,23240,0,0,0,0
1.52847324478228E+018,187,1.52847324478153E+018,23300,0,0,0,0
1.52847324484183E+018,188,1.52847324484144E+018,23360,0,0,0,0
1.52847324489972E+018,189,1.52847324489932E+018,23420,0,0,0,0
1.5284732449218E+018,190,1.5284732449214E+018,23440,0,0,0,0
1.52847324497966E+018,191,1.5284732449793E+018,23500,0,0,0,0
1.52847324500171E+018,192,1.52847324500134E+018,23520,0,0,0,0
1.52847324506253E+018,193,1.5284732450616E+018,23580,0,0,0,0
1.52847324512147E+018,194,1.52847324512118E+018,23640,0,0,0,0
1.52847324518169E+018,195,1.52847324518133E+018,23700,0,0,0,0
1.52847324523917E+018,196,1.52847324523896E+018,23760,0,0,0,0
1.52847324526185E+018,197,1.52847324526145E+018,23780,0,0,0,0
1.5284732453215E+018,198,1.528473245321E+018,23840,0,0,0,0
1.52847324538137E+018,199,1.52847324538098E+018,23900,0,0,0,0
1.52847324544048E+018,200,1.52847324544002E+018,23960,0,0,0,0
1.52847324549835E+018,201,1.52847324549795E+018,24020,0,0,0,0
1.52847324552123E+018,202,1.5284732455209E+018,24040,0,0,0,0
1.5284732455802E+018,203,1.52847324557982E+018,24100,0,0,0,0
1.52847324563812E+018,204,1.52847324563782E+018,24160,0,0,0,0
1.52847324566039E+018,205,1.52847324566007E+018,24180,0,0,0,0
1.52847324572021E+018,206,1.52847324571986E+018,24240,0,0,0,0
1.5284732457781E+018,207,1.52847324577776E+018,24300,0,0,0,0
1.5284732458003E+018,208,1.52847324579987E+018,24320,0,0,0,0
1.5284732458601E+018,209,1.52847324585971E+018,24380,0,0,0,0
1.5284732459203E+018,210,1.52847324592E+018,24440,0,0,0,0
1.52847324598003E+018,211,1.5284732459797E+018,24500,0,0,0,0
1.52847324604019E+018,212,1.52847324603975E+018,24560,0,0,0,0
1.52847324609993E+018,213,1.52847324609968E+018,24620,0,0,19,19
1.52847324615916E+018,214,1.52847324615875E+018,24680,0,0,19,19
1.52847324621695E+018,215,1.52847324621653E+018,24740,20,21,9,8
1.52847324623995E+018,216,1.52847324623955E+018,24760,25,25,7,8
1.52847324629902E+018,217,1.5284732462986E+018,24820,39,39,12,12
1.52847324635873E+018,218,1.52847324635842E+018,24880,58,58,9,9
1.52847324641715E+018,219,1.52847324641672E+018,24940,79,79,8,8
1.5284732464388E+018,220,1.52847324643845E+018,24960,87,88,7,7
1.52847324649876E+018,221,1.52847324649844E+018,25020,108,109,9,9
1.52847324655889E+018,222,1.52847324655851E+018,25080,130,131,8,8
1.52847324661868E+018,223,1.52847324661841E+018,25140,147,148,11,11
1.5284732466788E+018,224,1.52847324667839E+018,25200,168,170,9,8
1.52847324673867E+018,225,1.5284732467383E+018,25260,189,190,9,9
1.52847324679857E+018,226,1.52847324679832E+018,25320,213,213,8,8
1.5284732468576E+018,227,1.5284732468572E+018,25380,235,236,9,8
1.52847324687854E+018,228,1.52847324687817E+018,25400,243,244,8,8
1.52847324693752E+018,229,1.52847324693719E+018,25460,262,265,10,9
1.5284732469955E+018,230,1.52847324699515E+018,25520,284,287,9,9
1.52847324701761E+018,231,1.52847324701723E+018,25540,291,295,9,8
1.52847324707559E+018,232,1.52847324707527E+018,25600,312,316,9,9
1.52847324709745E+018,233,1.528473247097E+018,25620,319,324,10,9
1.52847324715556E+018,234,1.52847324715509E+018,25680,343,347,8,8
1.52847324717731E+018,235,1.52847324717696E+018,25700,350,354,9,9
1.52847324723732E+018,236,1.52847324723693E+018,25760,371,376,10,9
1.52847324729739E+018,237,1.528473247297E+018,25820,396,399,8,9
1.52847324735735E+018,238,1.52847324735696E+018,25880,419,422,9,9
1.52847324741734E+018,239,1.52847324741698E+018,25940,442,445,9,9
1.52847324747735E+018,240,1.52847324747704E+018,26000,464,467,9,9
1.52847324753519E+018,241,1.52847324753487E+018,26060,487,490,9,9
1.52847324755718E+018,242,1.5284732475569E+018,26080,495,497,8,9
1.52847324761619E+018,243,1.5284732476158E+018,26140,518,520,9,9
1.52847324767418E+018,244,1.52847324767387E+018,26200,543,545,8,8
1.52847324769612E+018,245,1.52847324769589E+018,26220,550,552,9,9
1.52847324775641E+018,246,1.52847324775598E+018,26280,572,574,10,10
1.52847324781419E+018,247,1.52847324781384E+018,26340,596,599,9,8
1.52847324783599E+018,248,1.52847324783569E+018,26360,604,607,8,9
1.5284732478962E+018,249,1.52847324789579E+018,26420,629,632,8,8
1.52847324795611E+018,250,1.52847324795572E+018,26480,653,655,9,9
1.52847324801636E+018,251,1.52847324801582E+018,26540,676,677,9,10
1.52847324807602E+018,252,1.52847324807571E+018,26600,700,702,9,9
1.52847324813523E+018,253,1.52847324813483E+018,26660,725,726,9,9
1.52847324815608E+018,254,1.52847324815568E+018,26680,733,734,9,9
1.5284732482149E+018,255,1.52847324821464E+018,26740,758,758,9,9
1.52847324827368E+018,256,1.52847324827281E+018,26800,780,780,10,10
1.52847324829603E+018,257,1.52847324829569E+018,26820,788,788,10,10
1.52847324835502E+018,258,1.52847324835466E+018,26880,813,813,9,9
1.52847324841294E+018,259,1.52847324841251E+018,26940,838,839,9,8
1.52847324843497E+018,260,1.52847324843457E+018,26960,847,847,8,9
1.52847324849513E+018,261,1.52847324849473E+018,27020,871,871,10,10
1.52847324855288E+018,262,1.52847324855251E+018,27080,894,895,10,10
1.52847324857516E+018,263,1.52847324857457E+018,27100,903,902,10,10
1.52847324863496E+018,264,1.52847324863454E+018,27160,928,928,9,9
1.52847324869474E+018,265,1.52847324869439E+018,27220,955,954,8,9
1.52847324875523E+018,266,1.52847324875465E+018,27280,980,977,9,10
1.52847324881476E+018,267,1.52847324881434E+018,27340,1003,1001,10,10
1.52847324887394E+018,268,1.52847324887348E+018,27400,1029,1026,9,9
1.52847324893148E+018,269,1.52847324893114E+018,27460,1056,1052,8,9
1.52847324895452E+018,270,1.5284732489542E+018,27480,1065,1061,9,9
1.5284732490136E+018,271,1.52847324901321E+018,27540,1089,1086,10,10
1.52847324907155E+018,272,1.52847324907114E+018,27600,1113,1110,10,10
1.52847324909356E+018,273,1.5284732490932E+018,27620,1121,1118,10,10
1.52847324915384E+018,274,1.52847324915316E+018,27680,1147,1146,9,8
1.52847324921159E+018,275,1.52847324921119E+018,27740,1174,1172,9,9
1.52847324923371E+018,276,1.52847324923322E+018,27760,1182,1180,9,9
1.52847324929344E+018,277,1.52847324929309E+018,27820,1207,1204,10,10
1.5284732493535E+018,278,1.5284732493531E+018,27880,1230,1229,11,10
1.5284732494133E+018,279,1.52847324941296E+018,27940,1258,1257,8,8
1.52847324947347E+018,280,1.52847324947303E+018,28000,1285,1284,9,9
1.52847324953331E+018,281,1.52847324953295E+018,28060,1309,1309,10,10
1.5284732495933E+018,282,1.52847324959296E+018,28120,1335,1332,10,11
1.52847324965218E+018,283,1.52847324965183E+018,28180,1362,1360,9,9
1.52847324967313E+018,284,1.52847324967281E+018,28200,1372,1369,8,9
1.52847324973225E+018,285,1.52847324973199E+018,28260,1398,1396,10,9
1.52847324979024E+018,286,1.52847324978988E+018,28320,1423,1420,10,11
1.5284732498122E+018,287,1.52847324981183E+018,28340,1432,1428,10,11
1.52847324986998E+018,288,1.52847324986965E+018,28400,1458,1455,10,9
1.52847324989203E+018,289,1.52847324989171E+018,28420,1467,1465,9,9
1.52847324995018E+018,290,1.52847324994979E+018,28480,1496,1493,8,9
1.52847324997231E+018,291,1.52847324997198E+018,28500,1505,1502,9,9
1.52847325003194E+018,292,1.52847325003158E+018,28560,1530,1527,10,10
1.52847325009216E+018,293,1.52847325009175E+018,28620,1556,1552,10,11
1.52847325015199E+018,294,1.52847325015163E+018,28680,1584,1580,9,9
1.52847325021014E+018,295,1.52847325020973E+018,28740,1611,1608,10,9
1.52847325023205E+018,296,1.52847325023168E+018,28760,1619,1616,10,10
1.52847325029161E+018,297,1.5284732502914E+018,28820,1643,1639,11,12
1.52847325035184E+018,298,1.52847325035143E+018,28880,1669,1664,10,11
1.52847325041071E+018,299,1.52847325041034E+018,28940,1696,1693,10,9
1.52847325043159E+018,300,1.52847325043126E+018,28960,1706,1702,9,9
1.52847325049183E+018,301,1.5284732504914E+018,29020,1733,1730,10,9
1.52847325055064E+018,302,1.52847325055029E+018,29080,1758,1755,11,11
1.52847325060863E+018,303,1.52847325060829E+018,29140,1785,1782,10,10
1.52847325063053E+018,304,1.52847325063028E+018,29160,1794,1791,10,10
1.52847325069078E+018,305,1.5284732506905E+018,29220,1823,1818,9,10
1.52847325074856E+018,306,1.52847325074817E+018,29280,1848,1844,11,11
1.52847325077059E+018,307,1.52847325077029E+018,29300,1856,1853,11,11
1.52847325082966E+018,308,1.52847325082833E+018,29360,1883,1879,10,11
1.52847325085057E+018,309,1.52847325085027E+018,29380,1893,1889,10,10
1.52847325091064E+018,310,1.52847325091013E+018,29440,1921,1917,10,10
1.52847325096839E+018,311,1.52847325096806E+018,29500,1949,1945,10,10
1.52847325099044E+018,312,1.52847325099011E+018,29520,1956,1953,11,10
1.52847325105051E+018,313,1.52847325105015E+018,29580,1982,1979,11,11
1.5284732511104E+018,314,1.52847325110999E+018,29640,2011,2008,9,9
1.52847325116931E+018,315,1.52847325116898E+018,29700,2039,2037,10,9
1.52847325122729E+018,316,1.52847325122693E+018,29760,2063,2063,12,11
1.52847325125032E+018,317,1.52847325124998E+018,29780,2072,2071,12,11
1.52847325130947E+018,318,1.52847325130907E+018,29840,2098,2097,11,11
1.52847325136717E+018,319,1.52847325136679E+018,29900,2127,2126,10,10
1.52847325138921E+018,320,1.52847325138884E+018,29920,2136,2136,10,10
1.5284732514493E+018,321,1.52847325144894E+018,29980,2164,2165,10,10
1.52847325150919E+018,322,1.52847325150889E+018,30040,2190,2191,11,11
1.52847325156939E+018,323,1.52847325156899E+018,30100,2218,2220,10,10
1.52847325162931E+018,324,1.52847325162895E+018,30160,2248,2249,9,10
1.5284732516893E+018,325,1.52847325168886E+018,30220,2275,2276,11,11
1.52847325174914E+018,326,1.52847325174879E+018,30280,2301,2303,11,11
1.52847325180825E+018,327,1.52847325180785E+018,30340,2330,2332,10,10
1.52847325186626E+018,328,1.52847325186577E+018,30400,2361,2363,9,9
1.5284732518882E+018,329,1.52847325188778E+018,30420,2371,2372,9,9
1.52847325194594E+018,330,1.52847325194558E+018,30480,2396,2398,12,11
1.52847325196804E+018,331,1.52847325196763E+018,30500,2405,2407,11,11
1.52847325202592E+018,332,1.52847325202552E+018,30560,2434,2435,10,11
1.52847325204813E+018,333,1.52847325204781E+018,30580,2444,2445,10,10
1.52847325210587E+018,334,1.52847325210553E+018,30640,2473,2475,10,10
1.5284732521278E+018,335,1.52847325212746E+018,30660,2482,2484,11,10
1.52847325218799E+018,336,1.52847325218754E+018,30720,2509,2512,11,11
1.52847325224576E+018,337,1.52847325224541E+018,30780,2540,2541,9,10
1.52847325226817E+018,338,1.52847325226761E+018,30800,2550,2550,10,10
1.52847325232778E+018,339,1.52847325232737E+018,30860,2581,2582,9,9
1.52847325238778E+018,340,1.52847325238746E+018,30920,2606,2608,12,12
1.52847325244665E+018,341,1.52847325244634E+018,30980,2635,2636,10,11
1.5284732524677E+018,342,1.52847325246735E+018,31000,2644,2646,10,10
1.52847325252769E+018,343,1.52847325252732E+018,31060,2675,2677,9,9
1.52847325258684E+018,344,1.52847325258636E+018,31120,2702,2705,11,11
1.52847325264466E+018,345,1.52847325264427E+018,31180,2731,2733,10,11
1.5284732526668E+018,346,1.52847325266639E+018,31200,2740,2742,10,10
1.52847325272651E+018,347,1.5284732527262E+018,31260,2772,2773,9,9
1.52847325278483E+018,348,1.52847325278441E+018,31320,2802,2804,10,10
1.52847325280669E+018,349,1.52847325280626E+018,31340,2811,2813,11,11
1.52847325286654E+018,350,1.5284732528662E+018,31400,2839,2840,11,12
1.52847325292678E+018,351,1.52847325292626E+018,31460,2869,2870,10,10
1.52847325298664E+018,352,1.52847325298609E+018,31520,2902,2903,9,9
1.52847325304661E+018,353,1.52847325304619E+018,31580,2928,2931,12,11
1.52847325310655E+018,354,1.52847325310609E+018,31640,2958,2960,10,11
1.52847325316637E+018,355,1.52847325316601E+018,31700,2990,2992,9,9
1.52847325322528E+018,356,1.52847325322494E+018,31760,3021,3023,10,10
1.52847325324615E+018,357,1.52847325324584E+018,31780,3031,3033,10,10
1.52847325330526E+018,358,1.52847325330494E+018,31840,3058,3062,12,11
1.52847325336334E+018,359,1.52847325336291E+018,31900,3090,3093,9,10
1.52847325338536E+018,360,1.52847325338497E+018,31920,3100,3105,10,9
1.52847325344317E+018,361,1.52847325344279E+018,31980,3132,3135,9,10
1.52847325346527E+018,362,1.52847325346492E+018,32000,3140,3144,11,11
1.52847325352547E+018,363,1.528473253525E+018,32060,3168,3172,11,11
1.52847325358537E+018,364,1.52847325358504E+018,32120,3201,3205,9,9
1.52847325364335E+018,365,1.52847325364295E+018,32180,3233,3236,9,10
1.52847325366544E+018,366,1.52847325366499E+018,32200,3244,3246,9,9
1.52847325372507E+018,367,1.52847325372473E+018,32260,3271,3273,12,12
1.52847325378518E+018,368,1.52847325378479E+018,32320,3305,3305,9,10
1.52847325384407E+018,369,1.52847325384361E+018,32380,3336,3337,10,10
1.52847325390198E+018,370,1.52847325390161E+018,32440,3364,3364,12,12
1.52847325392504E+018,371,1.52847325392469E+018,32460,3373,3374,12,12
1.52847325398403E+018,372,1.5284732539836E+018,32520,3407,3406,9,10
1.52847325404192E+018,373,1.52847325404163E+018,32580,3439,3438,10,10
1.52847325406389E+018,374,1.52847325406355E+018,32600,3449,3449,10,10
1.52847325412399E+018,375,1.52847325412355E+018,32660,3478,3476,11,12
1.52847325418183E+018,376,1.52847325418146E+018,32720,3511,3509,9,9
1.5284732542038E+018,377,1.52847325420347E+018,32740,3521,3519,9,9
1.5284732542643E+018,378,1.52847325426391E+018,32800,3554,3552,9,9
1.52847325432368E+018,379,1.52847325432335E+018,32860,3582,3580,12,12
1.52847325438386E+018,380,1.52847325438346E+018,32920,3615,3611,9,10
1.52847325444384E+018,381,1.52847325444337E+018,32980,3647,3645,10,9
1.52847325450289E+018,382,1.5284732545025E+018,33040,3679,3676,10,10
1.52847325452366E+018,383,1.52847325452323E+018,33060,3688,3684,11,12
1.52847325458258E+018,384,1.52847325458224E+018,33120,3720,3714,10,11
1.52847325464094E+018,385,1.52847325464048E+018,33180,3752,3747,10,9
1.52847325466271E+018,386,1.52847325466222E+018,33200,3764,3758,9,10
1.52847325472259E+018,387,1.52847325472231E+018,33260,3793,3787,11,11
1.52847325478055E+018,388,1.52847325478016E+018,33320,3824,3818,10,10
1.52847325480248E+018,389,1.52847325480219E+018,33340,3836,3829,9,9
1.52847325486278E+018,390,1.52847325486237E+018,33400,3869,3862,9,9
1.52847325492053E+018,391,1.52847325492017E+018,33460,3899,3894,11,10
1.52847325494262E+018,392,1.52847325494223E+018,33480,3907,3902,12,11
1.52847325500171E+018,393,1.52847325500134E+018,33540,3940,3934,9,10
1.52847325502236E+018,394,1.528473255022E+018,33560,3951,3946,9,9
1.52847325508246E+018,395,1.52847325508209E+018,33620,3984,3978,10,10
1.52847325514141E+018,396,1.528473255141E+018,33680,4010,4006,13,12
1.52847325519919E+018,397,1.52847325519888E+018,33740,4043,4039,10,10
1.52847325522131E+018,398,1.52847325522102E+018,33760,4054,4050,9,9
1.52847325528124E+018,399,1.528473255281E+018,33820,4088,4085,9,9
1.528473255339E+018,400,1.52847325533876E+018,33880,4119,4114,11,12
1.52847325536155E+018,401,1.52847325536094E+018,33900,4128,4122,12,13
1.52847325541901E+018,402,1.52847325541865E+018,33960,4162,4155,9,10
1.52847325544117E+018,403,1.5284732554408E+018,33980,4173,4166,9,10
1.52847325550117E+018,404,1.52847325550078E+018,34040,4189,4215,2,16
1.52847325555892E+018,405,1.52847325555852E+018,34100,4202,4253,4,21
1.52847325558118E+018,406,1.52847325558082E+018,34120,4208,4268,3,19
1.5284732556411E+018,407,1.52847325564069E+018,34180,4224,4313,2,18
1.52847325570118E+018,408,1.52847325570069E+018,34240,4236,4360,4,17
1.52847325575995E+018,409,1.52847325575957E+018,34300,4249,4404,4,19
1.52847325581774E+018,410,1.52847325581739E+018,34360,4269,4448,0,19
1.52847325584084E+018,411,1.52847325584045E+018,34380,4275,4462,1,19
1.52847325589976E+018,412,1.52847325589937E+018,34440,4292,4505,2,20
1.52847325595774E+018,413,1.52847325595746E+018,34500,4302,4552,5,18
1.52847325597989E+018,414,1.52847325597951E+018,34520,4305,4568,5,17
1.52847325603982E+018,415,1.52847325603942E+018,34580,4316,4614,4,18
1.52847325609996E+018,416,1.52847325609962E+018,34640,4329,4656,3,20
1.52847325615974E+018,417,1.52847325615934E+018,34700,4344,4701,2,19
1.52847325621994E+018,418,1.52847325621951E+018,34760,4362,4746,1,19
1.5284732562796E+018,419,1.52847325627922E+018,34820,4380,4792,1,19
1.5284732563398E+018,420,1.52847325633938E+018,34880,4393,4838,3,19
1.52847325639858E+018,421,1.52847325639822E+018,34940,4404,4885,4,18
1.52847325645674E+018,422,1.5284732564563E+018,35000,4414,4933,5,18
1.5284732564787E+018,423,1.52847325647834E+018,35020,4418,4947,4,19
1.52847325653856E+018,424,1.52847325653824E+018,35080,4429,4991,4,20
1.52847325659862E+018,425,1.52847325659825E+018,35140,4441,5037,4,19
1.52847325665846E+018,426,1.5284732566581E+018,35200,4457,5084,2,19
1.52847325671666E+018,427,1.5284732567163E+018,35260,4472,5131,2,19
1.52847325673849E+018,428,1.52847325673818E+018,35280,4478,5146,1,19
1.52847325679851E+018,429,1.52847325679815E+018,35340,4496,5194,0,18
1.52847325685851E+018,430,1.52847325685815E+018,35400,4510,5239,2,20
1.5284732569174E+018,431,1.528473256917E+018,35460,4522,5285,3,20
1.52847325693826E+018,432,1.52847325693791E+018,35480,4525,5300,4,20
1.52847325699741E+018,433,1.52847325699702E+018,35540,4537,5346,3,20
1.52847325705533E+018,434,1.52847325705492E+018,35600,4549,5392,3,20
1.52847325707744E+018,435,1.52847325707706E+018,35620,4554,5407,3,20
1.52847325713516E+018,436,1.52847325713479E+018,35680,4570,5454,1,19
1.52847325715714E+018,437,1.52847325715681E+018,35700,4576,5470,1,19
1.52847325721527E+018,438,1.5284732572149E+018,35760,4592,5519,1,19
1.52847325723708E+018,439,1.52847325723675E+018,35780,4597,5535,1,19
1.52847325729723E+018,440,1.52847325729685E+018,35840,4608,5583,3,19
1.52847325735715E+018,441,1.5284732573568E+018,35900,4618,5632,4,19
1.52847325741703E+018,442,1.52847325741664E+018,35960,4626,5680,5,19
1.52847325747508E+018,443,1.52847325747465E+018,36020,4635,5730,4,18
1.52847325749714E+018,444,1.52847325749671E+018,36040,4639,5745,4,19
1.52847325755707E+018,445,1.52847325755668E+018,36100,4649,5793,4,19
1.52847325761689E+018,446,1.52847325761646E+018,36160,4660,5843,3,19
1.52847325767597E+018,447,1.5284732576756E+018,36220,4672,5892,3,19
1.52847325773383E+018,448,1.52847325773344E+018,36280,4684,5943,3,18
1.52847325775584E+018,449,1.52847325775558E+018,36300,4689,5959,2,19
1.52847325781607E+018,450,1.52847325781564E+018,36360,4706,6007,0,20
1.52847325787581E+018,451,1.52847325787554E+018,36420,4721,6056,1,19
1.52847325793596E+018,452,1.52847325793556E+018,36480,4730,6107,4,18
1.5284732579958E+018,453,1.52847325799544E+018,36540,4739,6157,4,19
1.52847325805593E+018,454,1.52847325805554E+018,36600,4747,6207,5,19
1.52847325811371E+018,455,1.52847325811335E+018,36660,4757,6256,4,20
1.52847325813571E+018,456,1.5284732581354E+018,36680,4760,6273,4,19
1.52847325819484E+018,457,1.52847325819446E+018,36740,4772,6324,3,19
1.52847325825267E+018,458,1.52847325825228E+018,36800,4786,6374,2,19
1.52847325827472E+018,459,1.5284732582743E+018,36820,4790,6391,2,19
1.52847325833467E+018,460,1.52847325833429E+018,36880,4805,6442,1,19
1.52847325839254E+018,461,1.52847325839217E+018,36940,4818,6492,2,19
1.52847325841455E+018,462,1.52847325841428E+018,36960,4821,6509,3,19
1.52847325847489E+018,463,1.52847325847441E+018,37020,4829,6560,4,19
1.5284732585346E+018,464,1.52847325853432E+018,37080,4838,6611,4,19
1.52847325859468E+018,465,1.52847325859428E+018,37140,4845,6662,5,19
1.52847325865465E+018,466,1.52847325865431E+018,37200,4855,6713,3,19
1.52847325871351E+018,467,1.52847325871312E+018,37260,4864,6764,4,19
1.52847325873439E+018,468,1.52847325873406E+018,37280,4867,6781,4,19
1.52847325879396E+018,469,1.52847325879366E+018,37340,4877,6833,3,19
1.52847325885154E+018,470,1.52847325885116E+018,37400,4888,6885,3,19
1.52847325887359E+018,471,1.52847325887319E+018,37420,4892,6902,2,20
1.52847325893154E+018,472,1.52847325893112E+018,37480,4905,6954,2,19
1.52847325895334E+018,473,1.52847325895298E+018,37500,4911,6970,1,19
1.5284732590112E+018,474,1.52847325901097E+018,37560,4924,7022,2,19
1.52847325903332E+018,475,1.52847325903301E+018,37580,4928,7039,2,19
1.52847325909344E+018,476,1.52847325909302E+018,37640,4936,7091,4,19
1.52847325915347E+018,477,1.52847325915296E+018,37700,4943,7144,5,19
1.52847325921344E+018,478,1.528473259213E+018,37760,4952,7195,4,20
1.52847325927342E+018,479,1.52847325927302E+018,37820,4960,7245,4,20
1.52847325933236E+018,480,1.528473259332E+018,37880,4971,7297,3,19
1.52847325939028E+018,481,1.52847325938991E+018,37940,4983,7347,2,20
1.52847325941252E+018,482,1.52847325941213E+018,37960,4988,7365,2,20
1.52847325947016E+018,483,1.52847325946982E+018,38020,5001,7416,2,20
1.52847325949216E+018,484,1.52847325949186E+018,38040,5006,7434,1,19
1.52847325955027E+018,485,1.5284732595499E+018,38100,5021,7488,0,19
1.52847325957225E+018,486,1.52847325957192E+018,38120,5025,7505,1,20
1.52847325963218E+018,487,1.52847325963186E+018,38180,5038,7557,1,20
1.52847325969211E+018,488,1.52847325969176E+018,38240,5046,7611,4,19
1.52847325975212E+018,489,1.52847325975173E+018,38300,5054,7665,4,19
1.52847325981214E+018,490,1.52847325981174E+018,38360,5062,7716,4,20
1.52847325987221E+018,491,1.52847325987174E+018,38420,5069,7769,4,19
1.52847325993207E+018,492,1.52847325993161E+018,38480,5078,7820,3,20
1.52847325999101E+018,493,1.52847325999064E+018,38540,5092,7874,1,19
1.52847326004895E+018,494,1.52847326004856E+018,38600,5103,7927,2,19
1.52847326007099E+018,495,1.5284732600705E+018,38620,5108,7944,1,20
1.5284732601308E+018,496,1.52847326013047E+018,38680,5122,7998,1,19
1.52847326018898E+018,497,1.52847326018849E+018,38740,5136,8051,1,20
1.52847326021106E+018,498,1.52847326021053E+018,38760,5140,8067,1,20
1.52847326027108E+018,499,1.52847326027058E+018,38820,5149,8120,3,20
1.52847326033069E+018,500,1.52847326033037E+018,38880,5156,8172,4,20
1.5284732603916E+018,501,1.52847326039074E+018,38940,5163,8225,4,20
1.52847326045083E+018,502,1.52847326045047E+018,39000,5171,8277,4,20
1.52847326051084E+018,503,1.52847326051042E+018,39060,5179,8330,3,20
1.52847326057073E+018,504,1.52847326057025E+018,39120,5187,8384,3,19
1.52847326062975E+018,505,1.52847326062938E+018,39180,5193,8437,4,20
1.52847326068785E+018,506,1.52847326068736E+018,39240,5202,8490,3,20
1.52847326070966E+018,507,1.52847326070929E+018,39260,5205,8507,3,20
1.52847326076979E+018,508,1.52847326076934E+018,39320,5216,8561,2,20
1.5284732608295E+018,509,1.52847326082914E+018,39380,5228,8615,1,20
1.52847326089033E+018,510,1.52847326088959E+018,39440,5240,8668,1,20
1.52847326094954E+018,511,1.52847326094919E+018,39500,5250,8721,2,20
1.52847326100971E+018,512,1.52847326100922E+018,39560,5257,8775,4,20
1.52847326106955E+018,513,1.52847326106911E+018,39620,5257,8843,-11,27
1.52847326112856E+018,514,1.52847326112812E+018,39680,5256,8916,-11,25
1.52847326114951E+018,515,1.52847326114897E+018,39700,5255,8942,-10,23
1.52847326120826E+018,516,1.528473261208E+018,39760,5255,9015,-11,25
1.52847326126635E+018,517,1.52847326126602E+018,39820,5254,9092,-11,23
1.52847326128834E+018,518,1.52847326128802E+018,39840,5253,9119,-10,22
1.52847326134623E+018,519,1.52847326134591E+018,39900,5252,9196,-11,23
1.52847326136863E+018,520,1.52847326136818E+018,39920,5252,9222,-11,23
1.52847326142616E+018,521,1.52847326142583E+018,39980,5252,9298,-12,24
1.52847326144823E+018,522,1.52847326144783E+018,40000,5251,9323,-11,24
1.52847326150828E+018,523,1.52847326150788E+018,40060,5250,9399,-11,24
1.52847326156623E+018,524,1.52847326156583E+018,40120,5249,9475,-11,24
1.52847326158819E+018,525,1.52847326158783E+018,40140,5249,9501,-11,24
1.52847326164811E+018,526,1.52847326164774E+018,40200,5248,9577,-12,24
1.52847326170808E+018,527,1.52847326170772E+018,40260,5247,9655,-12,23
1.52847326176717E+018,528,1.5284732617668E+018,40320,5247,9730,-12,25
1.52847326178814E+018,529,1.5284732617877E+018,40340,5246,9757,-12,23
1.52847326184693E+018,530,1.52847326184659E+018,40400,5246,9832,-12,25
1.52847326190504E+018,531,1.52847326190458E+018,40460,5246,9909,-13,24
1.52847326192699E+018,532,1.52847326192661E+018,40480,5246,9935,-13,24
1.5284732619854E+018,533,1.52847326198497E+018,40540,5245,10013,-12,23
1.52847326200707E+018,534,1.52847326200673E+018,40560,5245,10038,-12,25
1.52847326206502E+018,535,1.52847326206458E+018,40620,5244,10115,-12,24
1.52847326208709E+018,536,1.52847326208659E+018,40640,5244,10140,-13,25
1.52847326214685E+018,537,1.5284732621465E+018,40700,5243,10217,-13,24
1.52847326220487E+018,538,1.52847326220454E+018,40760,5242,10296,-13,23
1.52847326222682E+018,539,1.52847326222656E+018,40780,5242,10322,-13,23
1.52847326228696E+018,540,1.52847326228654E+018,40840,5241,10398,-13,25
1.52847326234687E+018,541,1.52847326234653E+018,40900,5240,10474,-13,25
1.5284732624059E+018,542,1.52847326240554E+018,40960,5240,10550,-14,25
1.52847326246383E+018,543,1.52847326246352E+018,41020,5239,10628,-13,24
1.52847326248606E+018,544,1.52847326248559E+018,41040,5239,10654,-13,24
1.52847326254575E+018,545,1.52847326254542E+018,41100,5237,10732,-13,24
1.52847326260591E+018,546,1.52847326260555E+018,41160,5236,10810,-13,24
1.52847326266579E+018,547,1.52847326266537E+018,41220,5236,10886,-14,25
1.52847326272595E+018,548,1.52847326272551E+018,41280,5236,10964,-14,24
1.52847326278562E+018,549,1.52847326278525E+018,41340,5235,11044,-14,23
1.52847326284373E+018,550,1.52847326284344E+018,41400,5235,11122,-14,24
1.52847326286564E+018,551,1.52847326286529E+018,41420,5234,11148,-14,24
1.52847326292462E+018,552,1.52847326292424E+018,41480,5233,11227,-14,24
1.52847326294554E+018,553,1.52847326294519E+018,41500,5232,11254,-14,23
1.52847326300463E+018,554,1.52847326300427E+018,41560,5230,11333,-14,24
1.52847326306455E+018,555,1.5284732630642E+018,41620,5228,11411,-14,25
1.52847326312247E+018,556,1.52847326312206E+018,41680,5226,11492,-14,23
1.52847326314443E+018,557,1.52847326314411E+018,41700,5225,11517,-14,24
1.52847326320443E+018,558,1.52847326320407E+018,41760,5223,11598,-14,23
1.52847326326455E+018,559,1.52847326326412E+018,41820,5220,11677,-14,24
1.52847326332456E+018,560,1.52847326332415E+018,41880,5217,11758,-14,23
1.52847326338443E+018,561,1.52847326338402E+018,41940,5212,11837,-13,24
1.52847326344437E+018,562,1.52847326344403E+018,42000,5208,11918,-14,23
1.52847326350438E+018,563,1.528473263504E+018,42060,5203,11999,-13,23
1.52847326356344E+018,564,1.52847326356302E+018,42120,5197,12079,-13,24
1.52847326362118E+018,565,1.52847326362083E+018,42180,5189,12160,-12,23
1.52847326364323E+018,566,1.52847326364287E+018,42200,5188,12187,-13,24
1.52847326370353E+018,567,1.5284732637031E+018,42260,5180,12266,-12,25
1.52847326376117E+018,568,1.5284732637608E+018,42320,5172,12347,-12,24
1.52847326378374E+018,569,1.5284732637833E+018,42340,5171,12372,-13,24
1.52847326384335E+018,570,1.52847326384308E+018,42400,5163,12456,-12,22
1.52847326390316E+018,571,1.52847326390279E+018,42460,5156,12535,-13,25
1.52847326396317E+018,572,1.52847326396289E+018,42520,5151,12614,-14,25
1.52847326402329E+018,573,1.52847326402275E+018,42580,5144,12694,-13,24
1.5284732640828E+018,574,1.52847326408189E+018,42640,5139,12777,-14,23
1.52847326410309E+018,575,1.52847326410273E+018,42660,5138,12802,-14,24
1.52847326416214E+018,576,1.52847326416177E+018,42720,5132,12884,-14,23
1.52847326422021E+018,577,1.52847326421966E+018,42780,5130,12965,-16,24
1.52847326424191E+018,578,1.52847326424162E+018,42800,5128,12991,-15,23
1.52847326430188E+018,579,1.52847326430161E+018,42860,5123,13072,-14,24
1.52847326435982E+018,580,1.52847326435954E+018,42920,5119,13154,-15,24
1.52847326438183E+018,581,1.52847326438157E+018,42940,5116,13181,-15,24
1.52847326444179E+018,582,1.52847326444152E+018,43000,5111,13260,-15,25
1.52847326449981E+018,583,1.52847326449946E+018,43060,5105,13341,-14,24
1.52847326452179E+018,584,1.52847326452151E+018,43080,5104,13368,-15,25
1.52847326458216E+018,585,1.52847326458174E+018,43140,5095,13449,-13,24
1.52847326464177E+018,586,1.52847326464145E+018,43200,5088,13532,-14,23
1.52847326470084E+018,587,1.52847326470041E+018,43260,5079,13614,-13,24
1.5284732647587E+018,588,1.52847326475833E+018,43320,5072,13695,-14,24
1.52847326478174E+018,589,1.52847326478146E+018,43340,5067,13723,-13,24
1.52847326484079E+018,590,1.52847326484027E+018,43400,5059,13805,-14,24
1.52847326489861E+018,591,1.52847326489828E+018,43460,5050,13886,-13,24
1.52847326492078E+018,592,1.52847326492036E+018,43480,5047,13914,-14,25
1.52847326498058E+018,593,1.52847326498025E+018,43540,5038,13996,-13,24
1.52847326504078E+018,594,1.52847326504036E+018,43600,5030,14080,-14,23
1.52847326510067E+018,595,1.52847326510031E+018,43660,5024,14161,-15,24
1.52847326516068E+018,596,1.52847326516036E+018,43720,5017,14242,-15,24
1.52847326522057E+018,597,1.52847326522024E+018,43780,5011,14325,-15,24
1.52847326528114E+018,598,1.5284732652804E+018,43840,5001,14407,-13,24
1.52847326533927E+018,599,1.52847326533908E+018,43900,4992,14491,-14,23
1.52847326539754E+018,600,1.52847326539712E+018,43960,4983,14574,-14,24
1.52847326541956E+018,601,1.52847326541917E+018,43980,4980,14602,-14,23
1.52847326547735E+018,602,1.52847326547698E+018,44040,4970,14685,-13,24
1.52847326549938E+018,603,1.52847326549902E+018,44060,4965,14713,-13,23
1.52847326555727E+018,604,1.52847326555692E+018,44120,4952,14797,-12,23
1.52847326557937E+018,605,1.52847326557908E+018,44140,4947,14824,-12,24
1.52847326563733E+018,606,1.52847326563693E+018,44200,4935,14908,-13,23
1.5284732656596E+018,607,1.5284732656592E+018,44220,4932,14934,-13,23
1.52847326571937E+018,608,1.52847326571907E+018,44280,4921,15018,-13,23
1.52847326577738E+018,609,1.52847326577699E+018,44340,4913,15099,-15,25
1.5284732657994E+018,610,1.52847326579904E+018,44360,4909,15129,-14,23
1.52847326585825E+018,611,1.52847326585788E+018,44420,4903,15211,-16,24
1.52847326587922E+018,612,1.52847326587891E+018,44440,4899,15240,-15,23
1.52847326593927E+018,613,1.52847326593901E+018,44500,4889,15322,-14,24
1.52847326599827E+018,614,1.52847326599789E+018,44560,4881,15404,-15,24
1.52847326605621E+018,615,1.52847326605591E+018,44620,4870,15489,-14,23
1.5284732660781E+018,616,1.52847326607776E+018,44640,4867,15516,-14,24
1.5284732661382E+018,617,1.52847326613787E+018,44700,4854,15600,-13,23
1.52847326619816E+018,618,1.52847326619778E+018,44760,4840,15686,-12,22
1.52847326625818E+018,619,1.5284732662578E+018,44820,4828,15769,-13,24
1.52847326631813E+018,620,1.52847326631783E+018,44880,4820,15851,-15,25
1.52847326637812E+018,621,1.52847326637785E+018,44940,4809,15935,-14,24
1.52847326643805E+018,622,1.52847326643765E+018,45000,4799,16019,-14,24
1.52847326649702E+018,623,1.52847326649662E+018,45060,4788,16104,-14,23
1.52847326655498E+018,624,1.52847326655462E+018,45120,4778,16189,-15,23
1.52847326657703E+018,625,1.52847326657667E+018,45140,4774,16217,-15,23
1.52847326663681E+018,626,1.52847326663653E+018,45200,4762,16300,-14,24
1.5284732666948E+018,627,1.5284732666945E+018,45260,4750,16385,-14,23
1.5284732667169E+018,628,1.5284732667165E+018,45280,4745,16414,-14,23
1.52847326677709E+018,629,1.52847326677669E+018,45340,4731,16498,-13,24
1.52847326683695E+018,630,1.52847326683652E+018,45400,4718,16582,-13,24
1.52847326689712E+018,631,1.5284732668967E+018,45460,4705,16667,-13,23
1.52847326695702E+018,632,1.52847326695653E+018,45520,4695,16753,-15,23
1.52847326701603E+018,633,1.52847326701558E+018,45580,4687,16836,-16,24
1.52847326703687E+018,634,1.52847326703645E+018,45600,4683,16865,-15,23
1.52847326709618E+018,635,1.5284732670954E+018,45660,4672,16950,-15,23
1.52847326715393E+018,636,1.5284732671534E+018,45720,4662,17034,-15,24
1.5284732671758E+018,637,1.52847326717545E+018,45740,4657,17063,-15,23
1.52847326723366E+018,638,1.52847326723333E+018,45800,4646,17146,-15,24
1.52847326725571E+018,639,1.52847326725539E+018,45820,4640,17177,-14,23
1.52847326731356E+018,640,1.52847326731321E+018,45880,4625,17260,-13,24
1.5284732673356E+018,641,1.52847326733525E+018,45900,4619,17290,-12,23
1.52847326739596E+018,642,1.5284732673954E+018,45960,4607,17374,-14,24
1.52847326745561E+018,643,1.52847326745526E+018,46020,4596,17458,-15,24
1.52847326751585E+018,644,1.52847326751538E+018,46080,4585,17543,-15,23
1.52847326757587E+018,645,1.52847326757552E+018,46140,4573,17630,-15,22
1.5284732676347E+018,646,1.5284732676343E+018,46200,4560,17716,-14,23
1.52847326769236E+018,647,1.52847326769198E+018,46260,4546,17800,-14,24
1.52847326771437E+018,648,1.52847326771401E+018,46280,4540,17830,-13,22
1.52847326777452E+018,649,1.52847326777421E+018,46340,4526,17913,-14,24
1.52847326783231E+018,650,1.52847326783205E+018,46400,4512,17997,-14,24
1.52847326785429E+018,651,1.52847326785406E+018,46420,4506,18027,-14,24
1.52847326791427E+018,652,1.5284732679139E+018,46480,4494,18111,-15,24
1.52847326797429E+018,653,1.5284732679739E+018,46540,4481,18196,-14,24
1.52847326803428E+018,654,1.52847326803389E+018,46600,4469,18282,-15,23
1.52847326809423E+018,655,1.52847326809388E+018,46660,4457,18368,-15,23
1.52847326815339E+018,656,1.52847326815281E+018,46720,4443,18454,-14,23
1.52847326817416E+018,657,1.52847326817378E+018,46740,4438,18483,-14,23
1.52847326823332E+018,658,1.52847326823291E+018,46800,4422,18568,-13,24
1.52847326829108E+018,659,1.5284732682907E+018,46860,4406,18651,-13,25
1.52847326831311E+018,660,1.52847326831279E+018,46880,4401,18681,-14,24
1.52847326837131E+018,661,1.52847326837086E+018,46940,4388,18766,-15,24
1.52847326839321E+018,662,1.52847326839282E+018,46960,4383,18793,-15,24
1.52847326845107E+018,663,1.52847326845068E+018,47020,4370,18878,-15,24
1.52847326847308E+018,664,1.52847326847275E+018,47040,4366,18907,-15,23
1.52847326853298E+018,665,1.52847326853265E+018,47100,4355,18991,-16,24
1.52847326859089E+018,666,1.52847326859054E+018,47160,4341,19076,-14,24
1.52847326861322E+018,667,1.52847326861285E+018,47180,4335,19106,-14,23
1.52847326867325E+018,668,1.52847326867281E+018,47240,4320,19190,-14,24
1.52847326873313E+018,669,1.52847326873274E+018,47300,4302,19276,-12,23
1.52847326879189E+018,670,1.52847326879153E+018,47360,4284,19363,-12,23
1.52847326881289E+018,671,1.52847326881246E+018,47380,4281,19390,-14,24
1.52847326887186E+018,672,1.5284732688716E+018,47440,4267,19476,-14,23
1.52847326892984E+018,673,1.52847326892945E+018,47500,4253,19561,-15,24
1.52847326895167E+018,674,1.52847326895135E+018,47520,4250,19590,-15,23
1.52847326900972E+018,675,1.52847326900938E+018,47580,4237,19675,-15,24
1.52847326903187E+018,676,1.52847326903145E+018,47600,4232,19704,-14,23
1.52847326905318E+018,677,1.52847326905256E+018,47620,4228,19731,-15,24
1.52847326908954E+018,678,1.52847326908928E+018,47660,4215,19790,-13,23
1.52847326911142E+018,679,1.52847326911122E+018,47680,4210,19818,-13,23
1.528473269172E+018,680,1.52847326917141E+018,47740,4191,19905,-12,23
1.52847326922966E+018,681,1.52847326922921E+018,47800,4174,19989,-13,24
1.52847326925161E+018,682,1.52847326925125E+018,47820,4170,20016,-14,25
1.5284732693115E+018,683,1.52847326931116E+018,47880,4182,20130,0,29
1.52847326937172E+018,684,1.52847326937122E+018,47940,4192,20238,1,32
1.52847326943143E+018,685,1.52847326943102E+018,48000,4201,20353,2,28
1.52847326949151E+018,686,1.5284732694912E+018,48060,4206,20467,4,29
1.52847326955039E+018,687,1.52847326955009E+018,48120,4212,20589,3,25
1.52847326960828E+018,688,1.52847326960795E+018,48180,4214,20703,5,29
1.52847326963033E+018,689,1.52847326963011E+018,48200,4216,20741,4,30
1.52847326969037E+018,690,1.52847326969002E+018,48260,4227,20854,1,30
1.52847326975028E+018,691,1.52847326974989E+018,48320,4237,20966,2,30
1.52847326981019E+018,692,1.52847326980982E+018,48380,4252,21084,0,27
1.5284732698682E+018,693,1.52847326986784E+018,48440,4263,21201,1,28
1.52847326989021E+018,694,1.52847326988994E+018,48460,4267,21239,1,28
1.52847326994918E+018,695,1.52847326994889E+018,48520,4277,21355,2,28
1.52847326997033E+018,696,1.52847326997001E+018,48540,4280,21393,2,29
1.52847327003022E+018,697,1.52847327002987E+018,48600,4290,21507,2,29
1.52847327008946E+018,698,1.52847327008907E+018,48660,4295,21620,4,30
1.5284732701471E+018,699,1.52847327014673E+018,48720,4300,21737,4,28
1.52847327016917E+018,700,1.52847327016882E+018,48740,4302,21775,4,28
1.52847327022925E+018,701,1.52847327022894E+018,48800,4308,21892,4,28
1.52847327028916E+018,702,1.52847327028885E+018,48860,4312,22006,5,29
1.52847327034873E+018,703,1.52847327034854E+018,48920,4320,22122,3,29
1.52847327040898E+018,704,1.52847327040864E+018,48980,4326,22237,4,29
1.52847327046909E+018,705,1.52847327046867E+018,49040,4335,22353,2,29
1.52847327052895E+018,706,1.52847327052852E+018,49100,4344,22467,2,30
1.52847327058791E+018,707,1.52847327058751E+018,49160,4355,22583,1,29
1.52847327060888E+018,708,1.52847327060854E+018,49180,4359,22622,1,29
1.52847327066936E+018,709,1.52847327066888E+018,49240,4373,22738,0,29
1.52847327072781E+018,710,1.52847327072741E+018,49300,4384,22853,1,29
1.5284732707857E+018,711,1.52847327078531E+018,49360,4392,22969,3,29
1.52847327080782E+018,712,1.52847327080744E+018,49380,4394,23007,3,29
1.52847327086779E+018,713,1.52847327086747E+018,49440,4400,23122,4,29
1.52847327092779E+018,714,1.52847327092744E+018,49500,4406,23238,4,29
1.5284732709877E+018,715,1.52847327098731E+018,49560,4412,23352,4,30
1.5284732710476E+018,716,1.52847327104726E+018,49620,4418,23467,4,30
1.52847327110764E+018,717,1.52847327110731E+018,49680,4424,23583,4,29
1.52847327116769E+018,718,1.52847327116735E+018,49740,4430,23699,4,29
1.52847327122662E+018,719,1.52847327122624E+018,49800,4439,23816,3,29
1.52847327128448E+018,720,1.52847327128413E+018,49860,4447,23932,3,29
1.52847327130762E+018,721,1.5284732713073E+018,49880,4449,23971,4,29
1.52847327136648E+018,722,1.52847327136619E+018,49940,4460,24086,2,30
1.52847327142466E+018,723,1.52847327142424E+018,50000,4472,24201,1,30
1.52847327144665E+018,724,1.52847327144625E+018,50020,4475,24240,2,29
1.52847327150631E+018,725,1.528473271506E+018,50080,4489,24355,0,30
1.52847327156648E+018,726,1.52847327156609E+018,50140,4499,24473,2,28
1.52847327162672E+018,727,1.52847327162609E+018,50200,4504,24591,5,28
1.52847327168634E+018,728,1.52847327168594E+018,50260,4511,24708,4,29
1.52847327174629E+018,729,1.52847327174591E+018,50320,4518,24824,4,30
1.52847327180649E+018,730,1.52847327180605E+018,50380,4521,24952,-9,38
1.52847327186531E+018,731,1.52847327186493E+018,50440,4521,25089,-7,34
1.52847327192344E+018,732,1.52847327192299E+018,50500,4520,25229,-7,32
1.52847327194535E+018,733,1.52847327194498E+018,50520,4520,25273,-8,34
1.52847327200516E+018,734,1.52847327200485E+018,50580,4520,25413,-8,33
1.52847327206531E+018,735,1.52847327206494E+018,50640,4520,25553,-8,33
1.52847327212518E+018,736,1.5284732721248E+018,50700,4520,25693,-8,33
1.52847327218521E+018,737,1.52847327218483E+018,50760,4520,25831,-8,34
1.52847327224506E+018,738,1.52847327224467E+018,50820,4520,25969,-8,34
1.52847327230511E+018,739,1.52847327230469E+018,50880,4520,26108,-8,33
1.52847327236401E+018,740,1.52847327236364E+018,50940,4520,26246,-8,34
1.52847327242218E+018,741,1.52847327242172E+018,51000,4520,26385,-8,33
1.52847327244493E+018,742,1.52847327244466E+018,51020,4520,26432,-8,33
1.52847327250386E+018,743,1.52847327250351E+018,51080,4519,26571,-8,34
1.52847327256184E+018,744,1.52847327256147E+018,51140,4519,26712,-8,33
1.52847327258397E+018,745,1.52847327258358E+018,51160,4519,26760,-8,32
1.52847327264375E+018,746,1.52847327264344E+018,51220,4519,26899,-9,34
1.52847327270375E+018,747,1.52847327270338E+018,51280,4519,27038,-9,34
1.5284732727642E+018,748,1.52847327276355E+018,51340,4519,27179,-9,33
1.52847327282381E+018,749,1.52847327282346E+018,51400,4519,27319,-9,33
1.52847327288378E+018,750,1.5284732728834E+018,51460,4519,27458,-9,34
1.52847327294376E+018,751,1.5284732729434E+018,51520,4519,27601,-9,32
1.52847327300289E+018,752,1.52847327300247E+018,51580,4519,27741,-9,34
1.52847327306068E+018,753,1.52847327306038E+018,51640,4519,27878,-9,35
1.52847327308254E+018,754,1.52847327308232E+018,51660,4519,27926,-9,33
1.52847327314261E+018,755,1.52847327314222E+018,51720,4519,28065,-9,34
1.52847327320268E+018,756,1.52847327320228E+018,51780,4519,28205,-9,34
1.52847327326294E+018,757,1.52847327326251E+018,51840,4519,28346,-9,33
1.52847327332057E+018,758,1.52847327332028E+018,51900,4519,28488,-10,33
1.52847327334261E+018,759,1.52847327334232E+018,51920,4519,28534,-10,33
1.52847327340287E+018,760,1.52847327340251E+018,51980,4519,28674,-10,34
1.52847327346272E+018,761,1.52847327346236E+018,52040,4519,28815,-10,34
1.52847327352178E+018,762,1.52847327352142E+018,52100,4519,28953,-10,35
1.52847327357944E+018,763,1.52847327357909E+018,52160,4519,29097,-10,32
1.52847327360139E+018,764,1.5284732736011E+018,52180,4519,29143,-10,34
1.52847327366155E+018,765,1.52847327366117E+018,52240,4519,29284,-10,34
1.5284732737194E+018,766,1.52847327371908E+018,52300,4519,29428,-10,32
1.52847327374134E+018,767,1.52847327374101E+018,52320,4518,29474,-10,34
1.52847327380143E+018,768,1.52847327380102E+018,52380,4518,29616,-10,33
1.52847327386185E+018,769,1.52847327386125E+018,52440,4518,29757,-10,34
1.5284732739214E+018,770,1.52847327392109E+018,52500,4518,29898,-10,34
1.52847327398134E+018,771,1.52847327398098E+018,52560,4518,30041,-10,33
1.52847327404035E+018,772,1.52847327403999E+018,52620,4517,30185,-10,33
1.5284732740615E+018,773,1.52847327406092E+018,52640,4517,30233,-10,33
1.52847327412124E+018,774,1.52847327412087E+018,52700,4516,30376,-10,33
1.52847327418003E+018,775,1.52847327417975E+018,52760,4514,30519,-10,33
1.52847327423805E+018,776,1.52847327423772E+018,52820,4514,30660,-11,34
1.52847327426068E+018,777,1.52847327426004E+018,52840,4514,30708,-11,33
1.52847327432013E+018,778,1.52847327431976E+018,52900,4513,30851,-10,33
1.52847327438037E+018,779,1.52847327438E+018,52960,4513,30991,-11,35
1.52847327444022E+018,780,1.52847327443984E+018,53020,4513,31137,-11,32
1.5284732745002E+018,781,1.52847327449987E+018,53080,4512,31281,-11,33
1.52847327456E+018,782,1.52847327455966E+018,53140,4512,31421,-11,35
1.52847327462026E+018,783,1.52847327461982E+018,53200,4511,31565,-11,33
1.52847327467901E+018,784,1.52847327467863E+018,53260,4511,31707,-11,34
1.52847327469984E+018,785,1.52847327469948E+018,53280,4511,31755,-11,33
1.52847327475892E+018,786,1.52847327475863E+018,53340,4511,31899,-12,33
1.52847327481689E+018,787,1.52847327481652E+018,53400,4510,32044,-11,33
1.5284732748389E+018,788,1.52847327483863E+018,53420,4510,32092,-12,33
1.52847327489688E+018,789,1.52847327489656E+018,53480,4509,32236,-11,33
1.52847327491868E+018,790,1.52847327491843E+018,53500,4508,32284,-11,33
1.52847327497703E+018,791,1.52847327497665E+018,53560,4508,32428,-12,33
1.52847327499885E+018,792,1.52847327499853E+018,53580,4508,32475,-12,34
1.52847327505874E+018,793,1.52847327505839E+018,53640,4508,32617,-12,34
1.52847327511894E+018,794,1.52847327511855E+018,53700,4508,32763,-12,32
1.52847327517863E+018,795,1.52847327517831E+018,53760,4507,32907,-12,33
1.52847327523682E+018,796,1.52847327523637E+018,53820,4506,33052,-12,33
1.52847327525873E+018,797,1.52847327525834E+018,53840,4505,33102,-12,32
1.52847327531773E+018,798,1.52847327531734E+018,53900,4504,33243,-12,35
1.52847327537558E+018,799,1.52847327537528E+018,53960,4503,33388,-12,33
1.52847327539751E+018,800,1.52847327539725E+018,53980,4503,33437,-12,33
1.52847327545745E+018,801,1.52847327545713E+018,54040,4503,33580,-12,34
1.52847327551547E+018,802,1.52847327551512E+018,54100,4502,33725,-12,33
1.52847327553747E+018,803,1.52847327553713E+018,54120,4501,33773,-12,33
1.52847327559749E+018,804,1.52847327559716E+018,54180,4500,33919,-12,33
1.52847327565747E+018,805,1.52847327565704E+018,54240,4498,34065,-12,33
1.52847327571753E+018,806,1.52847327571716E+018,54300,4497,34210,-12,33
1.52847327577743E+018,807,1.52847327577715E+018,54360,4496,34356,-12,33
1.52847327583645E+018,808,1.52847327583604E+018,54420,4495,34501,-13,33
1.52847327585741E+018,809,1.52847327585701E+018,54440,4494,34549,-13,33
1.52847327591642E+018,810,1.52847327591605E+018,54500,4493,34694,-13,33
1.52847327597443E+018,811,1.52847327597401E+018,54560,4493,34842,-13,32
1.52847327599631E+018,812,1.52847327599596E+018,54580,4493,34890,-13,32
1.52847327605411E+018,813,1.52847327605379E+018,54640,4493,35035,-13,33
1.52847327607666E+018,814,1.52847327607621E+018,54660,4493,35083,-13,34
1.52847327613424E+018,815,1.52847327613386E+018,54720,4493,35230,-13,32
1.52847327615643E+018,816,1.52847327615592E+018,54740,4493,35277,-13,34
1.52847327621635E+018,817,1.52847327621592E+018,54800,4493,35424,-14,32
1.5284732762762E+018,818,1.52847327627575E+018,54860,4492,35570,-13,33
1.52847327633631E+018,819,1.52847327633595E+018,54920,4492,35716,-14,33
1.52847327639612E+018,820,1.52847327639578E+018,54980,4491,35863,-13,32
1.52847327645501E+018,821,1.52847327645466E+018,55040,4491,36007,-14,34
1.52847327651298E+018,822,1.52847327651268E+018,55100,4489,36152,-13,33
1.52847327653595E+018,823,1.52847327653562E+018,55120,4489,36202,-13,32
1.52847327659488E+018,824,1.52847327659458E+018,55180,4487,36346,-13,34
1.52847327665297E+018,825,1.52847327665262E+018,55240,4484,36493,-13,32
1.52847327667504E+018,826,1.52847327667464E+018,55260,4484,36544,-13,32
1.52847327673514E+018,827,1.52847327673471E+018,55320,4481,36690,-13,33
1.52847327679496E+018,828,1.52847327679472E+018,55380,4480,36837,-14,32
1.52847327685504E+018,829,1.52847327685463E+018,55440,4477,36982,-13,33
1.52847327691515E+018,830,1.5284732769146E+018,55500,4475,37128,-13,33
1.52847327697393E+018,831,1.52847327697351E+018,55560,4473,37275,-14,33
1.5284732769948E+018,832,1.5284732769945E+018,55580,4472,37324,-13,33
1.52847327705483E+018,833,1.5284732770545E+018,55640,4469,37472,-13,32
1.52847327711387E+018,834,1.52847327711352E+018,55700,4466,37619,-13,33
1.52847327717209E+018,835,1.52847327717161E+018,55760,4462,37765,-13,33
1.528473277194E+018,836,1.52847327719357E+018,55780,4461,37815,-13,33
1.5284732772538E+018,837,1.52847327725342E+018,55840,4457,37961,-13,33
1.5284732773137E+018,838,1.52847327731336E+018,55900,4453,38108,-13,33
1.5284732773745E+018,839,1.52847327737326E+018,55960,4449,38256,-13,32
1.52847327743372E+018,840,1.5284732774333E+018,56020,4443,38401,-12,34
1.52847327749374E+018,841,1.52847327749334E+018,56080,4437,38547,-12,33
1.5284732775538E+018,842,1.52847327755338E+018,56140,4431,38693,-12,33
1.52847327761265E+018,843,1.52847327761227E+018,56200,4423,38838,-11,34
1.52847327763347E+018,844,1.5284732776331E+018,56220,4420,38888,-11,32
1.5284732776929E+018,845,1.52847327769243E+018,56280,4412,39033,-11,34
1.52847327775047E+018,846,1.5284732777501E+018,56340,4406,39178,-12,34
1.52847327777318E+018,847,1.52847327777227E+018,56360,4404,39227,-12,33
1.52847327783057E+018,848,1.52847327783018E+018,56420,4398,39371,-12,34
1.52847327785235E+018,849,1.52847327785203E+018,56440,4397,39421,-13,33
1.52847327791039E+018,850,1.52847327791005E+018,56500,4392,39566,-13,34
1.52847327793259E+018,851,1.52847327793221E+018,56520,4390,39614,-13,34
1.52847327799249E+018,852,1.52847327799212E+018,56580,4386,39761,-13,33
1.52847327805232E+018,853,1.52847327805201E+018,56640,4381,39903,-13,35
1.52847327811246E+018,854,1.52847327811203E+018,56700,4376,40051,-13,32
1.5284732781705E+018,855,1.52847327817004E+018,56760,4370,40198,-13,33
1.52847327819255E+018,856,1.52847327819206E+018,56780,4368,40247,-13,33
1.52847327825126E+018,857,1.5284732782509E+018,56840,4362,40394,-13,33
1.5284732782722E+018,858,1.52847327827185E+018,56860,4360,40442,-13,34
1.52847327833118E+018,859,1.52847327833081E+018,56920,4355,40589,-13,33
1.52847327838905E+018,860,1.52847327838882E+018,56980,4348,40735,-12,34
1.52847327841215E+018,861,1.52847327841179E+018,57000,4346,40784,-13,34
1.5284732784711E+018,862,1.52847327847083E+018,57060,4338,40930,-12,34
1.52847327853111E+018,863,1.52847327853079E+018,57120,4331,41076,-12,34
1.52847327859116E+018,864,1.52847327859067E+018,57180,4323,41222,-12,34
1.52847327865099E+018,865,1.52847327865068E+018,57240,4314,41368,-12,34
1.52847327871106E+018,866,1.5284732787107E+018,57300,4303,41512,-11,35
1.528473278771E+018,867,1.52847327877065E+018,57360,4293,41657,-11,34
1.52847327883101E+018,868,1.52847327883065E+018,57420,4285,41806,-12,32
1.52847327889013E+018,869,1.52847327888969E+018,57480,4276,41949,-12,35
1.52847327894801E+018,870,1.52847327894763E+018,57540,4268,42095,-12,34
1.52847327897022E+018,871,1.52847327896967E+018,57560,4266,42145,-13,33
1.52847327902985E+018,872,1.52847327902959E+018,57620,4258,42289,-12,35
1.52847327908787E+018,873,1.52847327908749E+018,57680,4252,42438,-13,32
1.52847327910988E+018,874,1.52847327910953E+018,57700,4249,42486,-12,34
1.52847327917019E+018,875,1.52847327916966E+018,57760,4241,42632,-12,34
1.52847327922975E+018,876,1.52847327922941E+018,57820,4233,42778,-12,34
1.52847327929003E+018,877,1.52847327928962E+018,57880,4226,42924,-13,34
1.52847327934982E+018,878,1.52847327934948E+018,57940,4217,43072,-12,33
1.52847327940901E+018,879,1.52847327940869E+018,58000,4208,43218,-12,34
1.52847327942976E+018,880,1.5284732794294E+018,58020,4206,43267,-13,33
