%time,field.transforms0.header.seq,field.transforms0.header.stamp,field.transforms0.header.frame_id,field.transforms0.child_frame_id,field.transforms0.transform.translation.x,field.transforms0.transform.translation.y,field.transforms0.transform.translation.z,field.transforms0.transform.rotation.x,field.transforms0.transform.rotation.y,field.transforms0.transform.rotation.z,field.transforms0.transform.rotation.w
1528473235859500949,0,1528473235859015246,odom,base_footprint,0.0,0.0,0.0,0.0,0.0,0.0,1.0
1528473235919165508,0,1528473235918865906,odom,base_footprint,0.0,0.0,0.0,0.0,0.0,0.0,1.0
1528473235978128581,0,1528473235977739296,odom,base_footprint,0.0,0.0,0.0,0.0,0.0,0.0,1.0
1528473236038064323,0,1528473236037755449,odom,base_footprint,0.0,0.0,0.0,0.0,0.0,0.0,1.0
1528473236095971103,0,1528473236095668193,odom,base_footprint,0.0,0.0,0.0,0.0,0.0,0.0,1.0
1528473236118277516,0,1528473236117837358,odom,base_footprint,0.0,0.0,0.0,0.0,0.0,0.0,1.0
1528473236178079964,0,1528473236177751940,odom,base_footprint,0.0,0.0,0.0,0.0,0.0,0.0,1.0
1528473236238066478,0,1528473236237708164,odom,base_footprint,0.0,0.0,0.0,0.0,0.0,0.0,1.0
1528473236297870289,0,1528473236297560794,odom,base_footprint,0.0,0.0,0.0,0.0,0.0,0.0,1.0
1528473236358079032,0,1528473236357648817,odom,base_footprint,0.0,0.0,0.0,0.0,0.0,0.0,1.0
1528473236417053040,0,1528473236416667980,odom,base_footprint,0.0,0.0,0.0,0.0,0.0,0.0,1.0
1528473236437954363,0,1528473236437604490,odom,base_footprint,0.0,0.0,0.0,0.0,0.0,0.0,1.0
1528473236497113991,0,1528473236496678709,odom,base_footprint,0.0,0.0,0.0,0.0,0.0,0.0,1.0
1528473236555044436,0,1528473236554532167,odom,base_footprint,0.0,0.0,0.0,0.0,0.0,0.0,1.0
1528473236577933460,0,1528473236577515664,odom,base_footprint,0.0,0.0,0.0,0.0,0.0,0.0,1.0
1528473236636871094,0,1528473236636483799,odom,base_footprint,0.0,0.0,0.0,0.0,0.0,0.0,1.0
1528473236696918424,0,1528473236696504797,odom,base_footprint,0.0,0.0,0.0,0.0,0.0,0.0,1.0
1528473236755000670,0,1528473236754456327,odom,base_footprint,0.0,0.0,0.0,0.0,0.0,0.0,1.0
1528473236776783772,0,1528473236776400782,odom,base_footprint,0.0,0.0,0.0,0.0,0.0,0.0,1.0
1528473236834896294,0,1528473236834465879,odom,base_footprint,0.0,0.0,0.0,0.0,0.0,0.0,1.0
1528473236856896117,0,1528473236856410640,odom,base_footprint,0.0,0.0,0.0,0.0,0.0,0.0,1.0
1528473236916744782,0,1528473236916373018,odom,base_footprint,0.0,0.0,0.0,0.0,0.0,0.0,1.0
1528473236976852316,0,1528473236976398903,odom,base_footprint,0.0,0.0,0.0,0.0,0.0,0.0,1.0
1528473237036774827,0,1528473237036376842,odom,base_footprint,0.0,0.0,0.0,0.0,0.0,0.0,1.0
1528473237094840966,0,1528473237094390174,odom,base_footprint,0.0,0.0,0.0,0.0,0.0,0.0,1.0
1528473237116643899,0,1528473237116243784,odom,base_footprint,0.0,0.0,0.0,0.0,0.0,0.0,1.0
1528473237175617131,0,1528473237175245181,odom,base_footprint,0.0,0.0,0.0,0.0,0.0,0.0,1.0
1528473237196825554,0,1528473237196381302,odom,base_footprint,0.0,0.0,0.0,0.0,0.0,0.0,1.0
1528473237256575912,0,1528473237256211655,odom,base_footprint,0.0,0.0,0.0,0.0,0.0,0.0,1.0
1528473237315731836,0,1528473237315346941,odom,base_footprint,0.0,0.0,0.0,0.0,0.0,0.0,1.0
1528473237336562516,0,1528473237336202183,odom,base_footprint,0.0,0.0,0.0,0.0,0.0,0.0,1.0
1528473237395424129,0,1528473237395113852,odom,base_footprint,0.0,0.0,0.0,0.0,0.0,0.0,1.0
1528473237455631739,0,1528473237455187302,odom,base_footprint,0.0,0.0,0.0,0.0,0.0,0.0,1.0
1528473237513382760,0,1528473237513064429,odom,base_footprint,0.0,0.0,0.0,0.0,0.0,0.0,1.0
1528473237535448170,0,1528473237535101839,odom,base_footprint,0.0,0.0,0.0,0.0,0.0,0.0,1.0
1528473237593434866,0,1528473237593064595,odom,base_footprint,0.0,0.0,0.0,0.0,0.0,0.0,1.0
1528473237615457316,0,1528473237615117510,odom,base_footprint,0.0,0.0,0.0,0.0,0.0,0.0,1.0
1528473237675531994,0,1528473237675134745,odom,base_footprint,0.0,0.0,0.0,0.0,0.0,0.0,1.0
1528473237733425810,0,1528473237733063883,odom,base_footprint,0.0,0.0,0.0,0.0,0.0,0.0,1.0
1528473237755454229,0,1528473237755128912,odom,base_footprint,0.0,0.0,0.0,0.0,0.0,0.0,1.0
1528473237814622612,0,1528473237814185496,odom,base_footprint,0.0,0.0,0.0,0.0,0.0,0.0,1.0
1528473237835541736,0,1528473237835142533,odom,base_footprint,0.0,0.0,0.0,0.0,0.0,0.0,1.0
1528473237894437037,0,1528473237894117368,odom,base_footprint,0.0,0.0,0.0,0.0,0.0,0.0,1.0
1528473237952527874,0,1528473237952103207,odom,base_footprint,0.0,0.0,0.0,0.0,0.0,0.0,1.0
1528473237975411530,0,1528473237975131117,odom,base_footprint,0.0,0.0,0.0,0.0,0.0,0.0,1.0
1528473238034393381,0,1528473238034081806,odom,base_footprint,0.0,0.0,0.0,0.0,0.0,0.0,1.0
1528473238094368679,0,1528473238094009404,odom,base_footprint,0.0,0.0,0.0,0.0,0.0,0.0,1.0
1528473238152320224,0,1528473238151963820,odom,base_footprint,0.0,0.0,0.0,0.0,0.0,0.0,1.0
1528473238174395246,0,1528473238174023276,odom,base_footprint,0.0,0.0,0.0,0.0,0.0,0.0,1.0
1528473238232242755,0,1528473238231826618,odom,base_footprint,0.0,0.0,0.0,0.0,0.0,0.0,1.0
1528473238254971333,0,1528473238254149382,odom,base_footprint,0.0,0.0,0.0,0.0,0.0,0.0,1.0
1528473238314305263,0,1528473238313914660,odom,base_footprint,0.0,0.0,0.0,0.0,0.0,0.0,1.0
1528473238372324133,0,1528473238371830853,odom,base_footprint,0.0,0.0,0.0,0.0,0.0,0.0,1.0
1528473238394510763,0,1528473238393941246,odom,base_footprint,0.0,0.0,0.0,0.0,0.0,0.0,1.0
1528473238454267125,0,1528473238453837256,odom,base_footprint,0.0,0.0,0.0,0.0,0.0,0.0,1.0
1528473238513984924,0,1528473238513708268,odom,base_footprint,0.0,0.0,0.0,0.0,0.0,0.0,1.0
1528473238572944754,0,1528473238572666501,odom,base_footprint,0.0,0.0,0.0,0.0,0.0,0.0,1.0
1528473238594008916,0,1528473238593655656,odom,base_footprint,0.0,0.0,0.0,0.0,0.0,0.0,1.0
1528473238653922338,0,1528473238653586005,odom,base_footprint,0.0,0.0,0.0,0.0,0.0,0.0,1.0
1528473238713025560,0,1528473238712660265,odom,base_footprint,0.0,0.0,0.0,0.0,0.0,0.0,1.0
1528473238733951420,0,1528473238733586547,odom,base_footprint,0.0,0.0,0.0,0.0,0.0,0.0,1.0
1528473238793274264,0,1528473238792821002,odom,base_footprint,0.0,0.0,0.0,0.0,0.0,0.0,1.0
1528473238853008064,0,1528473238852531342,odom,base_footprint,0.0,0.0,0.0,0.0,0.0,0.0,1.0
1528473238910950362,0,1528473238910569622,odom,base_footprint,0.0,0.0,0.0,0.0,0.0,0.0,1.0
1528473238933082080,0,1528473238932700789,odom,base_footprint,0.0,0.0,0.0,0.0,0.0,0.0,1.0
1528473238990800676,0,1528473238990439261,odom,base_footprint,0.0,0.0,0.0,0.0,0.0,0.0,1.0
1528473239012771497,0,1528473239012444321,odom,base_footprint,0.0,0.0,0.0,0.0,0.0,0.0,1.0
1528473239072932650,0,1528473239072515255,odom,base_footprint,0.0,0.0,0.0,0.0,0.0,0.0,1.0
1528473239130701532,0,1528473239130404551,odom,base_footprint,0.0,0.0,0.0,0.0,0.0,0.0,1.0
1528473239152730417,0,1528473239152402639,odom,base_footprint,0.0,0.0,0.0,0.0,0.0,0.0,1.0
1528473239212790992,0,1528473239212359996,odom,base_footprint,0.0,0.0,0.0,0.0,0.0,0.0,1.0
1528473239272778023,0,1528473239272396024,odom,base_footprint,0.0,0.0,0.0,0.0,0.0,0.0,1.0
1528473239331625934,0,1528473239331247229,odom,base_footprint,0.0,0.0,0.0,0.0,0.0,0.0,1.0
1528473239352545921,0,1528473239352256377,odom,base_footprint,0.0,0.0,0.0,0.0,0.0,0.0,1.0
1528473239412757761,0,1528473239412326258,odom,base_footprint,0.0,0.0,0.0,0.0,0.0,0.0,1.0
1528473239471643896,0,1528473239471275148,odom,base_footprint,0.0,0.0,0.0,0.0,0.0,0.0,1.0
1528473239492495459,0,1528473239492172372,odom,base_footprint,0.0,0.0,0.0,0.0,0.0,0.0,1.0
1528473239551750582,0,1528473239551317100,odom,base_footprint,0.0,0.0,0.0,0.0,0.0,0.0,1.0
1528473239611520986,0,1528473239611213516,odom,base_footprint,0.0,0.0,0.0,0.0,0.0,0.0,1.0
1528473239669617697,0,1528473239669241287,odom,base_footprint,0.0,0.0,0.0,0.0,0.0,0.0,1.0
1528473239691471312,0,1528473239691139635,odom,base_footprint,0.0,0.0,0.0,0.0,0.0,0.0,1.0
1528473239751411879,0,1528473239751097502,odom,base_footprint,0.0,0.0,0.0,0.0,0.0,0.0,1.0
1528473239811527281,0,1528473239811134142,odom,base_footprint,0.0,0.0,0.0,0.0,0.0,0.0,1.0
1528473239871708460,0,1528473239871180500,odom,base_footprint,0.0,0.0,0.0,0.0,0.0,0.0,1.0
1528473239931503010,0,1528473239931122495,odom,base_footprint,0.0,0.0,0.0,0.0,0.0,0.0,1.0
1528473239991528729,0,1528473239991142502,odom,base_footprint,0.0,0.0,0.0,0.0,0.0,0.0,1.0
1528473240051473552,0,1528473240051071086,odom,base_footprint,0.0,0.0,0.0,0.0,0.0,0.0,1.0
1528473240110382299,0,1528473240109984259,odom,base_footprint,0.0,0.0,0.0,0.0,0.0,0.0,1.0
1528473240131271796,0,1528473240130912961,odom,base_footprint,0.0,0.0,0.0,0.0,0.0,0.0,1.0
1528473240190347970,0,1528473240189969919,odom,base_footprint,0.0,0.0,0.0,0.0,0.0,0.0,1.0
1528473240248133842,0,1528473240247804520,odom,base_footprint,0.0,0.0,0.0,0.0,0.0,0.0,1.0
1528473240271175752,0,1528473240270845690,odom,base_footprint,0.0,0.0,0.0,0.0,0.0,0.0,1.0
1528473240330115513,0,1528473240329746534,odom,base_footprint,0.0,0.0,0.0,0.0,0.0,0.0,1.0
1528473240387763187,0,1528473240387552375,odom,base_footprint,0.0,0.0,0.0,0.0,0.0,0.0,1.0
1528473240410008780,0,1528473240409698736,odom,base_footprint,0.0,0.0,0.0,0.0,0.0,0.0,1.0
1528473240470064650,0,1528473240469644564,odom,base_footprint,0.0,0.0,0.0,0.0,0.0,0.0,1.0
1528473240527898758,0,1528473240527493777,odom,base_footprint,0.0,0.0,0.0,0.0,0.0,0.0,1.0
1528473240549865675,0,1528473240549521249,odom,base_footprint,0.0,0.0,0.0,0.0,0.0,0.0,1.0
1528473240609839149,0,1528473240609504014,odom,base_footprint,0.0,0.0,0.0,0.0,0.0,0.0,1.0
1528473240669910975,0,1528473240669524221,odom,base_footprint,0.0,0.0,0.0,0.0,0.0,0.0,1.0
1528473240729822746,0,1528473240729480449,odom,base_footprint,0.0,0.0,0.0,0.0,0.0,0.0,1.0
1528473240787837206,0,1528473240787469912,odom,base_footprint,0.0,0.0,0.0,0.0,0.0,0.0,1.0
1528473240809838297,0,1528473240809502736,odom,base_footprint,0.0,0.0,0.0,0.0,0.0,0.0,1.0
1528473240868766820,0,1528473240868440606,odom,base_footprint,0.0,0.0,0.0,0.0,0.0,0.0,1.0
1528473240889954100,0,1528473240889513792,odom,base_footprint,0.0,0.0,0.0,0.0,0.0,0.0,1.0
1528473240948748778,0,1528473240948377334,odom,base_footprint,0.0,0.0,0.0,0.0,0.0,0.0,1.0
1528473241006793047,0,1528473241006440311,odom,base_footprint,0.0,0.0,0.0,0.0,0.0,0.0,1.0
1528473241029062423,0,1528473241028483770,odom,base_footprint,0.0,0.0,0.0,0.0,0.0,0.0,1.0
1528473241086630146,0,1528473241086301997,odom,base_footprint,0.0,0.0,0.0,0.0,0.0,0.0,1.0
1528473241108741141,0,1528473241108387257,odom,base_footprint,0.0,0.0,0.0,0.0,0.0,0.0,1.0
1528473241166755640,0,1528473241166319322,odom,base_footprint,0.0,0.0,0.0,0.0,0.0,0.0,1.0
1528473241188734390,0,1528473241188387994,odom,base_footprint,0.0,0.0,0.0,0.0,0.0,0.0,1.0
1528473241248612165,0,1528473241248387278,odom,base_footprint,0.0,0.0,0.0,0.0,0.0,0.0,1.0
1528473241308496921,0,1528473241308244491,odom,base_footprint,0.0,0.0,0.0,0.0,0.0,0.0,1.0
1528473241368213956,0,1528473241368043960,odom,base_footprint,0.0,0.0,0.0,0.0,0.0,0.0,1.0
1528473241428521971,0,1528473241428143898,odom,base_footprint,0.0,0.0,0.0,0.0,0.0,0.0,1.0
1528473241488502223,0,1528473241488150716,odom,base_footprint,0.0,0.0,0.0,0.0,0.0,0.0,1.0
1528473241546326153,0,1528473241545976294,odom,base_footprint,0.0,0.0,0.0,0.0,0.0,0.0,1.0
1528473241568666708,0,1528473241568089810,odom,base_footprint,0.0,0.0,0.0,0.0,0.0,0.0,1.0
1528473241627503524,0,1528473241627106271,odom,base_footprint,0.0,0.0,0.0,0.0,0.0,0.0,1.0
1528473241648344499,0,1528473241647975827,odom,base_footprint,0.0,0.0,0.0,0.0,0.0,0.0,1.0
1528473241708209422,0,1528473241707866559,odom,base_footprint,0.0,0.0,0.0,0.0,0.0,0.0,1.0
1528473241767311581,0,1528473241766937060,odom,base_footprint,0.0,0.0,0.0,0.0,0.0,0.0,1.0
1528473241788305438,0,1528473241787898187,odom,base_footprint,0.0,0.0,0.0,0.0,0.0,0.0,1.0
1528473241847211810,0,1528473241846873132,odom,base_footprint,0.0,0.0,0.0,0.0,0.0,0.0,1.0
1528473241907198098,0,1528473241906745793,odom,base_footprint,0.0,0.0,0.0,0.0,0.0,0.0,1.0
1528473241965738078,0,1528473241964725022,odom,base_footprint,0.0,0.0,0.0,0.0,0.0,0.0,1.0
1528473241987297173,0,1528473241986880550,odom,base_footprint,0.0,0.0,0.0,0.0,0.0,0.0,1.0
1528473242045087780,0,1528473242044695794,odom,base_footprint,0.0,0.0,0.0,0.0,0.0,0.0,1.0
1528473242067147777,0,1528473242066753646,odom,base_footprint,0.0,0.0,0.0,0.0,0.0,0.0,1.0
1528473242127099676,0,1528473242126699396,odom,base_footprint,0.0,0.0,0.0,0.0,0.0,0.0,1.0
1528473242185056838,0,1528473242184696686,odom,base_footprint,0.0,0.0,0.0,0.0,0.0,0.0,1.0
1528473242207014474,0,1528473242206642128,odom,base_footprint,0.0,0.0,0.0,0.0,0.0,0.0,1.0
1528473242267047651,0,1528473242266633964,odom,base_footprint,0.0,0.0,0.0,0.0,0.0,0.0,1.0
1528473242326679048,0,1528473242326458093,odom,base_footprint,0.0,0.0,0.0,0.0,0.0,0.0,1.0
1528473242386668935,0,1528473242386364481,odom,base_footprint,0.0,0.0,0.0,0.0,0.0,0.0,1.0
1528473242444384221,0,1528473242444161002,odom,base_footprint,0.0,0.0,0.0,0.0,0.0,0.0,1.0
1528473242466293586,0,1528473242466078310,odom,base_footprint,0.0,0.0,0.0,0.0,0.0,0.0,1.0
1528473242526137469,0,1528473242525947616,odom,base_footprint,0.0,0.0,0.0,0.0,0.0,0.0,1.0
1528473242586007691,0,1528473242585811600,odom,base_footprint,0.0,0.0,0.0,0.0,0.0,0.0,1.0
1528473242645717804,0,1528473242645529206,odom,base_footprint,0.0,0.0,0.0,0.0,0.0,0.0,1.0
1528473242703668945,0,1528473242703399647,odom,base_footprint,0.0,0.0,0.0,0.0,0.0,0.0,1.0
1528473242725525502,0,1528473242725309679,odom,base_footprint,0.0,0.0,0.0,0.0,0.0,0.0,1.0
1528473242785350726,0,1528473242785178832,odom,base_footprint,0.0,0.0,0.0,0.0,0.0,0.0,1.0
1528473242843416332,0,1528473242843030587,odom,base_footprint,0.0,0.0,0.0,0.0,0.0,0.0,1.0
1528473242865184657,0,1528473242864933750,odom,base_footprint,0.0,0.0,0.0,0.0,0.0,0.0,1.0
1528473242925160603,0,1528473242924826846,odom,base_footprint,0.0,0.0,0.0,0.0,0.0,0.0,1.0
1528473242982744561,0,1528473242982533766,odom,base_footprint,0.0,0.0,0.0,0.0,0.0,0.0,1.0
1528473243004961458,0,1528473243004583197,odom,base_footprint,0.0,0.0,0.0,0.0,0.0,0.0,1.0
1528473243064755438,0,1528473243062703132,odom,base_footprint,0.0,0.0,0.0,0.0,0.0,0.0,1.0
1528473243085891933,0,1528473243085507749,odom,base_footprint,0.0,0.0,0.0,0.0,0.0,0.0,1.0
1528473243144861808,0,1528473243144369179,odom,base_footprint,0.0,0.0,0.0,0.0,0.0,0.0,1.0
1528473243202791256,0,1528473243202300161,odom,base_footprint,0.0,0.0,0.0,0.0,0.0,0.0,1.0
1528473243225740760,0,1528473243225325515,odom,base_footprint,0.0,0.0,0.0,0.0,0.0,0.0,1.0
1528473243241551761,0,1528473243241212406,odom,base_footprint,0.0,0.0,0.0,0.0,0.0,0.0,1.0
1528473243264566917,0,1528473243264254521,odom,base_footprint,0.0,0.0,0.0,0.0,0.0,0.0,1.0
1528473243322637175,0,1528473243322214633,odom,base_footprint,0.0,0.0,0.0,0.0,0.0,0.0,1.0
1528473243344695709,0,1528473243344220856,odom,base_footprint,0.0,0.0,0.0,0.0,0.0,0.0,1.0
1528473243404517602,0,1528473243404157269,odom,base_footprint,0.0,0.0,0.0,0.0,0.0,0.0,1.0
1528473243462557932,0,1528473243462115695,odom,base_footprint,0.0,0.0,0.0,0.0,0.0,0.0,1.0
1528473243484626474,0,1528473243484172715,odom,base_footprint,0.0,0.0,0.0,0.0,0.0,0.0,1.0
1528473243544504026,0,1528473243544135203,odom,base_footprint,0.0,0.0,0.0,0.0,0.0,0.0,1.0
1528473243604409021,0,1528473243604016779,odom,base_footprint,0.0,0.0,0.0,0.0,0.0,0.0,1.0
1528473243664448117,0,1528473243663909797,odom,base_footprint,0.0,0.0,0.0,0.0,0.0,0.0,1.0
1528473243724346677,0,1528473243723939305,odom,base_footprint,0.0,0.0,0.0,0.0,0.0,0.0,1.0
1528473243783341042,0,1528473243782937956,odom,base_footprint,0.0,0.0,0.0,0.0,0.0,0.0,1.0
1528473243841234878,0,1528473243840853652,odom,base_footprint,0.0,0.0,0.0,0.0,0.0,0.0,1.0
1528473243864270781,0,1528473243863899518,odom,base_footprint,0.0,0.0,0.0,0.0,0.0,0.0,1.0
1528473243923143561,0,1528473243922741065,odom,base_footprint,0.0,0.0,0.0,0.0,0.0,0.0,1.0
1528473243944252094,0,1528473243943840723,odom,base_footprint,0.0,0.0,0.0,0.0,0.0,0.0,1.0
1528473244003116373,0,1528473244002772628,odom,base_footprint,0.0,0.0,0.0,0.0,0.0,0.0,1.0
1528473244063172883,0,1528473244062766213,odom,base_footprint,0.0,0.0,0.0,0.0,0.0,0.0,1.0
1528473244121105660,0,1528473244120708151,odom,base_footprint,0.0,0.0,0.0,0.0,0.0,0.0,1.0
1528473244143169200,0,1528473244142799400,odom,base_footprint,0.0,0.0,0.0,0.0,0.0,0.0,1.0
1528473244202928253,0,1528473244202596656,odom,base_footprint,0.0,0.0,0.0,0.0,0.0,0.0,1.0
1528473244260971480,0,1528473244260624487,odom,base_footprint,0.0,0.0,0.0,0.0,0.0,0.0,1.0
1528473244283053252,0,1528473244282662428,odom,base_footprint,0.0,0.0,0.0,0.0,0.0,0.0,1.0
1528473244341000657,0,1528473244340561362,odom,base_footprint,0.0,0.0,0.0,0.0,0.0,0.0,1.0
1528473244363053061,0,1528473244362662017,odom,base_footprint,0.0,0.0,0.0,0.0,0.0,0.0,1.0
1528473244422827345,0,1528473244422496209,odom,base_footprint,0.0,0.0,0.0,0.0,0.0,0.0,1.0
1528473244480869178,0,1528473244480466898,odom,base_footprint,0.0,0.0,0.0,0.0,0.0,0.0,1.0
1528473244502909966,0,1528473244502517925,odom,base_footprint,0.0,0.0,0.0,0.0,0.0,0.0,1.0
1528473244562115980,0,1528473244561649793,odom,base_footprint,0.0,0.0,0.0,0.0,0.0,0.0,1.0
1528473244582873246,0,1528473244582498334,odom,base_footprint,0.0,0.0,0.0,0.0,0.0,0.0,1.0
1528473244641783928,0,1528473244641386739,odom,base_footprint,0.0,0.0,0.0,0.0,0.0,0.0,1.0
1528473244699794769,0,1528473244699369301,odom,base_footprint,0.0,0.0,0.0,0.0,0.0,0.0,1.0
1528473244722784075,0,1528473244722395607,odom,base_footprint,0.0,0.0,0.0,0.0,0.0,0.0,1.0
1528473244781846673,0,1528473244781409798,odom,base_footprint,0.0,0.0,0.0,0.0,0.0,0.0,1.0
1528473244841786218,0,1528473244841378691,odom,base_footprint,0.0,0.0,0.0,0.0,0.0,0.0,1.0
1528473244899609531,0,1528473244899233241,odom,base_footprint,0.0,0.0,0.0,0.0,0.0,0.0,1.0
1528473244921736207,0,1528473244921334855,odom,base_footprint,0.0,0.0,0.0,0.0,0.0,0.0,1.0
1528473244979626009,0,1528473244979239486,odom,base_footprint,0.0,0.0,0.0,0.0,0.0,0.0,1.0
1528473245001676745,0,1528473245001288878,odom,base_footprint,0.0,0.0,0.0,0.0,0.0,0.0,1.0
1528473245062481114,0,1528473245061379042,odom,base_footprint,0.0,0.0,0.0,0.0,0.0,0.0,1.0
1528473245121365517,0,1528473245121077827,odom,base_footprint,0.0,0.0,0.0,0.0,0.0,0.0,1.0
1528473245181593178,0,1528473245181263004,odom,base_footprint,0.0,0.0,0.0,0.0,0.0,0.0,1.0
1528473245239078897,0,1528473245238916689,odom,base_footprint,0.0,0.0,0.0,0.0,0.0,0.0,1.0
1528473245261707362,0,1528473245261215685,odom,base_footprint,0.0,0.0,0.0,0.0,0.0,0.0,1.0
1528473245321321694,0,1528473245320919700,odom,base_footprint,0.0,0.0,0.0,0.0,0.0,0.0,1.0
1528473245381336138,0,1528473245380912924,odom,base_footprint,0.0,0.0,0.0,0.0,0.0,0.0,1.0
1528473245440327386,0,1528473245439939158,odom,base_footprint,0.0,0.0,0.0,0.0,0.0,0.0,1.0
1528473245498315981,0,1528473245497883090,odom,base_footprint,0.0,0.0,0.0,0.0,0.0,0.0,1.0
1528473245521202173,0,1528473245520837475,odom,base_footprint,0.0,0.0,0.0,0.0,0.0,0.0,1.0
1528473245580074509,0,1528473245579745420,odom,base_footprint,0.0,0.0,0.0,0.0,0.0,0.0,1.0
1528473245638024793,0,1528473245637682907,odom,base_footprint,0.0,0.0,0.0,0.0,0.0,0.0,1.0
1528473245660352008,0,1528473245659923121,odom,base_footprint,0.0,0.0,0.0,0.0,0.0,0.0,1.0
1528473245720179925,0,1528473245719769436,odom,base_footprint,0.0,0.0,0.0,0.0,0.0,0.0,1.0
1528473245778066529,0,1528473245777697642,odom,base_footprint,0.0,0.0,0.0,0.0,0.0,0.0,1.0
1528473245800279295,0,1528473245799805003,odom,base_footprint,0.0,0.0,0.0,0.0,0.0,0.0,1.0
1528473245860067806,0,1528473245859655994,odom,base_footprint,0.0,0.0,0.0,0.0,0.0,0.0,1.0
1528473245920210921,0,1528473245919803780,odom,base_footprint,0.0,0.0,0.0,0.0,0.0,0.0,1.0
1528473245979963530,0,1528473245979638278,odom,base_footprint,0.0,0.0,0.0,0.0,0.0,0.0,1.0
1528473246040117561,0,1528473246039652596,odom,base_footprint,0.0,0.0,0.0,0.0,0.0,0.0,1.0
1528473246099859624,0,1528473246099517880,odom,base_footprint,0.0,0.0,0.0,0.0,0.0,0.0,1.0
1528473246159116998,0,1528473246158670285,odom,base_footprint,0.0,0.0,0.0,0.0,0.0,-8.7266462489e-05,0.999999996192
1528473246216898489,0,1528473246216469533,odom,base_footprint,0.00174848778421,-3.05168690752e-07,0.0,0.0,0.0,-8.7266462489e-05,0.999999996192
1528473246239802743,0,1528473246239465037,odom,base_footprint,0.00213230217586,-3.72156939941e-07,0.0,0.0,0.0,-0.000174532924313,0.999999984769
1528473246298971020,0,1528473246298542810,odom,base_footprint,0.00332639133978,-7.88972706326e-07,0.0,0.0,0.0,-0.000261799384809,0.999999965731
1528473246358700355,0,1528473246358372973,odom,base_footprint,0.00494694079598,-1.63749049493e-06,0.0,0.0,0.0,-0.000261799384809,0.999999965731
1528473246417030675,0,1528473246416540852,odom,base_footprint,0.00673807440546,-2.57532594549e-06,0.0,0.0,0.0,-0.000261799384809,0.999999965731
1528473246438772065,0,1528473246438389215,odom,base_footprint,0.00746305705691,-2.95492600881e-06,0.0,0.0,0.0,-0.000261799384809,0.999999965731
1528473246498727964,0,1528473246498386193,odom,base_footprint,0.00925419066639,-3.89276145937e-06,0.0,0.0,0.0,-0.00034906584331,0.999999939077
1528473246558790077,0,1528473246558445430,odom,base_footprint,0.0111306161525,-5.2027537882e-06,0.0,0.0,0.0,-0.000436332299153,0.999999904807
1528473246618615012,0,1528473246618275163,odom,base_footprint,0.012580581102,-6.46808722983e-06,0.0,0.0,0.0,-0.000436332299153,0.999999904807
1528473246678747488,0,1528473246678322576,odom,base_footprint,0.0144143603029,-8.06836187658e-06,0.0,0.0,0.0,-0.000610865200207,0.999999813422
1528473246738558196,0,1528473246738224700,odom,base_footprint,0.0161628468089,-1.02045421913e-05,0.0,0.0,0.0,-0.000698131644088,0.999999756306
1528473246798514660,0,1528473246798168545,odom,base_footprint,0.0181672089309,-1.30031614845e-05,0.0,0.0,0.0,-0.000610865200207,0.999999813422
1528473246857569620,0,1528473246857140494,odom,base_footprint,0.0200862794862,-1.53477496348e-05,0.0,0.0,0.0,-0.000610865200207,0.999999813422
1528473246878495040,0,1528473246878104517,odom,base_footprint,0.0207686156836,-1.61813809771e-05,0.0,0.0,0.0,-0.000785398082652,0.999999691575
1528473246937485296,0,1528473246937117491,odom,base_footprint,0.0224744553458,-1.88609098563e-05,0.0,0.0,0.0,-0.000872664515235,0.999999619228
1528473246995378014,0,1528473246995000065,odom,base_footprint,0.0243508784311,-2.21358892818e-05,0.0,0.0,0.0,-0.0010471973598,0.999999451689
1528473247017600883,0,1528473247017150727,odom,base_footprint,0.0249905676907,-2.34756532929e-05,0.0,0.0,0.0,-0.0010471973598,0.999999451689
1528473247075563784,0,1528473247075084741,odom,base_footprint,0.0267816976173,-2.7226992524e-05,0.0,0.0,0.0,-0.0010471973598,0.999999451689
1528473247097414888,0,1528473247096926058,odom,base_footprint,0.0274213868768,-2.85667565351e-05,0.0,0.0,0.0,-0.0010471973598,0.999999451689
1528473247155483478,0,1528473247155006029,odom,base_footprint,0.0294257465565,-3.27646837699e-05,0.0,0.0,0.0,-0.00122173017247,0.999999253687
1528473247177278152,0,1528473247176885369,odom,base_footprint,0.0300227893925,-3.42235375302e-05,0.0,0.0,0.0,-0.00122173017247,0.999999253687
1528473247237263508,0,1528473247236862371,odom,base_footprint,0.0318565638174,-3.87043026511e-05,0.0,0.0,0.0,-0.00139626294791,0.999999025224
1528473247297340972,0,1528473247296925050,odom,base_footprint,0.0339035659559,-4.44206258481e-05,0.0,0.0,0.0,-0.00139626294791,0.999999025224
1528473247357293597,0,1528473247356856156,odom,base_footprint,0.0358652763387,-4.98987689119e-05,0.0,0.0,0.0,-0.00139626294791,0.999999025224
1528473247417284447,0,1528473247416917673,odom,base_footprint,0.0378269867214,-5.53769119757e-05,0.0,0.0,0.0,-0.00148352932002,0.99999889957
1528473247477225656,0,1528473247476903120,odom,base_footprint,0.0397034044052,-6.09443716567e-05,0.0,0.0,0.0,-0.00157079568083,0.9999987663
1528473247535123606,0,1528473247534722644,odom,base_footprint,0.0416651127562,-6.71072804758e-05,0.0,0.0,0.0,-0.00165806202968,0.999998625414
1528473247557097690,0,1528473247556782692,odom,base_footprint,0.0423047999015,-6.92285711563e-05,0.0,0.0,0.0,-0.00165806202968,0.999998625414
1528473247616050328,0,1528473247615728409,odom,base_footprint,0.044266507147,-7.57338625767e-05,0.0,0.0,0.0,-0.00157079568083,0.9999987663
1528473247674084910,0,1528473247673738093,odom,base_footprint,0.0463987988328,-8.24326765106e-05,0.0,0.0,0.0,-0.0017453283659,0.999998476913
1528473247696087254,0,1528473247695779372,odom,base_footprint,0.0469958398138,-8.45167511525e-05,0.0,0.0,0.0,-0.0017453283659,0.999998476913
1528473247756353159,0,1528473247755900933,odom,base_footprint,0.0488722543253,-9.10667000272e-05,0.0,0.0,0.0,-0.00200712729215,0.999997985718
1528473247814013901,0,1528473247813706956,odom,base_footprint,0.0509618936528,-9.94550949672e-05,0.0,0.0,0.0,-0.00209439357122,0.999997806755
1528473247835946499,0,1528473247835631681,odom,base_footprint,0.0516442243734,-0.000102313251922,0.0,0.0,0.0,-0.00209439357122,0.999997806755
1528473247896167635,0,1528473247895712914,odom,base_footprint,0.0537765078751,-0.000111244992407,0.0,0.0,0.0,-0.00209439357122,0.999997806755
1528473247956026083,0,1528473247955656879,odom,base_footprint,0.0557808543667,-0.000119640828462,0.0,0.0,0.0,-0.00226892608084,0.999997425984
1528473248016022419,0,1528473248015657626,odom,base_footprint,0.0576999065954,-0.000128349271013,0.0,0.0,0.0,-0.00235619231006,0.999997224175
1528473248075987824,0,1528473248075650399,odom,base_footprint,0.0597895395575,-0.000138196507249,0.0,0.0,0.0,-0.00253072471402,0.999996797711
1528473248135188225,0,1528473248134743958,odom,base_footprint,0.061879168955,-0.000148773162376,0.0,0.0,0.0,-0.00244345852134,0.999997014751
1528473248156083681,0,1528473248155632447,odom,base_footprint,0.0625614975139,-0.000152107675302,0.0,0.0,0.0,-0.00244345852134,0.999997014751
1528473248214851382,0,1528473248214516558,odom,base_footprint,0.0646511287255,-0.000162319621139,0.0,0.0,0.0,-0.00261799088742,0.999996573056
1528473248273579612,0,1528473248272506080,odom,base_footprint,0.0665275289473,-0.000172144519511,0.0,0.0,0.0,-0.00279252317374,0.9999961009
1528473248295937999,0,1528473248295546794,odom,base_footprint,0.0672098550119,-0.000175955386783,0.0,0.0,0.0,-0.00287978928534,0.999995853398
1528473248354960274,0,1528473248354538128,odom,base_footprint,0.0693421218531,-0.000188236497963,0.0,0.0,0.0,-0.00287978928534,0.999995853398
1528473248412899871,0,1528473248412457117,odom,base_footprint,0.0715170340311,-0.000200763231367,0.0,0.0,0.0,-0.00287978928534,0.999995853398
1528473248434894797,0,1528473248434520452,odom,base_footprint,0.0722420047571,-0.000204938809168,0.0,0.0,0.0,-0.00287978928534,0.999995853398
1528473248495069301,0,1528473248494647631,odom,base_footprint,0.0742889809247,-0.000216728675901,0.0,0.0,0.0,-0.00305432144207,0.999995335549
1528473248552759942,0,1528473248552360980,odom,base_footprint,0.0762933076036,-0.000228972563139,0.0,0.0,0.0,-0.00314158748588,0.999995065202
1528473248574917966,0,1528473248574478099,odom,base_footprint,0.0769756308415,-0.0002332597829,0.0,0.0,0.0,-0.00322885350576,0.999994787239
1528473248634849538,0,1528473248634451247,odom,base_footprint,0.0791505337442,-0.000247304888266,0.0,0.0,0.0,-0.00314158748588,0.999995065202
1528473248694697496,0,1528473248694308166,odom,base_footprint,0.0814107294698,-0.000261506303724,0.0,0.0,0.0,-0.00314158748588,0.999995065202
1528473248755022798,0,1528473248754430048,odom,base_footprint,0.0834576991836,-0.000274367963007,0.0,0.0,0.0,-0.00322885350576,0.999994787239
1528473248814674067,0,1528473248814279234,odom,base_footprint,0.0854620214664,-0.000287311491481,0.0,0.0,0.0,-0.00349065141522,0.999993907658
1528473248873873822,0,1528473248873374969,odom,base_footprint,0.087636916717,-0.000302495371367,0.0,0.0,0.0,-0.00349065141522,0.999993907658
1528473248931440928,0,1528473248931085651,odom,base_footprint,0.0898971019774,-0.000318274697522,0.0,0.0,0.0,-0.0034033854711,0.999994208467
1528473248954487827,0,1528473248954141015,odom,base_footprint,0.0906647129894,-0.000323499740637,0.0,0.0,0.0,-0.00349065141522,0.999993907658
1528473249013559165,0,1528473249013158574,odom,base_footprint,0.0927543182301,-0.000338088174252,0.0,0.0,0.0,-0.00366518322306,0.999993283193
1528473249071394410,0,1528473249071076415,odom,base_footprint,0.0948012733528,-0.000353093407763,0.0,0.0,0.0,-0.00383971491924,0.999992628267
1528473249093527496,0,1528473249093154103,odom,base_footprint,0.0954835899396,-0.000358333326001,0.0,0.0,0.0,-0.00392698072381,0.999992289381
1528473249153468841,0,1528473249153050544,odom,base_footprint,0.0977864052981,-0.000376419967426,0.0,0.0,0.0,-0.00383971491924,0.999992628267
1528473249211544512,0,1528473249211106069,odom,base_footprint,0.100046578992,-0.000393777196588,0.0,0.0,0.0,-0.00383971491924,0.999992628267
1528473249233548666,0,1528473249233129988,odom,base_footprint,0.100728895578,-0.000399017114826,0.0,0.0,0.0,-0.00392698072381,0.999992289381
1528473249293342825,0,1528473249293014290,odom,base_footprint,0.102818487293,-0.000415429067231,0.0,0.0,0.0,-0.00401424649846,0.99999194288
1528473249353401235,0,1528473249353015327,odom,base_footprint,0.104865431441,-0.00043186334123,0.0,0.0,0.0,-0.0041887779554,0.999991227031
1528473249413260670,0,1528473249412877063,odom,base_footprint,0.107253526109,-0.000451870264393,0.0,0.0,0.0,-0.00401424649846,0.99999194288
1528473249473403465,0,1528473249472946604,odom,base_footprint,0.109556338276,-0.000470358822642,0.0,0.0,0.0,-0.00410151224255,0.999991588763
1528473249533278657,0,1528473249532883107,odom,base_footprint,0.111645924134,-0.000487500179141,0.0,0.0,0.0,-0.00436330928475,0.999990480721
1528473249593263697,0,1528473249592904477,odom,base_footprint,0.11373550073,-0.000505735637837,0.0,0.0,0.0,-0.00427604363636,0.999990857684
1528473249652138010,0,1528473249651769688,odom,base_footprint,0.116080947385,-0.000525794652485,0.0,0.0,0.0,-0.00436330928475,0.999990480721
1528473249673094245,0,1528473249672739726,odom,base_footprint,0.116891191372,-0.000532865544633,0.0,0.0,0.0,-0.0041887779554,0.999991227031
1528473249732207034,0,1528473249731820340,odom,base_footprint,0.119151352397,-0.000551800668341,0.0,0.0,0.0,-0.00445057489991,0.999990096142
1528473249790118977,0,1528473249789748040,odom,base_footprint,0.121240925779,-0.000570400826673,0.0,0.0,0.0,-0.00471237153937,0.999988896716
1528473249812160116,0,1528473249811779501,odom,base_footprint,0.121965876331,-0.00057723352697,0.0,0.0,0.0,-0.00462510602789,0.99998930414
1528473249869955283,0,1528473249869584176,odom,base_footprint,0.124226019972,-0.000598141005794,0.0,0.0,0.0,-0.00479963701497,0.999988481676
1528473249891997951,0,1528473249891655895,odom,base_footprint,0.125036257479,-0.000605918966425,0.0,0.0,0.0,-0.00488690245402,0.999988059021
1528473249950138993,0,1528473249949701517,odom,base_footprint,0.127466965892,-0.000629677087326,0.0,0.0,0.0,-0.00462510602789,0.99998930414
1528473249972269067,0,1528473249971815043,odom,base_footprint,0.128234561845,-0.000636777740511,0.0,0.0,0.0,-0.00471237153937,0.999988896716
1528473250031864026,0,1528473250031501012,odom,base_footprint,0.130366769352,-0.000656873917855,0.0,0.0,0.0,-0.00488690245402,0.999988059021
1528473250092118886,0,1528473250091670794,odom,base_footprint,0.132541613721,-0.000678131183925,0.0,0.0,0.0,-0.00488690245402,0.999988059021
1528473250151952801,0,1528473250151552366,odom,base_footprint,0.134929678126,-0.000701472495687,0.0,0.0,0.0,-0.00497416785586,0.999987628751
1528473250210100214,0,1528473250209603836,odom,base_footprint,0.137275094487,-0.000724806351043,0.0,0.0,0.0,-0.00488690245402,0.999988059021
1528473250232005398,0,1528473250231595491,odom,base_footprint,0.137957398603,-0.000731475297261,0.0,0.0,0.0,-0.00506143321981,0.999987190865
1528473250291586336,0,1528473250291358166,odom,base_footprint,0.139961659983,-0.000751764947201,0.0,0.0,0.0,-0.00506143321981,0.999987190865
1528473250351747564,0,1528473250351352828,odom,base_footprint,0.142136496799,-0.000773781375859,0.0,0.0,0.0,-0.00523596383142,0.999986292247
1528473250410675012,0,1528473250410274847,odom,base_footprint,0.144524544327,-0.000798789865263,0.0,0.0,0.0,-0.00514869854522,0.999986745364
1528473250431552015,0,1528473250431195626,odom,base_footprint,0.145334776207,-0.000807133476441,0.0,0.0,0.0,-0.00523596383142,0.999986292247
1528473250491789048,0,1528473250491329040,odom,base_footprint,0.147680180029,-0.000831695385677,0.0,0.0,0.0,-0.00549775944811,0.999984887206
1528473250550553286,0,1528473250550231181,odom,base_footprint,0.149812353338,-0.00085514080057,0.0,0.0,0.0,-0.00549775944811,0.999984887206
1528473250608548147,0,1528473250608230181,odom,base_footprint,0.152115100512,-0.000880461848655,0.0,0.0,0.0,-0.00558502457083,0.999984403629
1528473250630490762,0,1528473250630164277,odom,base_footprint,0.152882681419,-0.000889036166287,0.0,0.0,0.0,-0.00558502457083,0.999984403629
1528473250690744714,0,1528473250690269430,odom,base_footprint,0.155270710905,-0.000915711821143,0.0,0.0,0.0,-0.00549775944811,0.999984887206
1528473250748456108,0,1528473250748094261,odom,base_footprint,0.157445527681,-0.000939626144334,0.0,0.0,0.0,-0.00567228965101,0.999983912436
1528473250770490261,0,1528473250770162838,odom,base_footprint,0.158170463779,-0.00094785063633,0.0,0.0,0.0,-0.00567228965101,0.999983912436
1528473250829638597,0,1528473250828228968,odom,base_footprint,0.160430558674,-0.000973491699609,0.0,0.0,0.0,-0.005759554688,0.999983413627
1528473250850473590,0,1528473250850173240,odom,base_footprint,0.16128342297,-0.000983316425594,0.0,0.0,0.0,-0.00584681968112,0.999982907204
1528473250910589816,0,1528473250910022048,odom,base_footprint,0.163671438163,-0.00101124244605,0.0,0.0,0.0,-0.005759554688,0.999983413627
1528473250968359670,0,1528473250967992136,odom,base_footprint,0.166059458192,-0.00103875167881,0.0,0.0,0.0,-0.00593408462972,0.999982393165
1528473250990404938,0,1528473250990053791,odom,base_footprint,0.166699103804,-0.0010463435022,0.0,0.0,0.0,-0.00593408462972,0.999982393165
1528473251050404031,0,1528473251050025286,odom,base_footprint,0.168916541922,-0.00107266182327,0.0,0.0,0.0,-0.00593408462972,0.999982393165
1528473251110325048,0,1528473251109925069,odom,base_footprint,0.171389838286,-0.00110201687369,0.0,0.0,0.0,-0.00602134953313,0.999981871511
1528473251169280549,0,1528473251168926891,odom,base_footprint,0.173820486536,-0.00113129003115,0.0,0.0,0.0,-0.00610861439068,0.999981342241
1528473251227264659,0,1528473251226870011,odom,base_footprint,0.17595262961,-0.00115734036901,0.0,0.0,0.0,-0.00619587920171,0.999980805356
1528473251250288865,0,1528473251249923100,odom,base_footprint,0.176677556698,-0.00116632400767,0.0,0.0,0.0,-0.00619587920171,0.999980805356
1528473251309445325,0,1528473251309004250,odom,base_footprint,0.178894980733,-0.00119380337296,0.0,0.0,0.0,-0.00628314396556,0.999980260856
1528473251367107441,0,1528473251366720145,odom,base_footprint,0.181368255999,-0.00122488510269,0.0,0.0,0.0,-0.00637040868156,0.999979708741
1528473251389175952,0,1528473251388774674,odom,base_footprint,0.182178465073,-0.00123520845695,0.0,0.0,0.0,-0.00637040868156,0.999979708741
1528473251449254484,0,1528473251448854364,odom,base_footprint,0.184609092295,-0.00126617851974,0.0,0.0,0.0,-0.00654493796735,0.999978581664
1528473251509060064,0,1528473251508771041,odom,base_footprint,0.186826496605,-0.00129520593222,0.0,0.0,0.0,-0.00654493796735,0.999978581664
1528473251569206483,0,1528473251568806087,odom,base_footprint,0.189257112868,-0.00132702444206,0.0,0.0,0.0,-0.00680673152056,0.999976833935
1528473251629127931,0,1528473251628823653,odom,base_footprint,0.191772996322,-0.00136127670897,0.0,0.0,0.0,-0.00680673152056,0.999976833935
1528473251689271463,0,1528473251688789514,odom,base_footprint,0.194075669314,-0.0013926262414,0.0,0.0,0.0,-0.00689399593551,0.999976236128
1528473251749095742,0,1528473251748727932,odom,base_footprint,0.19633569481,-0.00142378967626,0.0,0.0,0.0,-0.00689399593551,0.999976236128
1528473251808215828,0,1528473251807775780,odom,base_footprint,0.198808930257,-0.00145789305781,0.0,0.0,0.0,-0.00706852460725,0.999975017668
1528473251866213023,0,1528473251865636375,odom,base_footprint,0.20145272078,-0.00149527125596,0.0,0.0,0.0,-0.00706852460725,0.999975017668
1528473251888156225,0,1528473251887689737,odom,base_footprint,0.20226291465,-0.00150672586507,0.0,0.0,0.0,-0.00706852460725,0.999975017668
1528473251945905527,0,1528473251945513866,odom,base_footprint,0.204437645564,-0.00153747244741,0.0,0.0,0.0,-0.00724305306366,0.999973768747
1528473251967974685,0,1528473251967561119,odom,base_footprint,0.205205193817,-0.00154859210791,0.0,0.0,0.0,-0.00724305306366,0.999973768747
1528473252025800409,0,1528473252025442096,odom,base_footprint,0.207635763283,-0.00158380436616,0.0,0.0,0.0,-0.00733031720946,0.999973132864
1528473252048093961,0,1528473252047672893,odom,base_footprint,0.208488592506,-0.00159630839146,0.0,0.0,0.0,-0.00741758129944,0.999972489365
1528473252105841840,0,1528473252105473398,odom,base_footprint,0.211004432235,-0.00163363436354,0.0,0.0,0.0,-0.00750484533293,0.999971838252
1528473252127765382,0,1528473252127405134,odom,base_footprint,0.211771974561,-0.00164515590982,0.0,0.0,0.0,-0.00750484533293,0.999971838252
1528473252187889313,0,1528473252187449446,odom,base_footprint,0.214117242776,-0.00168036063458,0.0,0.0,0.0,-0.00750484533293,0.999971838252
1528473252245697897,0,1528473252245331495,odom,base_footprint,0.216675717193,-0.00171876578886,0.0,0.0,0.0,-0.00759210930926,0.999971179523
1528473252268121981,0,1528473252267491649,odom,base_footprint,0.217485898624,-0.00173106882456,0.0,0.0,0.0,-0.00776663708782,0.999969839219
1528473252327729429,0,1528473252327303138,odom,base_footprint,0.220172275279,-0.00177280082574,0.0,0.0,0.0,-0.00794116462979,0.999968468455
1528473252387680551,0,1528473252387314925,odom,base_footprint,0.222346949218,-0.00180734298081,0.0,0.0,0.0,-0.00785390088871,0.999969157645
1528473252446609800,0,1528473252446273463,odom,base_footprint,0.224777473851,-0.00184552471283,0.0,0.0,0.0,-0.00794116462979,0.999968468455
1528473252467664388,0,1528473252467288875,odom,base_footprint,0.225587646495,-0.00185839335884,0.0,0.0,0.0,-0.00794116462979,0.999968468455
1528473252527632880,0,1528473252527264388,odom,base_footprint,0.228231367754,-0.00190038578264,0.0,0.0,0.0,-0.00820295548752,0.999966355195
1528473252586723057,0,1528473252586293890,odom,base_footprint,0.230576584529,-0.00193886508419,0.0,0.0,0.0,-0.00811569192986,0.99996706723
1528473252644541333,0,1528473252644213606,odom,base_footprint,0.233007088836,-0.00197831943065,0.0,0.0,0.0,-0.0080284283104,0.99996777165
1528473252666755066,0,1528473252666322406,odom,base_footprint,0.233774618675,-0.00199064473891,0.0,0.0,0.0,-0.00811569192986,0.99996706723
1528473252726480165,0,1528473252726142465,odom,base_footprint,0.236460965541,-0.00203425217447,0.0,0.0,0.0,-0.00837748241477,0.999964908278
1528473252784751484,0,1528473252784211556,odom,base_footprint,0.23906200909,-0.00207783715612,0.0,0.0,0.0,-0.00837748241477,0.999964908278
1528473252806653582,0,1528473252806207134,odom,base_footprint,0.239829530138,-0.00209069829825,0.0,0.0,0.0,-0.00837748241477,0.999964908278
1528473252866492705,0,1528473252866140184,odom,base_footprint,0.242174733338,-0.00212999623252,0.0,0.0,0.0,-0.00837748241477,0.999964908278
1528473252926636046,0,1528473252926191378,odom,base_footprint,0.244733136828,-0.00217286670628,0.0,0.0,0.0,-0.0086392723255,0.99996268079
1528473252986363275,0,1528473252986012008,odom,base_footprint,0.247547355591,-0.00222149775551,0.0,0.0,0.0,-0.0089010616441,0.999960384766
1528473253046525495,0,1528473253046089232,odom,base_footprint,0.249849877065,-0.00226249239878,0.0,0.0,0.0,-0.00898832461561,0.999959604194
1528473253106362188,0,1528473253106023350,odom,base_footprint,0.252365587117,-0.00230772191727,0.0,0.0,0.0,-0.00898832461561,0.999959604194
1528473253166336834,0,1528473253165940443,odom,base_footprint,0.255094492936,-0.0023567844458,0.0,0.0,0.0,-0.0092501131168,0.999957216788
1528473253225225199,0,1528473253224883078,odom,base_footprint,0.2577380952,-0.00240569796387,0.0,0.0,0.0,-0.00933737581052,0.999956405756
1528473253246127310,0,1528473253245793257,odom,base_footprint,0.258590867356,-0.00242162535514,0.0,0.0,0.0,-0.00933737581052,0.999956405756
1528473253305233579,0,1528473253304881605,odom,base_footprint,0.260978629395,-0.00246622205072,0.0,0.0,0.0,-0.00916285035263,0.999958020206
1528473253363192225,0,1528473253362839675,odom,base_footprint,0.263664879039,-0.00251545565824,0.0,0.0,0.0,-0.00942463843314,0.999955587109
1528473253385303726,0,1528473253384905776,odom,base_footprint,0.264602925339,-0.00253313950887,0.0,0.0,0.0,-0.00951190098399,0.999954760847
1528473253443140495,0,1528473253442729846,odom,base_footprint,0.267246501629,-0.00258343720708,0.0,0.0,0.0,-0.00968642586771,0.999953085476
1528473253465239017,0,1528473253464862551,odom,base_footprint,0.267971348334,-0.00259748153151,0.0,0.0,0.0,-0.00968642586771,0.999953085476
1528473253525366456,0,1528473253524928383,odom,base_footprint,0.270359078657,-0.00264374518845,0.0,0.0,0.0,-0.0095991634624,0.999953926969
1528473253585297005,0,1528473253584886231,odom,base_footprint,0.273173198868,-0.0026977790569,0.0,0.0,0.0,-0.00977368819925,0.999952236369
1528473253643317524,0,1528473253642859280,odom,base_footprint,0.275859386357,-0.00275029449992,0.0,0.0,0.0,-0.00994821263837,0.999950515308
1528473253665397868,0,1528473253664865774,odom,base_footprint,0.276754776021,-0.00276811219862,0.0,0.0,0.0,-0.00994821263837,0.999950515308
1528473253725034589,0,1528473253724669009,odom,base_footprint,0.279057206587,-0.00281392913815,0.0,0.0,0.0,-0.00994821263837,0.999950515308
1528473253785140864,0,1528473253784718598,odom,base_footprint,0.28187128839,-0.0028699276198,0.0,0.0,0.0,-0.0101227367745,0.999948763788
1528473253843853759,0,1528473253843540730,odom,base_footprint,0.284557438561,-0.00292431836251,0.0,0.0,0.0,-0.0102099987272,0.999947876605
1528473253901940321,0,1528473253901537354,odom,base_footprint,0.286902481974,-0.00297221163225,0.0,0.0,0.0,-0.0104717841162,0.999945169366
1528473253924947999,0,1528473253924550961,odom,base_footprint,0.287712579107,-0.00298918074816,0.0,0.0,0.0,-0.0103845223988,0.999946079394
1528473253983999406,0,1528473253983528347,odom,base_footprint,0.29052661097,-0.00304763495781,0.0,0.0,0.0,-0.0104717841162,0.999945169366
1528473254041829564,0,1528473254041489759,odom,base_footprint,0.293255359206,-0.00310479408507,0.0,0.0,0.0,-0.0104717841162,0.999945169366
1528473254063787641,0,1528473254063427950,odom,base_footprint,0.294150729721,-0.0031235494237,0.0,0.0,0.0,-0.010559045754,0.999944251722
1528473254123945957,0,1528473254123478807,odom,base_footprint,0.296538375662,-0.00317398038364,0.0,0.0,0.0,-0.0107335687876,0.999942393591
1528473254181792670,0,1528473254181365302,odom,base_footprint,0.29935236603,-0.00323439914374,0.0,0.0,0.0,-0.0106463073113,0.999943326464
1528473254203760238,0,1528473254203423545,odom,base_footprint,0.300205093567,-0.00325255903017,0.0,0.0,0.0,-0.0106463073113,0.999943326464
1528473254264267872,0,1528473254263606302,odom,base_footprint,0.303019094438,-0.00331248665539,0.0,0.0,0.0,-0.0107335687876,0.999942393591
1528473254323644706,0,1528473254323285125,odom,base_footprint,0.305406722629,-0.0033637510579,0.0,0.0,0.0,-0.0109080914942,0.999940505
1528473254383815115,0,1528473254383367725,odom,base_footprint,0.308135419946,-0.00342329144514,0.0,0.0,0.0,-0.0108208301821,0.999941453103
1528473254443687550,0,1528473254443296185,odom,base_footprint,0.310949399726,-0.0034842013383,0.0,0.0,0.0,-0.0109080914942,0.999940505
1528473254502855211,0,1528473254502428730,odom,base_footprint,0.313635461147,-0.00354281140699,0.0,0.0,0.0,-0.0110826138685,0.999938585949
1528473254523620064,0,1528473254523148223,odom,base_footprint,0.314360265807,-0.00355887982788,0.0,0.0,0.0,-0.0110826138685,0.999938585949
1528473254582552260,0,1528473254582171881,odom,base_footprint,0.317003671036,-0.00361748230407,0.0,0.0,0.0,-0.0110826138685,0.999938585949
1528473254640836850,0,1528473254640300004,odom,base_footprint,0.319774982971,-0.00367892038394,0.0,0.0,0.0,-0.0110826138685,0.999938585949
1528473254662541806,0,1528473254662168047,odom,base_footprint,0.32075560104,-0.0037006600122,0.0,0.0,0.0,-0.0111698749294,0.999937615001
1528473254722496777,0,1528473254722169716,odom,base_footprint,0.323228454391,-0.00375591327864,0.0,0.0,0.0,-0.0113443967954,0.99993565026
1528473254780502572,0,1528473254780102236,odom,base_footprint,0.325871828574,-0.00381589983048,0.0,0.0,0.0,-0.0112571359053,0.999936636438
1528473254802453487,0,1528473254802138689,odom,base_footprint,0.326852438995,-0.00383798175769,0.0,0.0,0.0,-0.0113443967954,0.99993565026
1528473254862731500,0,1528473254862294189,odom,base_footprint,0.329666353448,-0.00390183840964,0.0,0.0,0.0,-0.0113443967954,0.99993565026
1528473254920490760,0,1528473254920110265,odom,base_footprint,0.332309727632,-0.00396182496148,0.0,0.0,0.0,-0.0115189183158,0.99993365506
1528473254942576552,0,1528473254942171320,odom,base_footprint,0.332991883266,-0.00397754348014,0.0,0.0,0.0,-0.0115189183158,0.99993365506
1528473255001675123,0,1528473255001258610,odom,base_footprint,0.335763140531,-0.0040413999622,0.0,0.0,0.0,-0.0116061789447,0.999932646037
1528473255022325592,0,1528473255021943984,odom,base_footprint,0.336743735296,-0.0040641664792,0.0,0.0,0.0,-0.0116061789447,0.999932646037
1528473255082384194,0,1528473255082021662,odom,base_footprint,0.339514981373,-0.00412850663593,0.0,0.0,0.0,-0.0116061789447,0.999932646037
1528473255141340605,0,1528473255140931098,odom,base_footprint,0.341817247345,-0.00418195845844,0.0,0.0,0.0,-0.0117806999367,0.999930605147
1528473255199104164,0,1528473255198828523,odom,base_footprint,0.344631105002,-0.00424827068937,0.0,0.0,0.0,-0.0116934394852,0.999931629399
1528473255221216147,0,1528473255220909944,odom,base_footprint,0.345569061397,-0.00427021106241,0.0,0.0,0.0,-0.0117806999367,0.999930605147
1528473255281200196,0,1528473255280874025,odom,base_footprint,0.348510821674,-0.00433953748565,0.0,0.0,0.0,-0.0119552205699,0.999928533797
1528473255338943178,0,1528473255338623562,odom,base_footprint,0.35106885289,-0.004400714257,0.0,0.0,0.0,-0.0120424807503,0.9999274867
1528473255361387232,0,1528473255360785065,odom,base_footprint,0.351793625365,-0.00441817417248,0.0,0.0,0.0,-0.0119552205699,0.999928533797
1528473255418936427,0,1528473255418578284,odom,base_footprint,0.354650093556,-0.00448648823382,0.0,0.0,0.0,-0.0118679602985,0.999929573279
1528473255440981961,0,1528473255440689940,odom,base_footprint,0.355588042236,-0.00450875601406,0.0,0.0,0.0,-0.0119552205699,0.999928533797
1528473255501071062,0,1528473255500709931,odom,base_footprint,0.35835924272,-0.00457503084969,0.0,0.0,0.0,-0.012129740839,0.999926431987
1528473255558790208,0,1528473255558473792,odom,base_footprint,0.36053355097,-0.00462779008529,0.0,0.0,0.0,-0.0106463073113,0.999943326464
1528473255581137235,0,1528473255580746832,odom,base_footprint,0.361428914883,-0.00464685796604,0.0,0.0,0.0,-0.0095991634624,0.999953926969
1528473255641063804,0,1528473255640542710,odom,base_footprint,0.364029844169,-0.00469679835961,0.0,0.0,0.0,-0.00628314396556,0.999980260856
1528473255701037895,0,1528473255700577375,odom,base_footprint,0.366545762113,-0.00472841598123,0.0,0.0,0.0,-0.000174532924313,0.999999984769
1528473255759787795,0,1528473255759405902,odom,base_footprint,0.368976586482,-0.00472926449904,0.0,0.0,0.0,0.00506143321981,0.999987190865
1528473255817705157,0,1528473255817341219,odom,base_footprint,0.371705793468,-0.00470163603955,0.0,0.0,0.0,0.0103845223988,0.999946079394
1528473255840753257,0,1528473255840396076,odom,base_footprint,0.372558530396,-0.00468392264268,0.0,0.0,0.0,0.0116061789447,0.999932646037
1528473255899678617,0,1528473255899303600,odom,base_footprint,0.375116603698,-0.00462453172878,0.0,0.0,0.0,0.0143984687773,0.999896336675
1528473255957649978,0,1528473255957338337,odom,base_footprint,0.377546420318,-0.0045545386834,0.0,0.0,0.0,0.0194591928802,0.99981065198
1528473255979851497,0,1528473255979434077,odom,base_footprint,0.37835608152,-0.00452301006565,0.0,0.0,0.0,0.0215531472033,0.999767703942
1528473256039683369,0,1528473256039296549,odom,base_footprint,0.380784647616,-0.00441825056922,0.0,0.0,0.0,0.0289684124871,0.999580327476
1528473256099878465,0,1528473256099460679,odom,base_footprint,0.383126243449,-0.00428241489784,0.0,0.0,0.0,0.0336784847291,0.999432718929
1528473256159626692,0,1528473256159267101,odom,base_footprint,0.385679201596,-0.00411016217134,0.0,0.0,0.0,0.0377773869837,0.999286179747
1528473256219897924,0,1528473256219422415,odom,base_footprint,0.38835823383,-0.00390731400157,0.0,0.0,0.0,0.0421372220364,0.999111832839
1528473256279506069,0,1528473256279149760,odom,base_footprint,0.391077888498,-0.00367750410611,0.0,0.0,0.0,0.0464090825994,0.998922518042
1528473256339756703,0,1528473256339297877,odom,base_footprint,0.393583166665,-0.0034442144159,0.0,0.0,0.0,0.0513773167408,0.998679313556
1528473256398549572,0,1528473256398165369,odom,base_footprint,0.396043579139,-0.00319038952132,0.0,0.0,0.0,0.0566927875634,0.998391670557
1528473256456697797,0,1528473256456220037,odom,base_footprint,0.398501149875,-0.00291038470457,0.0,0.0,0.0,0.0636614381316,0.99797155335
1528473256478663701,0,1528473256478265225,odom,base_footprint,0.399262556611,-0.00281284625219,0.0,0.0,0.0,0.0654031292301,0.997858923239
1528473256538531381,0,1528473256538163294,odom,base_footprint,0.401588022685,-0.00250669283548,0.0,0.0,0.0,0.0705399371219,0.997508955985
1528473256598549347,0,1528473256598184148,odom,base_footprint,0.404036877848,-0.00215860518673,0.0,0.0,0.0,0.076283974504,0.997086132304
1528473256658419161,0,1528473256658045327,odom,base_footprint,0.406692309491,-0.00174989516601,0.0,0.0,0.0,0.0808947876621,0.99672264614
1528473256716564860,0,1528473256716116994,odom,base_footprint,0.409301759018,-0.00132351666082,0.0,0.0,0.0,0.0869818726464,0.996209894465
1528473256738458913,0,1528473256738070249,odom,base_footprint,0.410183774502,-0.0011683109679,0.0,0.0,0.0,0.0885466075362,0.996072034691
1528473256798424213,0,1528473256798077256,odom,base_footprint,0.412954277054,-0.00067181542105,0.0,0.0,0.0,0.0929788237793,0.995668086427
1528473256858477230,0,1528473256858087670,odom,base_footprint,0.415426889694,-0.000205951159961,0.0,0.0,0.0,0.098625045759,0.995124665732
1528473256917319955,0,1528473256916935316,odom,base_footprint,0.417852241856,0.000279562496673,0.0,0.0,0.0,0.103400146944,0.994639839144
1528473256938230650,0,1528473256937861928,odom,base_footprint,0.418603456305,0.000437457453729,0.0,0.0,0.0,0.106090525009,0.994356475568
1528473256997307486,0,1528473256996918853,odom,base_footprint,0.421021248058,0.00095931917999,0.0,0.0,0.0,0.111208760556,0.993797067603
1528473257055284700,0,1528473257054853739,odom,base_footprint,0.423433537877,0.00150604986984,0.0,0.0,0.0,0.116150698194,0.993231602049
1528473257077405879,0,1528473257076966157,odom,base_footprint,0.424263445275,0.00170284352747,0.0,0.0,0.0,0.118663922008,0.992934475992
1528473257135109194,0,1528473257134725347,odom,base_footprint,0.426874482511,0.00233596724937,0.0,0.0,0.0,0.123514878972,0.992342720371
1528473257157112340,0,1528473257156761429,odom,base_footprint,0.427784068869,0.00256595907158,0.0,0.0,0.0,0.125073494251,0.992147479479
1528473257215231051,0,1528473257214803507,odom,base_footprint,0.43046933507,0.00325391975812,0.0,0.0,0.0,0.130699230003,0.991422065155
1528473257237039722,0,1528473257236706437,odom,base_footprint,0.431334305332,0.00348601148084,0.0,0.0,0.0,0.13242938799,0.99119244206
1528473257297189072,0,1528473257296757485,odom,base_footprint,0.433762168932,0.00414655755159,0.0,0.0,0.0,0.137790290685,0.990461425697
1528473257357118013,0,1528473257356719758,odom,base_footprint,0.436182742732,0.00483333644914,0.0,0.0,0.0,0.144269848036,0.989538382756
1528473257416983898,0,1528473257416530119,odom,base_footprint,0.438471507119,0.0055152118039,0.0,0.0,0.0,0.150484412391,0.988612381891
1528473257474889350,0,1528473257474509861,odom,base_footprint,0.440873665994,0.00626386092994,0.0,0.0,0.0,0.157554861013,0.98751023578
1528473257497085097,0,1528473257496576576,odom,base_footprint,0.441643713063,0.00651599745424,0.0,0.0,0.0,0.159622750546,0.987178088041
1528473257557000607,0,1528473257556571996,odom,base_footprint,0.443991138422,0.00729551705282,0.0,0.0,0.0,0.165305809168,0.986242358376
1528473257616799141,0,1528473257616402650,odom,base_footprint,0.446450374873,0.00814374064978,0.0,0.0,0.0,0.171929100279,0.985109326155
1528473257675937820,0,1528473257675537645,odom,base_footprint,0.448897990286,0.00902493642055,0.0,0.0,0.0,0.178201160625,0.983994078413
1528473257733756512,0,1528473257733368485,odom,base_footprint,0.451414055189,0.00996715640342,0.0,0.0,0.0,0.184894815915,0.982758315685
1528473257755796564,0,1528473257755445106,odom,base_footprint,0.452248390248,0.0102926178157,0.0,0.0,0.0,0.186866964522,0.982385228701
1528473257816021068,0,1528473257815555992,odom,base_footprint,0.454826791226,0.0113103569147,0.0,0.0,0.0,0.192179419046,0.981359807051
1528473257875767366,0,1528473257875404803,odom,base_footprint,0.457354532507,0.0123398510219,0.0,0.0,0.0,0.197400699215,0.980322887598
1528473257935898474,0,1528473257935499737,odom,base_footprint,0.459713880364,0.0133301762149,0.0,0.0,0.0,0.203129096238,0.979151964846
1528473257995625312,0,1528473257995314704,odom,base_footprint,0.462022359833,0.014331058484,0.0,0.0,0.0,0.210727687671,0.977544802886
1528473258055889323,0,1528473258055465518,odom,base_footprint,0.464276155744,0.0153501073601,0.0,0.0,0.0,0.217632222696,0.976030847691
1528473258113647450,0,1528473258113267437,odom,base_footprint,0.466553926741,0.0164190330164,0.0,0.0,0.0,0.224780991261,0.97440931131
1528473258135587680,0,1528473258135284806,odom,base_footprint,0.46732065742,0.0167926613054,0.0,0.0,0.0,0.226821294859,0.973936394329
1528473258194803262,0,1528473258194377333,odom,base_footprint,0.469730907977,0.017979696834,0.0,0.0,0.0,0.232681594384,0.972552968036
1528473258252555150,0,1528473258252228996,odom,base_footprint,0.472164717176,0.0192149728708,0.0,0.0,0.0,0.239635020738,0.970863047415
1528473258274683731,0,1528473258274218560,odom,base_footprint,0.472957428343,0.0196316851532,0.0,0.0,0.0,0.241583183765,0.970380113833
1528473258334642060,0,1528473258334178498,odom,base_footprint,0.475443528899,0.0209513427794,0.0,0.0,0.0,0.247083574357,0.968994172987
1528473258392498975,0,1528473258392099427,odom,base_footprint,0.477802181943,0.0222378562509,0.0,0.0,0.0,0.253673533584,0.967289893651
1528473258414463251,0,1528473258414165994,odom,base_footprint,0.478545331462,0.0226564286164,0.0,0.0,0.0,0.25569886295,0.96675647993
1528473258474761300,0,1528473258474278629,odom,base_footprint,0.480732431056,0.0239003892824,0.0,0.0,0.0,0.262694424132,0.964879080263
1528473258534524398,0,1528473258534190871,odom,base_footprint,0.482938041676,0.0251975199985,0.0,0.0,0.0,0.269256011385,0.963068637394
1528473258594588736,0,1528473258594211925,odom,base_footprint,0.485052864944,0.026480321294,0.0,0.0,0.0,0.27555346886,0.961285746175
1528473258654569482,0,1528473258654182292,odom,base_footprint,0.487259225201,0.0278584728137,0.0,0.0,0.0,0.28284371374,0.959166009405
1528473258713462187,0,1528473258713055381,odom,base_footprint,0.489408582928,0.0292468271123,0.0,0.0,0.0,0.288697611798,0.957420330337
1528473258734333887,0,1528473258734001449,odom,base_footprint,0.490119328193,0.0297183302425,0.0,0.0,0.0,0.291704006862,0.956508636856
1528473258793917760,0,1528473258793391434,odom,base_footprint,0.492313411204,0.03119380481,0.0,0.0,0.0,0.2982912415,0.954474900269
1528473258851483338,0,1528473258851087577,odom,base_footprint,0.494521999264,0.0327236740457,0.0,0.0,0.0,0.30552912238,0.952182732136
1528473258873544668,0,1528473258873095073,odom,base_footprint,0.495250367348,0.0332447499088,0.0,0.0,0.0,0.307605734096,0.951513905495
1528473258931464905,0,1528473258931035472,odom,base_footprint,0.497497781149,0.0348674253791,0.0,0.0,0.0,0.313743886201,0.949507648137
1528473258953303335,0,1528473258952928975,odom,base_footprint,0.498251287709,0.0354264168324,0.0,0.0,0.0,0.315483422034,0.948931088342
1528473259011165583,0,1528473259010847618,odom,base_footprint,0.500471488846,0.0370861310817,0.0,0.0,0.0,0.321522099322,0.946902075004
1528473259033291537,0,1528473259032953476,odom,base_footprint,0.501181894695,0.0376314416818,0.0,0.0,0.0,0.323422004683,0.946254831896
1528473259093400359,0,1528473259092955155,odom,base_footprint,0.503205355023,0.039197607255,0.0,0.0,0.0,0.32944347204,0.944175300847
1528473259153302378,0,1528473259152904037,odom,base_footprint,0.505208697293,0.040789425727,0.0,0.0,0.0,0.337013098336,0.941499958338
1528473259213357886,0,1528473259212929361,odom,base_footprint,0.507186222532,0.0424132053385,0.0,0.0,0.0,0.344069419026,0.938944212875
1528473259273242354,0,1528473259272913218,odom,base_footprint,0.509074055578,0.0440113739813,0.0,0.0,0.0,0.35118806988,0.936304939415
1528473259332285537,0,1528473259331925795,odom,base_footprint,0.5110980383,0.0457782511795,0.0,0.0,0.0,0.357145588947,0.93404872908
1528473259390188449,0,1528473259389841748,odom,base_footprint,0.51306757896,0.0475423189356,0.0,0.0,0.0,0.363413835735,0.931627814096
1528473259412434366,0,1528473259411975054,odom,base_footprint,0.513789354629,0.0482064908208,0.0,0.0,0.0,0.365364233984,0.930864639207
1528473259470123319,0,1528473259469741135,odom,base_footprint,0.515790014853,0.0500630178926,0.0,0.0,0.0,0.37055743751,0.928809552872
1528473259492122700,0,1528473259491794732,odom,base_footprint,0.516501504845,0.0507381966842,0.0,0.0,0.0,0.373230676754,0.92773857413
1528473259550231153,0,1528473259549814309,odom,base_footprint,0.518624273229,0.0527759930594,0.0,0.0,0.0,0.379294674192,0.925275931887
1528473259572211681,0,1528473259571809822,odom,base_footprint,0.51926215967,0.0534045954857,0.0,0.0,0.0,0.381151056761,0.924512775428
1528473259632135340,0,1528473259631792808,odom,base_footprint,0.521228743758,0.0553581797557,0.0,0.0,0.0,0.387193771905,0.92199836388
1528473259692073407,0,1528473259691698099,odom,base_footprint,0.523080010322,0.057245992662,0.0,0.0,0.0,0.393139662794,0.9194787684
1528473259752022439,0,1528473259751654719,odom,base_footprint,0.524906741234,0.0591575573698,0.0,0.0,0.0,0.400588922036,0.916257887029
1528473259812061529,0,1528473259811666516,odom,base_footprint,0.526615327907,0.0610046021331,0.0,0.0,0.0,0.407374318949,0.913261279296
1528473259872011368,0,1528473259871667613,odom,base_footprint,0.528324817604,0.0629085221091,0.0,0.0,0.0,0.414613831976,0.909997456224
1528473259931894513,0,1528473259931528487,odom,base_footprint,0.530003853962,0.0648393517768,0.0,0.0,0.0,0.421035813367,0.907044014291
1528473259990969229,0,1528473259990572758,odom,base_footprint,0.531875636722,0.0670543075605,0.0,0.0,0.0,0.426805511084,0.904343439025
1528473260048912199,0,1528473260048490509,odom,base_footprint,0.533610611841,0.0691612473882,0.0,0.0,0.0,0.433580449132,0.901114861785
1528473260070823141,0,1528473260070446957,odom,base_footprint,0.534196071736,0.0698943778622,0.0,0.0,0.0,0.435309665349,0.900280786896
1528473260130762727,0,1528473260130409500,odom,base_footprint,0.53599696076,0.0721673491652,0.0,0.0,0.0,0.441819028143,0.897104200397
1528473260188944383,0,1528473260188389761,odom,base_footprint,0.537738738507,0.0744323629886,0.0,0.0,0.0,0.447290848419,0.89438856037
1528473260210806558,0,1528473260210471764,odom,base_footprint,0.538250373158,0.0751147880886,0.0,0.0,0.0,0.449085099138,0.89348898915
1528473260271007287,0,1528473260270495755,odom,base_footprint,0.539827935587,0.077236655719,0.0,0.0,0.0,0.455777948787,0.890093512728
1528473260330657534,0,1528473260330303390,odom,base_footprint,0.541298688581,0.0792781572266,0.0,0.0,0.0,0.461748613235,0.887010833178
1528473260391455689,0,1528473260390564489,odom,base_footprint,0.542766334543,0.0813741728822,0.0,0.0,0.0,0.469625659061,0.882865641166
1528473260450703881,0,1528473260450314797,odom,base_footprint,0.544196435894,0.0834959825871,0.0,0.0,0.0,0.475777729464,0.879565547385
1528473260510798625,0,1528473260510334597,odom,base_footprint,0.545620111703,0.0856732456364,0.0,0.0,0.0,0.483053170619,0.875591020029
1528473260570692139,0,1528473260570170884,odom,base_footprint,0.547030237043,0.0879098886536,0.0,0.0,0.0,0.489306347485,0.872111975787
