%time,field.header.seq,field.header.stamp,field.header.frame_id,field.time_stamp,field.bumper,field.wheel_drop,field.cliff,field.left_encoder,field.right_encoder,field.left_pwm,field.right_pwm,field.buttons,field.charger,field.battery,field.bottom0,field.bottom1,field.bottom2,field.current0,field.current1,field.over_current,field.digital_input,field.analog_input0,field.analog_input1,field.analog_input2,field.analog_input3
1500216231071967600,0,1500216231071541547,,48876,0,0,0,61184,42528,0,0,0,0,158,1682,2000,1682,0,0,0,0,4095,4082,4095,4095
1500216231091600472,1,1500216231091376891,,48896,0,0,0,61184,42528,0,0,0,0,158,1682,2000,1683,0,0,0,0,4095,4088,4095,4095
1500216231111542734,2,1500216231111372485,,48916,0,0,0,61184,42528,0,0,0,0,158,1677,2000,1683,0,0,0,0,4095,4091,4095,4095
1500216231132587577,3,1500216231132402441,,48936,0,0,0,61184,42528,0,0,0,0,158,1677,1999,1681,0,0,0,0,4095,4095,4095,4095
1500216231151661049,4,1500216231151454309,,48956,0,0,0,61184,42528,0,0,0,0,158,1677,2000,1681,0,0,0,0,4095,4095,4095,4095
1500216231171592428,5,1500216231171419300,,48976,0,0,0,61184,42528,0,0,0,0,158,1675,2000,1681,0,0,0,0,4095,4002,4095,4095
1500216231191625730,6,1500216231191492531,,48996,0,0,0,61184,42528,0,0,0,0,158,1678,2001,1681,0,0,0,0,4095,4095,4095,4095
1500216231211503066,7,1500216231211337323,,49016,0,0,0,61184,42528,0,0,0,0,158,1678,2001,1683,0,0,0,0,4082,3946,4087,4095
1500216231231449332,8,1500216231231315677,,49036,0,0,0,61184,42528,0,0,0,0,158,1678,2000,1684,0,0,0,0,4095,4085,4095,4095
1500216231251514106,9,1500216231251325413,,49056,0,0,0,61184,42528,0,0,0,0,158,1678,2000,1684,0,0,0,0,4095,4095,4095,4095
1500216231271611993,10,1500216231271341495,,49076,0,0,0,61184,42528,0,0,0,0,158,1678,1999,1681,0,0,0,0,4095,4000,4095,4095
1500216231291478821,11,1500216231291296663,,49096,0,0,0,61184,42528,0,0,0,0,158,1679,1999,1683,0,0,0,0,4095,4073,4095,4095
1500216231311804458,12,1500216231311512884,,49116,0,0,0,61184,42528,0,0,0,0,158,1679,1998,1683,0,0,0,0,4095,4095,4095,4095
1500216231330524641,13,1500216231330379119,,49136,0,0,0,61184,42528,0,0,0,0,158,1657,2000,1682,0,0,0,0,4095,4095,4071,4095
1500216231350712782,14,1500216231350400621,,49156,0,0,0,61184,42528,0,0,0,0,158,1678,2001,1683,0,0,0,0,4095,4031,4095,4095
1500216231370555819,15,1500216231370324207,,49176,0,0,0,61184,42528,0,0,0,0,158,1678,2001,1683,0,0,0,0,4095,4095,4095,4095
1500216231391494039,16,1500216231391273996,,49196,0,0,0,61184,42528,0,0,0,0,158,1657,2002,1683,0,0,0,0,4095,4061,4095,4095
1500216231411659077,17,1500216231411315082,,49216,0,0,0,61184,42528,0,0,0,0,158,1657,2002,1680,0,0,0,0,4095,3996,4095,4095
1500216231431809549,18,1500216231431457631,,49236,0,0,0,61184,42528,0,0,0,0,158,1678,2002,1681,0,0,0,0,4095,4095,4095,4095
1500216231450823486,19,1500216231450455241,,49256,0,0,0,61184,42528,0,0,0,0,158,1678,1999,1682,0,0,0,0,4095,4095,4095,4095
1500216231470643901,20,1500216231470297852,,49276,0,0,0,61184,42528,0,0,0,0,158,1683,2011,1682,0,0,0,0,4095,4063,4095,4095
1500216231490834802,21,1500216231490487715,,49296,0,0,0,61184,42528,0,0,0,0,158,1683,2011,1682,0,0,0,0,4095,4095,4095,4095
1500216231511579902,22,1500216231511257879,,49316,0,0,0,61184,42528,0,0,0,0,158,1683,2001,1682,0,0,0,0,4095,4095,4095,4095
1500216231530634213,23,1500216231530302291,,49336,0,0,0,61184,42528,0,0,0,0,158,1679,2001,1680,0,0,0,0,4095,4095,4095,4095
1500216231550553636,24,1500216231550200776,,49356,0,0,0,61184,42528,0,0,0,0,158,1681,1999,1682,0,0,0,0,4095,4095,4095,4095
1500216231571925515,25,1500216231571278014,,49376,0,0,0,61184,42528,0,0,0,0,158,1681,1999,1682,0,0,0,0,4095,3998,4095,4095
1500216231590221698,26,1500216231590087160,,49396,0,0,0,61184,42528,0,0,0,0,158,1681,1999,1681,0,0,0,0,4095,4053,4095,4095
1500216231610550445,27,1500216231610240102,,49416,0,0,0,61184,42528,0,0,0,0,158,1681,1999,1681,0,0,0,0,4095,4095,4095,4095
1500216231631752594,28,1500216231631276259,,49436,0,0,0,61184,42528,0,0,0,0,158,1681,2003,1681,0,0,0,0,4095,4095,4072,4095
1500216231650541792,29,1500216231650171176,,49456,0,0,0,61184,42528,0,0,0,0,158,1681,2003,1681,0,0,0,0,4095,4011,4095,4095
1500216231670654597,30,1500216231670217563,,49476,0,0,0,61184,42528,0,0,0,0,158,1671,1999,1682,0,0,0,0,4095,3995,4095,4095
1500216231690202788,31,1500216231690022281,,49496,0,0,0,61184,42528,0,0,0,0,158,1678,1999,1682,0,0,0,0,4095,3923,4074,4095
1500216231710179026,32,1500216231710018425,,49516,0,0,0,61184,42528,0,0,0,0,158,1679,1999,1682,0,0,0,0,4095,4095,4095,4095
1500216231730680270,33,1500216231730274929,,49536,0,0,0,61184,42528,0,0,0,0,158,1679,1998,1681,0,0,0,0,4095,4095,4095,4095
1500216231750362165,34,1500216231750041840,,49556,0,0,0,61184,42528,0,0,0,0,158,1682,2002,1680,0,0,0,0,4095,4027,4095,4095
1500216231771447492,35,1500216231771095519,,49576,0,0,0,61184,42528,0,0,0,0,158,1682,2002,1681,0,0,0,0,4095,4095,4095,4095
1500216231790255427,36,1500216231790019231,,49596,0,0,0,61184,42528,0,0,0,0,158,1682,2002,1682,0,0,0,0,4095,4095,4095,4095
1500216231810282981,37,1500216231810017302,,49616,0,0,0,61184,42528,0,0,0,0,158,1678,2001,1682,0,0,0,0,4095,4095,4095,4095
1500216231830166590,38,1500216231829974944,,49636,0,0,0,61184,42528,0,0,0,0,158,1673,2001,1681,0,0,0,0,4095,4095,4095,4095
1500216231850357094,39,1500216231850020605,,49656,0,0,0,61184,42528,0,0,0,0,158,1673,1999,1680,0,0,0,0,4095,4095,4095,4095
1500216231870127285,40,1500216231869951314,,49676,0,0,0,61184,42528,0,0,0,0,158,1691,2000,1682,0,0,0,0,4095,4095,4095,4095
1500216231891276911,41,1500216231891011514,,49696,0,0,0,61184,42528,0,0,0,0,158,1691,2000,1682,0,0,0,0,4095,4095,4095,4095
1500216231910182871,42,1500216231909988291,,49716,0,0,0,61184,42528,0,0,0,0,158,1691,2000,1682,0,0,0,0,4095,4095,4095,4095
1500216231930151676,43,1500216231929919660,,49736,0,0,0,61184,42528,0,0,0,0,158,1676,2000,1682,0,0,0,0,4095,4095,4095,4095
1500216231950177549,44,1500216231949920631,,49756,0,0,0,61184,42528,0,0,0,0,158,1676,2001,1682,0,0,0,0,4095,4095,4095,4095
1500216231970102506,45,1500216231969894786,,49776,0,0,0,61184,42528,0,0,0,0,158,1680,2001,1681,0,0,0,0,4095,4095,4095,4095
1500216231990844016,46,1500216231990027266,,49796,0,0,0,61184,42528,0,0,0,0,158,1681,2001,1681,0,0,0,0,4095,4095,4095,4095
1500216232010231260,47,1500216232009933849,,49816,0,0,0,61184,42528,0,0,0,0,158,1681,2001,1680,0,0,0,0,4095,4095,4095,4095
1500216232030173174,48,1500216232029911907,,49836,0,0,0,61184,42528,0,0,0,0,158,1681,1999,1683,0,0,0,0,4095,4095,4095,4095
1500216232050210943,49,1500216232049886815,,49856,0,0,0,61184,42528,0,0,0,0,158,1681,1999,1683,0,0,0,0,4095,4095,4095,4095
1500216232070114753,50,1500216232069861437,,49876,0,0,0,61184,42528,0,0,0,0,158,1678,2000,1682,0,0,0,0,4095,4095,4095,4095
1500216232089856010,51,1500216232089252456,,49896,0,0,0,61184,42528,0,0,0,0,158,1678,2000,1682,0,0,0,0,4095,4095,4095,4095
1500216232109417118,52,1500216232108949952,,49916,0,0,0,61184,42528,0,0,0,0,158,1681,2002,1679,0,0,0,0,4095,4095,4095,4095
1500216232129491454,53,1500216232128938061,,49936,0,0,0,61184,42528,0,0,0,0,158,1681,2002,1679,0,0,0,0,4095,4095,4095,4095
1500216232150315794,54,1500216232149899035,,49956,0,0,0,61184,42528,0,0,0,0,158,1678,2001,1681,0,0,0,0,4095,4095,4095,4095
1500216232170275165,55,1500216232169873744,,49976,0,0,0,61184,42528,0,0,0,0,158,1678,2000,1681,0,0,0,0,4095,4095,4095,4095
1500216232190871616,56,1500216232190030021,,49996,0,0,0,61184,42528,0,0,0,0,158,1678,2000,1679,0,0,0,0,4095,4095,4095,4095
1500216232210261209,57,1500216232208883416,,50016,0,0,0,61184,42528,0,0,0,0,158,1680,2000,1679,0,0,0,0,4095,4095,4095,4095
1500216232229971063,58,1500216232229036344,,50036,0,0,0,61184,42528,0,0,0,0,158,1680,2000,1678,0,0,0,0,4095,4095,4095,4095
1500216232249719958,59,1500216232248997439,,50056,0,0,0,61184,42528,0,0,0,0,158,1678,1999,1679,0,0,0,0,4095,4095,4095,4095
1500216232270501994,60,1500216232269851301,,50076,0,0,0,61184,42528,0,0,0,0,158,1679,2001,1681,0,0,0,0,4095,4095,4095,4095
1500216232290597078,61,1500216232289998375,,50096,0,0,0,61184,42528,0,0,0,0,158,1681,2001,1681,0,0,0,0,4095,4095,4095,4095
1500216232309910206,62,1500216232308852849,,50116,0,0,0,61184,42528,0,0,0,0,158,1681,2001,1681,0,0,0,0,4095,4095,4095,4095
1500216232329100371,63,1500216232328830835,,50136,0,0,0,61184,42528,0,0,0,0,158,1681,1998,1682,0,0,0,0,4095,4095,4095,4095
1500216232349831920,64,1500216232348909930,,50156,0,0,0,61184,42528,0,0,0,0,158,1680,2001,1682,0,0,0,0,4095,4095,4095,4095
1500216232369781773,65,1500216232368798627,,50176,0,0,0,61184,42528,0,0,0,0,158,1681,2001,1682,0,0,0,0,4095,4095,4095,4095
1500216232390004683,66,1500216232388950884,,50196,0,0,0,61184,42528,0,0,0,0,158,1681,2001,1682,0,0,0,0,4095,4095,4095,4095
1500216232410359091,67,1500216232409895004,,50216,0,0,0,61184,42528,0,0,0,0,158,1681,2001,1682,0,0,0,0,4095,4095,4095,4095
1500216232429313746,68,1500216232428771764,,50236,0,0,0,61184,42528,0,0,0,0,158,1679,1999,1681,0,0,0,0,4095,4095,4095,4095
1500216232449294607,69,1500216232448796015,,50256,0,0,0,61184,42528,0,0,0,0,158,1679,2000,1681,0,0,0,0,4095,4095,4095,4095
1500216232469196505,70,1500216232468705957,,50276,0,0,0,61184,42528,0,0,0,0,158,1697,2000,1681,0,0,0,0,4095,4095,4095,4095
1500216232489294646,71,1500216232488823823,,50296,0,0,0,61184,42528,0,0,0,0,158,1697,2000,1681,0,0,0,0,4095,4095,4095,4095
1500216232509160050,72,1500216232508655259,,50316,0,0,0,61184,42528,0,0,0,0,158,1656,2001,1681,0,0,0,0,4095,4095,4095,4095
1500216232530107197,73,1500216232529721877,,50336,0,0,0,61184,42528,0,0,0,0,158,1686,2001,1681,0,0,0,0,4095,4095,4095,4095
1500216232549441670,74,1500216232548792470,,50356,0,0,0,61184,42528,0,0,0,0,158,1686,1999,1681,0,0,0,0,4095,4095,4095,4095
1500216232569076922,75,1500216232568684154,,50376,0,0,0,61184,42528,0,0,0,0,158,1675,1999,1681,0,0,0,0,4095,4095,4095,4095
1500216232589236089,76,1500216232588797020,,50396,0,0,0,61184,42528,0,0,0,0,158,1675,2000,1684,0,0,0,0,4095,4095,4095,4095
1500216232609071784,77,1500216232608655593,,50416,0,0,0,61184,42528,0,0,0,0,158,1685,2000,1684,0,0,0,0,4095,4095,4095,4095
1500216232629165004,78,1500216232628724236,,50436,0,0,0,61184,42528,0,0,0,0,158,1685,1999,1684,0,0,0,0,4095,4095,4095,4095
1500216232650971857,79,1500216232649822728,,50456,0,0,0,61184,42528,0,0,0,0,158,1679,2000,1681,0,0,0,0,4095,4095,4095,4095
1500216232669001551,80,1500216232668517382,,50476,0,0,0,61184,42528,0,0,0,0,158,1661,2000,1681,0,0,0,0,4095,4095,4095,4095
1500216232689132312,81,1500216232688680920,,50496,0,0,0,61184,42528,0,0,0,0,158,1676,2001,1681,0,0,0,0,4095,4095,4095,4095
1500216232709666195,82,1500216232708754985,,50516,0,0,0,61184,42528,0,0,0,0,158,1676,2001,1681,0,0,0,0,4095,4095,4095,4095
1500216232728992444,83,1500216232728517356,,50536,0,0,0,61184,42528,0,0,0,0,158,1679,2003,1681,0,0,0,0,4095,4095,4095,4095
1500216232748582989,84,1500216232748398342,,50556,0,0,0,61184,42528,0,0,0,0,158,1679,2003,1681,0,0,0,0,4095,4095,4095,4095
1500216232768540518,85,1500216232768368272,,50576,0,0,0,61184,42528,0,0,0,0,158,1675,2007,1681,0,0,0,0,4095,4095,4095,4095
1500216232788582461,86,1500216232788385681,,50596,0,0,0,61184,42528,0,0,0,0,158,1658,2007,1681,0,0,0,0,4095,4095,4095,4095
1500216232808782436,87,1500216232808453713,,50616,0,0,0,61184,42528,0,0,0,0,158,1678,2000,1682,0,0,0,0,4095,4095,4095,4095
1500216232828633556,88,1500216232828377998,,50636,0,0,0,61184,42528,0,0,0,0,158,1678,2001,1682,0,0,0,0,4095,4095,4095,4095
1500216232848230131,89,1500216232847586013,,50656,0,0,0,61184,42528,0,0,0,0,158,1681,2002,1681,0,0,0,0,4095,4095,4095,4095
1500216232868210375,90,1500216232867432959,,50676,0,0,0,61184,42528,0,0,0,0,158,1681,2002,1681,0,0,0,0,4095,4095,4095,4095
1500216232887941999,91,1500216232887557060,,50696,0,0,0,61184,42528,0,0,0,0,158,1681,2005,1682,0,0,0,0,4095,4095,4095,4095
1500216232909497542,92,1500216232908991162,,50716,0,0,0,61184,42528,0,0,0,0,158,1681,2005,1682,0,0,0,0,4095,4095,4095,4095
1500216232928564693,93,1500216232928365264,,50736,0,0,0,61184,42528,0,0,0,0,158,1682,2000,1680,0,0,0,0,4095,4095,4095,4095
1500216232948575622,94,1500216232948368819,,50756,0,0,0,61184,42528,0,0,0,0,158,1682,2001,1682,0,0,0,0,4095,4095,4095,4095
1500216232968408885,95,1500216232968209088,,50776,0,0,0,61184,42528,0,0,0,0,158,1679,2008,1682,0,0,0,0,4095,4095,4095,4095
1500216232987916398,96,1500216232987511348,,50796,0,0,0,61184,42528,0,0,0,0,158,1679,2008,1682,0,0,0,0,4095,4095,4095,4095
1500216233008454857,97,1500216233007536054,,50816,0,0,0,61184,42528,0,0,0,0,158,1679,2002,1682,0,0,0,0,4095,4095,4095,4095
1500216233027908620,98,1500216233027478626,,50836,0,0,0,61184,42528,0,0,0,0,158,1678,2002,1682,0,0,0,0,4095,4095,4095,4095
1500216233048861280,99,1500216233048497450,,50856,0,0,0,61184,42528,0,0,0,0,158,1677,2000,1681,0,0,0,0,4095,4095,4095,4095
1500216233068084435,100,1500216233067324079,,50876,0,0,0,61184,42528,0,0,0,0,158,1677,2001,1684,0,0,0,0,4095,4095,4095,4095
1500216233087864627,101,1500216233087460178,,50896,0,0,0,61184,42528,0,0,0,0,158,1675,2001,1684,0,0,0,0,4095,4095,4095,4095
1500216233107746564,102,1500216233107315488,,50916,0,0,0,61184,42528,0,0,0,0,158,1675,2002,1681,0,0,0,0,4095,4095,4095,4095
1500216233128473743,103,1500216233127362722,,50936,0,0,0,61184,42528,0,0,0,0,158,1677,2002,1681,0,0,0,0,4095,4095,4095,4095
1500216233147620897,104,1500216233147246378,,50956,0,0,0,61184,42528,0,0,0,0,158,1680,2000,1681,0,0,0,0,4095,4095,4095,4095
1500216233168696912,105,1500216233168291451,,50976,0,0,0,61184,42528,0,0,0,0,158,1680,2000,1682,0,0,0,0,4095,4095,4095,4095
1500216233187858807,106,1500216233187279844,,50996,0,0,0,61184,42528,0,0,0,0,158,1675,2000,1682,0,0,0,0,4095,4095,4095,4095
1500216233207668706,107,1500216233207254218,,51016,0,0,0,61184,42528,0,0,0,0,158,1681,2000,1681,0,0,0,0,4095,4095,4095,4095
1500216233227837898,108,1500216233227254355,,51036,0,0,0,61184,42528,0,0,0,0,158,1681,2000,1680,0,0,0,0,4095,4095,4095,4095
1500216233247550075,109,1500216233247256764,,51056,0,0,0,61184,42528,0,0,0,0,158,1689,2000,1680,0,0,0,0,4095,4095,4095,4095
1500216233267880786,110,1500216233267360118,,51076,0,0,0,61184,42528,0,0,0,0,158,1689,2000,1687,0,0,0,0,4095,4095,4095,4095
1500216233288697973,111,1500216233288265219,,51096,0,0,0,61184,42528,0,0,0,0,158,1678,2000,1687,0,0,0,0,4095,4095,4095,4095
1500216233307625656,112,1500216233307167423,,51116,0,0,0,61184,42528,0,0,0,0,158,1679,2000,1683,0,0,0,0,4095,4095,4095,4095
1500216233327609814,113,1500216233327212992,,51136,0,0,0,61184,42528,0,0,0,0,158,1679,2001,1683,0,0,0,0,4095,4095,4095,4095
1500216233348183559,114,1500216233347183629,,51156,0,0,0,61184,42528,0,0,0,0,158,1679,2001,1681,0,0,0,0,4095,4095,4095,4095
1500216233368065837,115,1500216233367159613,,51176,0,0,0,61184,42528,0,0,0,0,158,1679,2001,1680,0,0,0,0,4095,4095,4095,4095
1500216233388005352,116,1500216233387111542,,51196,0,0,0,61184,42528,0,0,0,0,158,1678,2001,1685,0,0,0,0,4095,4095,4095,4095
1500216233407603433,117,1500216233407107096,,51216,0,0,0,61184,42528,0,0,0,0,158,1678,2001,1685,0,0,0,0,4095,4095,4095,4095
1500216233428524225,118,1500216233428121895,,51236,0,0,0,61184,42528,0,0,0,0,158,1680,2000,1682,0,0,0,0,4095,4095,4095,4095
1500216233447705458,119,1500216233447188960,,51256,0,0,0,61184,42528,0,0,0,0,158,1680,1999,1682,0,0,0,0,4095,4095,4095,4095
1500216233467713175,120,1500216233467317677,,51276,0,0,0,61184,42528,0,0,0,0,158,1678,1999,1682,0,0,0,0,4095,4095,4095,4095
1500216233487668206,121,1500216233487168442,,51296,0,0,0,61184,42528,0,0,0,0,158,1678,2000,1682,0,0,0,0,4095,4095,4095,4095
1500216233507544014,122,1500216233507019793,,51316,0,0,0,61184,42528,0,0,0,0,158,1680,2001,1685,0,0,0,0,4095,4095,4095,4095
1500216233527581455,123,1500216233527136011,,51336,0,0,0,61184,42528,0,0,0,0,158,1680,2001,1685,0,0,0,0,4095,4095,4095,4095
1500216233547560506,124,1500216233547143237,,51356,0,0,0,61184,42528,0,0,0,0,158,1678,2001,1681,0,0,0,0,4095,4095,4095,4095
1500216233567690596,125,1500216233567036440,,51376,0,0,0,61184,42528,0,0,0,0,158,1690,2001,1681,0,0,0,0,4095,4095,4095,4095
1500216233587489231,126,1500216233586893194,,51396,0,0,0,61184,42528,0,0,0,0,158,1690,2000,1685,0,0,0,0,4095,4095,4095,4095
1500216233607501273,127,1500216233607075956,,51416,0,0,0,61184,42528,0,0,0,0,158,1690,2000,1685,0,0,0,0,4095,4095,4095,4095
1500216233626549469,128,1500216233626062565,,51436,0,0,0,61184,42528,0,0,0,0,158,1678,2000,1681,0,0,0,0,4095,4095,4095,4095
1500216233646487651,129,1500216233646036760,,51456,0,0,0,61184,42528,0,0,0,0,158,1677,1999,1681,0,0,0,0,4095,4095,4095,4095
1500216233668126752,130,1500216233667025974,,51476,0,0,0,61184,42528,0,0,0,0,158,1678,2000,1685,0,0,0,0,4095,4095,4095,4095
1500216233687761608,131,1500216233686843858,,51496,0,0,0,61184,42528,0,0,0,0,158,1680,2000,1685,0,0,0,0,4095,4095,4095,4095
1500216233707874368,132,1500216233707006519,,51516,0,0,0,61184,42528,0,0,0,0,158,1680,2000,1682,0,0,0,0,4095,4095,4095,4095
1500216233727935113,133,1500216233727051532,,51536,0,0,0,61184,42528,0,0,0,0,158,1679,1999,1682,0,0,0,0,4095,4095,4095,4095
1500216233747068667,134,1500216233745962526,,51556,0,0,0,61184,42528,0,0,0,0,158,1680,1999,1682,0,0,0,0,4095,4095,4095,4095
1500216233767409233,135,1500216233766038627,,51576,0,0,0,61184,42528,0,0,0,0,158,1680,1999,1682,0,0,0,0,4095,4095,4095,4095
1500216233786966144,136,1500216233785927505,,51596,0,0,0,61184,42528,0,0,0,0,158,1680,1998,1679,0,0,0,0,4095,4095,4095,4095
1500216233807310088,137,1500216233806936405,,51616,0,0,0,61184,42528,0,0,0,0,158,1679,1999,1681,0,0,0,0,4095,4095,4095,4095
1500216233827282715,138,1500216233826898251,,51636,0,0,0,61184,42528,0,0,0,0,158,1681,1999,1683,0,0,0,0,4095,4095,4095,4095
1500216233847253351,139,1500216233846807101,,51656,0,0,0,61184,42528,0,0,0,0,158,1681,2000,1683,0,0,0,0,4095,4095,4095,4095
1500216233866359286,140,1500216233865888343,,51676,0,0,0,61184,42528,0,0,0,0,158,1667,2002,1683,0,0,0,0,4095,4095,4095,4095
1500216233886220440,141,1500216233885854935,,51696,0,0,0,61184,42528,0,0,0,0,158,1677,2002,1683,0,0,0,0,4095,4095,4095,4095
1500216233906421564,142,1500216233905847267,,51716,0,0,0,61184,42528,0,0,0,0,158,1685,1999,1683,0,0,0,0,4095,4095,4095,4095
1500216233927280132,143,1500216233926851827,,51736,0,0,0,61184,42528,0,0,0,0,158,1685,2001,1682,0,0,0,0,4095,4095,4095,4095
1500216233946494862,144,1500216233945752468,,51756,0,0,0,61184,42528,0,0,0,0,158,1679,2001,1681,0,0,0,0,4095,4095,4095,4095
1500216233966248618,145,1500216233965790430,,51776,0,0,0,61184,42528,0,0,0,0,158,1679,1998,1679,0,0,0,0,4095,4095,4095,4095
1500216233986569885,146,1500216233985854317,,51796,0,0,0,61184,42528,0,0,0,0,158,1676,2000,1683,0,0,0,0,4095,4095,4095,4095
1500216234006697489,147,1500216234005940867,,51816,0,0,0,61184,42528,0,0,0,0,158,1676,2000,1683,0,0,0,0,4095,4095,4095,4095
1500216234026209958,148,1500216234025798327,,51836,0,0,0,61184,42528,0,0,0,0,158,1677,2000,1681,0,0,0,0,4095,4095,4095,4095
1500216234046270868,149,1500216234045677848,,51856,0,0,0,61184,42528,0,0,0,0,158,1678,2000,1680,0,0,0,0,4095,4095,4095,4095
1500216234067834380,150,1500216234067031089,,51876,0,0,0,61184,42528,0,0,0,0,158,1680,1998,1685,0,0,0,0,4095,4095,4095,4095
1500216234086639223,151,1500216234085788814,,51896,0,0,0,61184,42528,0,0,0,0,158,1680,1998,1685,0,0,0,0,4095,4095,4095,4095
1500216234105811837,152,1500216234105547981,,51916,0,0,0,61184,42528,0,0,0,0,158,1676,2001,1682,0,0,0,0,4095,4095,4095,4095
1500216234125822939,153,1500216234125503490,,51936,0,0,0,61184,42528,0,0,0,0,158,1672,2001,1681,0,0,0,0,4095,4095,4095,4095
1500216234145870537,154,1500216234145463300,,51956,0,0,0,61184,42528,0,0,0,0,158,1673,1998,1680,0,0,0,0,4095,4095,4095,4095
1500216234166077735,155,1500216234165476827,,51976,0,0,0,61184,42528,0,0,0,0,158,1678,2001,1681,0,0,0,0,4095,4095,4095,4095
1500216234187523043,156,1500216234186520487,,51996,0,0,0,61184,42528,0,0,0,0,158,1678,2001,1681,0,0,0,0,4095,4095,4095,4095
1500216234206293613,157,1500216234205576652,,52016,0,0,0,61184,42528,0,0,0,0,158,1678,2001,1679,0,0,0,0,4095,4095,4095,4095
1500216234225915073,158,1500216234225478044,,52036,0,0,0,61184,42528,0,0,0,0,158,1678,2002,1680,0,0,0,0,4095,4095,4095,4095
1500216234246445784,159,1500216234245492707,,52056,0,0,0,61184,42528,0,0,0,0,158,1676,2002,1681,0,0,0,0,4095,4095,4095,4095
1500216234266185632,160,1500216234265513625,,52076,0,0,0,61184,42528,0,0,0,0,158,1655,2004,1681,0,0,0,0,4095,4095,4095,4095
1500216234286585581,161,1500216234285519373,,52096,0,0,0,61184,42528,0,0,0,0,158,1678,2004,1680,0,0,0,0,4095,4095,4095,4095
1500216234305839277,162,1500216234305486737,,52116,0,0,0,61184,42528,0,0,0,0,158,1681,2000,1681,0,0,0,0,4095,4095,4095,4095
1500216234325970018,163,1500216234325567263,,52136,0,0,0,61184,42528,0,0,0,0,158,1681,1999,1681,0,0,0,0,4095,4095,4095,4095
1500216234346778566,164,1500216234345714292,,52156,0,0,0,61184,42528,0,0,0,0,158,1680,1999,1680,0,0,0,0,4095,4095,4095,4095
1500216234366116711,165,1500216234365452858,,52176,0,0,0,61184,42528,0,0,0,0,158,1685,1999,1680,0,0,0,0,4095,4095,4095,4095
1500216234386569422,166,1500216234385480752,,52196,0,0,0,61184,42528,0,0,0,0,158,1685,2002,1680,0,0,0,0,4095,4095,4095,4095
1500216234404801197,167,1500216234404426707,,52216,0,0,0,61184,42528,0,0,0,0,158,1681,2002,1680,0,0,0,0,4095,4095,4095,4095
1500216234424785450,168,1500216234424375368,,52236,0,0,0,61184,42528,0,0,0,0,158,1681,2002,1684,0,0,0,0,4095,4095,4095,4095
1500216234446797052,169,1500216234445495385,,52256,0,0,0,61184,42528,0,0,0,0,158,1681,2002,1684,0,0,0,0,4095,4095,4095,4095
1500216234466983442,170,1500216234465526010,,52276,0,0,0,61184,42528,0,0,0,0,158,1679,2002,1681,0,0,0,0,4095,4095,4095,4095
1500216234486388176,171,1500216234485454660,,52296,0,0,0,61184,42528,0,0,0,0,158,1677,2001,1681,0,0,0,0,4095,4095,4095,4095
1500216234505096447,172,1500216234504430574,,52316,0,0,0,61184,42528,0,0,0,0,158,1677,2001,1685,0,0,0,0,4095,4095,4095,4095
1500216234524794199,173,1500216234524332066,,52336,0,0,0,61184,42528,0,0,0,0,158,1665,2001,1685,0,0,0,0,4095,4095,4095,4095
1500216234545498641,174,1500216234544444480,,52356,0,0,0,61184,42528,0,0,0,0,158,1678,1999,1682,0,0,0,0,4095,4095,4095,4095
1500216234565950584,175,1500216234565328577,,52376,0,0,0,61184,42528,0,0,0,0,158,1678,2000,1682,0,0,0,0,4095,4095,4095,4095
1500216234585890455,176,1500216234585468019,,52396,0,0,0,61184,42528,0,0,0,0,158,1684,2000,1682,0,0,0,0,4095,4095,4095,4095
1500216234605674516,177,1500216234605313417,,52416,0,0,0,61184,42528,0,0,0,0,158,1684,2001,1682,0,0,0,0,4095,4095,4095,4095
1500216234625687089,178,1500216234625308565,,52436,0,0,0,61184,42528,0,0,0,0,158,1679,2001,1680,0,0,0,0,4095,4095,4095,4095
1500216234644603471,179,1500216234644222416,,52456,0,0,0,61184,42528,0,0,0,0,158,1678,2001,1682,0,0,0,0,4095,4095,4095,4095
1500216234664900401,180,1500216234664317735,,52476,0,0,0,61184,42528,0,0,0,0,158,1678,2001,1682,0,0,0,0,4095,4095,4095,4095
1500216234686348722,181,1500216234685374175,,52496,0,0,0,61184,42528,0,0,0,0,158,1676,2001,1681,0,0,0,0,4095,4095,4095,4095
1500216234704233276,182,1500216234704061616,,52516,0,0,0,61184,42528,0,0,0,0,158,1678,1999,1682,0,0,0,0,4095,4095,4095,4095
1500216234724294375,183,1500216234724105459,,52536,0,0,0,61184,42528,0,0,0,0,158,1681,2003,1682,0,0,0,0,4095,4095,4095,4095
1500216234744908013,184,1500216234744156832,,52556,0,0,0,61184,42528,0,0,0,0,158,1681,2003,1681,0,0,0,0,4095,4095,4095,4095
1500216234765107368,185,1500216234764264746,,52576,0,0,0,61184,42528,0,0,0,0,158,1678,2003,1681,0,0,0,0,4095,4095,4095,4095
1500216234784559231,186,1500216234784137858,,52596,0,0,0,61184,42528,0,0,0,0,158,1684,2001,1682,0,0,0,0,4095,4095,4095,4095
1500216234805048686,187,1500216234804179804,,52616,0,0,0,61184,42528,0,0,0,0,158,1684,2001,1682,0,0,0,0,4095,4095,4095,4095
1500216234826219120,188,1500216234825336882,,52636,0,0,0,61184,42528,0,0,0,0,158,1678,2001,1681,0,0,0,0,4095,4095,4095,4095
1500216234844963213,189,1500216234844211006,,52656,0,0,0,61184,42528,0,0,0,0,158,1678,2001,1680,0,0,0,0,4095,4095,4095,4095
1500216234864495047,190,1500216234864090402,,52676,0,0,0,61184,42528,0,0,0,0,158,1680,2000,1682,0,0,0,0,4095,4095,4095,4095
1500216234884458126,191,1500216234884054514,,52696,0,0,0,61184,42528,0,0,0,0,158,1680,2000,1682,0,0,0,0,4095,4095,4095,4095
1500216234904547116,192,1500216234904070335,,52716,0,0,0,61184,42528,0,0,0,0,158,1679,2000,1682,0,0,0,0,4095,4095,4095,4095
1500216234924856751,193,1500216234924120480,,52736,0,0,0,61184,42528,0,0,0,0,158,1684,2001,1682,0,0,0,0,4095,4095,4095,4095
1500216234945576839,194,1500216234945144119,,52756,0,0,0,61184,42528,0,0,0,0,158,1684,2001,1684,0,0,0,0,4095,4095,4095,4095
1500216234964917190,195,1500216234964040470,,52776,0,0,0,61184,42528,0,0,0,0,158,1677,1999,1684,0,0,0,0,4095,4095,4095,4095
1500216234984664812,196,1500216234984140986,,52796,0,0,0,61184,42528,0,0,0,0,158,1677,2001,1681,0,0,0,0,4095,4095,4095,4095
1500216235004895309,197,1500216235004019666,,52816,0,0,0,61184,42528,0,0,0,0,158,1677,2001,1681,0,0,0,0,4095,4095,4095,4095
1500216235024139982,198,1500216235023907485,,52836,0,0,0,61184,42528,0,0,0,0,158,1681,2000,1681,0,0,0,0,4095,4095,4095,4095
1500216235043992891,199,1500216235043838186,,52856,0,0,0,61184,42528,0,0,0,0,158,1681,2000,1681,0,0,0,0,4095,4095,4095,4095
1500216235064398856,200,1500216235063986724,,52876,0,0,0,61184,42528,0,0,0,0,158,1679,2000,1680,0,0,0,0,4095,4095,4095,4095
1500216235084377531,201,1500216235083993785,,52896,0,0,0,61184,42528,0,0,0,0,158,1679,2001,1681,0,0,0,0,4095,4095,4095,4095
1500216235104403406,202,1500216235104021759,,52916,0,0,0,61184,42528,0,0,0,0,158,1679,2001,1681,0,0,0,0,4095,4095,4095,4095
1500216235124303945,203,1500216235123932833,,52936,0,0,0,61184,42528,0,0,0,0,158,1678,1998,1679,0,0,0,0,4095,4095,4095,4095
1500216235144775950,204,1500216235143897206,,52956,0,0,0,61184,42528,0,0,0,0,158,1675,1998,1680,0,0,0,0,4095,4095,4095,4095
1500216235164338419,205,1500216235163891246,,52976,0,0,0,61184,42528,0,0,0,0,158,1672,2001,1680,0,0,0,0,4095,4095,4095,4095
1500216235183703983,206,1500216235183182479,,52996,0,0,0,61184,42528,0,0,0,0,158,1678,2001,1682,0,0,0,0,4095,4095,4095,4095
1500216235204830260,207,1500216235203948157,,53016,0,0,0,61184,42528,0,0,0,0,158,1680,2001,1682,0,0,0,0,4095,4095,4095,4095
1500216235224589273,208,1500216235223993762,,53036,0,0,0,61184,42528,0,0,0,0,158,1680,1999,1682,0,0,0,0,4095,4095,4095,4095
1500216235244532140,209,1500216235243864749,,53056,0,0,0,61184,42528,0,0,0,0,158,1678,1999,1682,0,0,0,0,4095,4095,4095,4095
1500216235263169833,210,1500216235262822506,,53076,0,0,0,61184,42528,0,0,0,0,158,1686,1999,1681,0,0,0,0,4095,4095,4095,4095
1500216235283079308,211,1500216235282689942,,53096,0,0,0,61184,42528,0,0,0,0,158,1686,1999,1681,0,0,0,0,4095,4095,4095,4095
1500216235302905769,212,1500216235302671249,,53116,0,0,0,61184,42528,0,0,0,0,158,1681,2000,1681,0,0,0,0,4095,4095,4095,4095
1500216235323834852,213,1500216235323687262,,53136,0,0,0,61184,42528,0,0,0,0,158,1681,2000,1681,0,0,0,0,4095,4095,4095,4095
1500216235343793953,214,1500216235343644800,,53156,0,0,0,61184,42528,0,0,0,0,158,1679,1999,1698,0,0,0,0,4095,4095,4095,4095
1500216235364156828,215,1500216235363714159,,53176,0,0,0,61184,42528,0,0,0,0,158,1680,2002,1698,0,0,0,0,4095,4095,4095,4095
1500216235384644377,216,1500216235383785689,,53196,0,0,0,61184,42528,0,0,0,0,158,1680,2002,1684,0,0,0,0,4095,4095,4095,4095
1500216235403080399,217,1500216235402687441,,53216,0,0,0,61184,42528,0,0,0,0,158,1657,2000,1685,0,0,0,0,4095,4095,4095,4095
1500216235423087395,218,1500216235422669770,,53236,0,0,0,61184,42528,0,0,0,0,158,1686,2000,1685,0,0,0,0,4095,4095,4095,4095
1500216235443332571,219,1500216235442883283,,53256,0,0,0,61184,42528,0,0,0,0,158,1686,2000,1685,0,0,0,0,4095,4095,4095,4095
1500216235464348718,220,1500216235463707772,,53276,0,0,0,61184,42528,0,0,0,0,158,1681,1999,1687,0,0,0,0,4095,4095,4095,4095
1500216235483367531,221,1500216235482794898,,53296,0,0,0,61184,42528,0,0,0,0,158,1681,2002,1687,0,0,0,0,4095,4095,4095,4095
1500216235503475440,222,1500216235502680824,,53316,0,0,0,61184,42528,0,0,0,0,158,1679,2002,1687,0,0,0,0,4095,4095,4095,4095
1500216235523265895,223,1500216235522688958,,53336,0,0,0,61184,42528,0,0,0,0,158,1678,2000,1682,0,0,0,0,4095,4095,4095,4095
1500216235543058220,224,1500216235542668776,,53356,0,0,0,61184,42528,0,0,0,0,158,1682,2002,1683,0,0,0,0,4095,4095,4095,4095
1500216235563444487,225,1500216235562867043,,53376,0,0,0,61184,42528,0,0,0,0,158,1682,2002,1683,0,0,0,0,4095,4095,4095,4095
1500216235584121436,226,1500216235583719577,,53396,0,0,0,61184,42528,0,0,0,0,158,1682,2001,1681,0,0,0,0,4095,4095,4095,4095
1500216235603251451,227,1500216235602644208,,53416,0,0,0,61184,42528,0,0,0,0,158,1679,2000,1683,0,0,0,0,4095,4095,4095,4095
1500216235623719326,228,1500216235622650201,,53436,0,0,0,61184,42528,0,0,0,0,158,1674,2000,1683,0,0,0,0,4095,4095,4095,4095
1500216235642879852,229,1500216235642529874,,53456,0,0,0,61184,42528,0,0,0,0,158,1654,2004,1683,0,0,0,0,4095,4095,4095,4095
1500216235662917561,230,1500216235662563559,,53476,0,0,0,61184,42528,0,0,0,0,158,1680,2004,1681,0,0,0,0,4095,4095,4095,4095
1500216235682844169,231,1500216235682527369,,53496,0,0,0,61184,42528,0,0,0,0,158,1681,1999,1681,0,0,0,0,4095,4095,4095,4095
1500216235703471943,232,1500216235702635627,,53516,0,0,0,61184,42528,0,0,0,0,158,1681,1999,1681,0,0,0,0,4095,4095,4095,4095
1500216235724596009,233,1500216235723574136,,53536,0,0,0,61184,42528,0,0,0,0,158,1677,2000,1681,0,0,0,0,4095,4095,4095,4095
1500216235742835350,234,1500216235742487731,,53556,0,0,0,61184,42528,0,0,0,0,158,1674,2000,1681,0,0,0,0,4095,4095,4095,4095
1500216235762813585,235,1500216235762472892,,53576,0,0,0,61184,42528,0,0,0,0,158,1681,2003,1679,0,0,0,0,4095,4095,4095,4095
1500216235783166481,236,1500216235782554543,,53596,0,0,0,61184,42528,0,0,0,0,158,1681,2003,1682,0,0,0,0,4095,4095,4095,4095
1500216235803716597,237,1500216235803158673,,53616,0,0,0,61184,42528,0,0,0,0,158,1679,2000,1682,0,0,0,0,4095,4095,4095,4095
1500216235823198790,238,1500216235822508400,,53636,0,0,0,61184,42528,0,0,0,0,158,1683,2000,1682,0,0,0,0,4095,4095,4095,4095
1500216235844313966,239,1500216235843572247,,53656,0,0,0,61184,42528,0,0,0,0,158,1683,2000,1682,0,0,0,0,4095,4095,4095,4095
1500216235863040343,240,1500216235862602031,,53676,0,0,0,61184,42528,0,0,0,0,158,1679,2001,1682,0,0,0,0,4095,4095,4095,4095
1500216235882907712,241,1500216235882436027,,53696,0,0,0,61184,42528,0,0,0,0,158,1683,2001,1682,0,0,0,0,4095,4095,4095,4095
1500216235902505541,242,1500216235902289595,,53716,0,0,0,61184,42528,0,0,0,0,158,1683,1998,1680,0,0,0,0,4095,4095,4095,4095
1500216235922988858,243,1500216235922465920,,53736,0,0,0,61184,42528,0,0,0,0,158,1669,1999,1680,0,0,0,0,4095,4095,4095,4095
1500216235943036303,244,1500216235942442105,,53756,0,0,0,61184,42528,0,0,0,0,158,1658,2000,1681,0,0,0,0,4095,4095,4095,4095
1500216235962966316,245,1500216235962452684,,53776,0,0,0,61184,42528,0,0,0,0,158,1658,2000,1681,0,0,0,0,4095,4095,4095,4095
1500216235983404147,246,1500216235982357338,,53796,0,0,0,61184,42528,0,0,0,0,158,1691,2000,1682,0,0,0,0,4095,4095,4095,4095
1500216236002830165,247,1500216236002366720,,53816,0,0,0,61184,42528,0,0,0,0,158,1691,1999,1682,0,0,0,0,4095,4095,4095,4095
1500216236022748296,248,1500216236022354576,,53836,0,0,0,61184,42528,0,0,0,0,158,1691,2000,1682,0,0,0,0,4095,4095,4095,4095
1500216236042219810,249,1500216236041574404,,53856,0,0,0,61184,42528,0,0,0,0,158,1681,2000,1682,0,0,0,0,4095,4095,4095,4095
1500216236062138973,250,1500216236061560466,,53876,0,0,0,61184,42528,0,0,0,0,158,1677,1999,1681,0,0,0,0,4095,4095,4095,4095
1500216236082036646,251,1500216236081386294,,53896,0,0,0,61184,42528,0,0,0,0,158,1675,2003,1681,0,0,0,0,4095,4095,4095,4095
1500216236102828435,252,1500216236102298530,,53916,0,0,0,61184,42528,0,0,0,0,158,1678,2003,1680,0,0,0,0,4095,4095,4095,4095
1500216236123461276,253,1500216236122362207,,53936,0,0,0,61184,42528,0,0,0,0,158,1678,2000,1682,0,0,0,0,4095,4095,4095,4095
1500216236143063943,254,1500216236142380745,,53956,0,0,0,61184,42528,0,0,0,0,158,1678,2000,1685,0,0,0,0,4095,4095,4095,4095
1500216236162623620,255,1500216236161289709,,53976,0,0,0,61184,42528,0,0,0,0,158,1683,2002,1685,0,0,0,0,4095,4095,4095,4095
1500216236181838020,256,1500216236181333650,,53996,0,0,0,61184,42528,0,0,0,0,158,1683,2002,1681,0,0,0,0,4095,4095,4095,4095
1500216236201617425,257,1500216236201291137,,54016,0,0,0,61184,42528,0,0,0,0,158,1681,2001,1680,0,0,0,0,4095,4095,4095,4095
1500216236222787748,258,1500216236222233709,,54036,0,0,0,61184,42528,0,0,0,0,158,1681,2001,1680,0,0,0,0,4095,4095,4095,4095
1500216236242758295,259,1500216236242204185,,54056,0,0,0,61184,42528,0,0,0,0,158,1681,1999,1682,0,0,0,0,4095,4095,4095,4095
1500216236261609060,260,1500216236261223279,,54076,0,0,0,61184,42528,0,0,0,0,158,1681,1999,1682,0,0,0,0,4095,4095,4095,4095
1500216236281742738,261,1500216236281279674,,54096,0,0,0,61184,42528,0,0,0,0,158,1677,2001,1682,0,0,0,0,4095,4095,4095,4095
1500216236302140672,262,1500216236301428452,,54116,0,0,0,61184,42528,0,0,0,0,158,1676,2001,1684,0,0,0,0,4095,4095,4095,4095
1500216236322227107,263,1500216236321433789,,54136,0,0,0,61184,42528,0,0,0,0,158,1678,1999,1684,0,0,0,0,4095,4095,4095,4095
1500216236342986636,264,1500216236342141062,,54156,0,0,0,61184,42528,0,0,0,0,158,1678,2000,1682,0,0,0,0,4095,4095,4095,4095
1500216236361884650,265,1500216236361312162,,54176,0,0,0,61184,42528,0,0,0,0,158,1678,2001,1681,0,0,0,0,4095,4095,4095,4095
1500216236382009107,266,1500216236381261966,,54196,0,0,0,61184,42528,0,0,0,0,158,1679,2001,1681,0,0,0,0,4095,4095,4095,4095
1500216236401646805,267,1500216236401105093,,54216,0,0,0,61184,42528,0,0,0,0,158,1679,2001,1681,0,0,0,0,4095,4095,4095,4095
1500216236421918437,268,1500216236421321703,,54236,0,0,0,61184,42528,0,0,0,0,158,1678,2001,1681,0,0,0,0,4095,4095,4095,4095
1500216236442391509,269,1500216236441263278,,54256,0,0,0,61184,42528,0,0,0,0,158,1678,1999,1681,0,0,0,0,4095,4095,4095,4095
1500216236461980560,270,1500216236461039461,,54276,0,0,0,61184,42528,0,0,0,0,158,1674,1998,1680,0,0,0,0,4095,4095,4095,4095
1500216236483465469,271,1500216236482765422,,54296,0,0,0,61184,42528,0,0,0,0,158,1677,1999,1680,0,0,0,0,4095,4095,4095,4095
1500216236501230652,272,1500216236500938795,,54316,0,0,0,61184,42528,0,0,0,0,158,1677,1999,1678,0,0,0,0,4095,4095,4095,4095
1500216236521704200,273,1500216236520914721,,54336,0,0,0,61184,42528,0,0,0,0,158,1681,1999,1681,0,0,0,0,4095,4095,4095,4095
1500216236541709848,274,1500216236541108624,,54356,0,0,0,61184,42528,0,0,0,0,158,1681,1999,1681,0,0,0,0,4095,4095,4095,4095
1500216236561392244,275,1500216236561013704,,54376,0,0,0,61184,42528,0,0,0,0,158,1676,1999,1681,0,0,0,0,4095,4095,4095,4095
1500216236581509250,276,1500216236581012662,,54396,0,0,0,61184,42528,0,0,0,0,158,1680,2000,1681,0,0,0,0,4095,4095,4095,4095
1500216236602336710,277,1500216236601852364,,54416,0,0,0,61184,42528,0,0,0,0,158,1680,2000,1677,0,0,0,0,4095,4095,4095,4095
1500216236621083800,278,1500216236620847227,,54436,0,0,0,61184,42528,0,0,0,0,158,1678,2001,1680,0,0,0,0,4095,4095,4095,4095
1500216236641745929,279,1500216236641013332,,54456,0,0,0,61184,42528,0,0,0,0,158,1678,2001,1680,0,0,0,0,4095,4095,4095,4095
1500216236661430119,280,1500216236660948036,,54476,0,0,0,61184,42528,0,0,0,0,158,1678,2000,1680,0,0,0,0,4095,4095,4095,4095
1500216236681492984,281,1500216236680929407,,54496,0,0,0,61184,42528,0,0,0,0,158,1677,1999,1680,0,0,0,0,4095,4095,4095,4095
1500216236701409556,282,1500216236700895063,,54516,0,0,0,61184,42528,0,0,0,0,158,1678,1999,1680,0,0,0,0,4095,4095,4095,4095
1500216236721448847,283,1500216236720940893,,54536,0,0,0,61184,42528,0,0,0,0,158,1682,2000,1680,0,0,0,0,4095,4095,4095,4095
1500216236741816014,284,1500216236740904724,,54556,0,0,0,61184,42528,0,0,0,0,158,1682,2000,1681,0,0,0,0,4095,4095,4095,4095
1500216236761239723,285,1500216236760850614,,54576,0,0,0,61184,42528,0,0,0,0,158,1686,1999,1682,0,0,0,0,4095,4095,4095,4095
1500216236781165698,286,1500216236780821767,,54596,0,0,0,61184,42528,0,0,0,0,158,1686,1999,1682,0,0,0,0,4095,4095,4095,4095
1500216236800500374,287,1500216236799865132,,54616,0,0,0,61184,42528,0,0,0,0,158,1686,1999,1682,0,0,0,0,4095,4095,4095,4095
1500216236820307868,288,1500216236819895692,,54636,0,0,0,61184,42528,0,0,0,0,158,1678,2002,1682,0,0,0,0,4095,4095,4095,4095
1500216236840465774,289,1500216236839922353,,54656,0,0,0,61184,42528,0,0,0,0,158,1679,2002,1681,0,0,0,0,4095,4095,4095,4095
1500216236861360916,290,1500216236860814353,,54676,0,0,0,61184,42528,0,0,0,0,158,1680,2002,1682,0,0,0,0,4095,4095,4095,4095
1500216236881753803,291,1500216236880812333,,54696,0,0,0,61184,42528,0,0,0,0,158,1680,2001,1682,0,0,0,0,4095,4095,4095,4095
1500216236901408059,292,1500216236900899755,,54716,0,0,0,61184,42528,0,0,0,0,158,1680,2001,1680,0,0,0,0,4095,4095,4095,4095
1500216236921016539,293,1500216236920099862,,54736,0,0,0,61184,42528,0,0,0,0,158,1678,2001,1681,0,0,0,0,4095,4095,4095,4095
1500216236940114195,294,1500216236939752800,,54756,0,0,0,61184,42528,0,0,0,0,158,1678,2001,1681,0,0,0,0,4095,4095,4095,4095
1500216236960585688,295,1500216236959824921,,54776,0,0,0,61184,42528,0,0,0,0,158,1678,2000,1681,0,0,0,0,4095,4095,4095,4095
1500216236981082937,296,1500216236980715338,,54796,0,0,0,61184,42528,0,0,0,0,158,1674,2003,1681,0,0,0,0,4095,4095,4095,4095
1500216237000068688,297,1500216236999675200,,54816,0,0,0,61184,42528,0,0,0,0,158,1679,2003,1680,0,0,0,0,4095,4095,4095,4095
1500216237020085402,298,1500216237019705244,,54836,0,0,0,61184,42528,0,0,0,0,158,1679,2003,1680,0,0,0,0,4095,4095,4095,4095
1500216237040265788,299,1500216237039833144,,54856,0,0,0,61184,42528,0,0,0,0,158,1679,2001,1682,0,0,0,0,4095,4095,4095,4095
1500216237060108625,300,1500216237059710485,,54876,0,0,0,61184,42528,0,0,0,0,158,1683,2000,1682,0,0,0,0,4095,4095,4095,4095
1500216237080100588,301,1500216237079663659,,54896,0,0,0,61184,42528,0,0,0,0,158,1683,2000,1681,0,0,0,0,4095,4095,4095,4095
1500216237099795490,302,1500216237099569379,,54916,0,0,0,61184,42528,0,0,0,0,158,1678,2004,1680,0,0,0,0,4095,4095,4095,4095
1500216237120994535,303,1500216237120646225,,54936,0,0,0,61184,42528,0,0,0,0,158,1678,2004,1683,0,0,0,0,4095,4095,4095,4095
1500216237140074695,304,1500216237139625562,,54956,0,0,0,61184,42528,0,0,0,0,158,1675,2004,1683,0,0,0,0,4095,4095,4095,4095
1500216237160222526,305,1500216237159805277,,54976,0,0,0,61184,42528,0,0,0,0,158,1680,1998,1683,0,0,0,0,4095,4095,4095,4095
1500216237180220967,306,1500216237179692441,,54996,0,0,0,61184,42528,0,0,0,0,158,1680,2001,1682,0,0,0,0,4095,4095,4095,4095
1500216237200207531,307,1500216237199650875,,55016,0,0,0,61184,42528,0,0,0,0,158,1680,2001,1681,0,0,0,0,4095,4095,4095,4095
1500216237220125516,308,1500216237219651481,,55036,0,0,0,61184,42528,0,0,0,0,158,1678,2000,1680,0,0,0,0,4095,4095,4095,4095
1500216237240889751,309,1500216237240540740,,55056,0,0,0,61184,42528,0,0,0,0,158,1678,2001,1686,0,0,0,0,4095,4095,4095,4095
1500216237259924892,310,1500216237259546673,,55076,0,0,0,61184,42528,0,0,0,0,158,1681,2001,1686,0,0,0,0,4095,4095,4095,4095
1500216237280140389,311,1500216237279619766,,55096,0,0,0,61184,42528,0,0,0,0,158,1681,2000,1684,0,0,0,0,4095,4095,4095,4095
1500216237300405912,312,1500216237299600386,,55116,0,0,0,61184,42528,0,0,0,0,158,1681,2000,1684,0,0,0,0,4095,4095,4095,4095
1500216237320874509,313,1500216237319570001,,55136,0,0,0,61184,42528,0,0,0,0,158,1678,2000,1684,0,0,0,0,4095,4095,4095,4095
1500216237339825365,314,1500216237339458197,,55156,0,0,0,61184,42528,0,0,0,0,158,1679,1998,1682,0,0,0,0,4095,4095,4095,4095
1500216237361372614,315,1500216237360495498,,55176,0,0,0,61184,42528,0,0,0,0,158,1698,1999,1685,0,0,0,0,4095,4095,4095,4095
1500216237379862520,316,1500216237379405099,,55196,0,0,0,61184,42528,0,0,0,0,158,1698,1999,1685,0,0,0,0,4095,4095,4095,4095
1500216237400313146,317,1500216237399581356,,55216,0,0,0,61184,42528,0,0,0,0,158,1685,1999,1679,0,0,0,0,4095,4095,4095,4095
1500216237420015358,318,1500216237419448949,,55236,0,0,0,61184,42528,0,0,0,0,158,1685,2001,1684,0,0,0,0,4095,4095,4095,4095
1500216237439957313,319,1500216237439426918,,55256,0,0,0,61184,42528,0,0,0,0,158,1685,2001,1684,0,0,0,0,4095,4095,4095,4095
1500216237459805833,320,1500216237459421185,,55276,0,0,0,61184,42528,0,0,0,0,158,1700,2001,1685,0,0,0,0,4095,4095,4095,4095
1500216237479742236,321,1500216237479396482,,55296,0,0,0,61184,42528,0,0,0,0,158,1700,2001,1685,0,0,0,0,4095,4095,4095,4095
1500216237499953143,322,1500216237499415320,,55316,0,0,0,61184,42528,0,0,0,0,158,1680,2000,1682,0,0,0,0,4095,4095,4095,4095
1500216237519910093,323,1500216237519532210,,55336,0,0,0,61184,42528,0,0,0,0,158,1678,1999,1682,0,0,0,0,4095,4095,4095,4095
1500216237539738977,324,1500216237539368266,,55356,0,0,0,61184,42528,0,0,0,0,158,1678,1998,1681,0,0,0,0,4095,4095,4095,4095
1500216237558912312,325,1500216237558367023,,55376,0,0,0,61184,42528,0,0,0,0,158,1678,1999,1680,0,0,0,0,4095,4095,4095,4095
1500216237578690364,326,1500216237578336467,,55396,0,0,0,61184,42528,0,0,0,0,158,1678,1999,1682,0,0,0,0,4095,4095,4095,4095
1500216237598669170,327,1500216237598314601,,55416,0,0,0,61184,42528,0,0,0,0,158,1677,1999,1682,0,0,0,0,4095,4095,4095,4095
1500216237619570416,328,1500216237619258792,,55436,0,0,0,61184,42528,0,0,0,0,158,1677,1999,1681,0,0,0,0,4095,4095,4095,4095
1500216237639823756,329,1500216237639425366,,55456,0,0,0,61184,42528,0,0,0,0,158,1676,1999,1681,0,0,0,0,4095,4095,4095,4095
1500216237659626270,330,1500216237659261016,,55476,0,0,0,61184,42528,0,0,0,0,158,1676,1999,1681,0,0,0,0,4095,4095,4095,4095
1500216237679781092,331,1500216237679200235,,55496,0,0,0,61184,42528,0,0,0,0,158,1676,1999,1681,0,0,0,0,4095,4095,4095,4095
1500216237698667314,332,1500216237698286875,,55516,0,0,0,61184,42528,0,0,0,0,158,1655,1999,1681,0,0,0,0,4095,4095,4095,4095
1500216237718632588,333,1500216237718245374,,55536,0,0,0,61184,42528,0,0,0,0,158,1655,1999,1682,0,0,0,0,4095,4095,4095,4095
1500216237738358127,334,1500216237738124001,,55556,0,0,0,61184,42528,0,0,0,0,158,1656,1999,1682,0,0,0,0,4095,4095,4095,4095
1500216237759431664,335,1500216237759164300,,55576,0,0,0,61184,42528,0,0,0,0,158,1677,1999,1682,0,0,0,0,4095,4095,4095,4095
1500216237778282586,336,1500216237778065430,,55596,0,0,0,61184,42528,0,0,0,0,158,1680,2001,1681,0,0,0,0,4095,4095,4095,4095
1500216237798505013,337,1500216237798094364,,55616,0,0,0,61184,42528,0,0,0,0,158,1681,2001,1680,0,0,0,0,4095,4095,4095,4095
1500216237818493186,338,1500216237818119556,,55636,0,0,0,61184,42528,0,0,0,0,158,1681,2000,1680,0,0,0,0,4095,4095,4095,4095
1500216237838839780,339,1500216237838098638,,55656,0,0,0,61184,42528,0,0,0,0,158,1681,2000,1680,0,0,0,0,4095,4095,4095,4095
1500216237858699971,340,1500216237858125474,,55676,0,0,0,61184,42528,0,0,0,0,158,1680,2000,1682,0,0,0,0,4095,4095,4095,4095
1500216237879804382,341,1500216237879115812,,55696,0,0,0,61184,42528,0,0,0,0,158,1676,2000,1682,0,0,0,0,4095,4095,4095,4095
1500216237898533511,342,1500216237898093981,,55716,0,0,0,61184,42528,0,0,0,0,158,1681,2000,1682,0,0,0,0,4095,4095,4095,4095
1500216237918908903,343,1500216237918103738,,55736,0,0,0,61184,42528,0,0,0,0,158,1681,2001,1681,0,0,0,0,4095,4095,4095,4095
1500216237938455600,344,1500216237938097884,,55756,0,0,0,61184,42528,0,0,0,0,158,1674,2001,1681,0,0,0,0,4095,4095,4095,4095
1500216237958463333,345,1500216237958051056,,55776,0,0,0,61184,42528,0,0,0,0,158,1677,2001,1680,0,0,0,0,4095,4095,4095,4095
1500216237978492731,346,1500216237978067533,,55796,0,0,0,61184,42528,0,0,0,0,158,1679,2001,1680,0,0,0,0,4095,4095,4095,4095
1500216237999693920,347,1500216237999036271,,55816,0,0,0,61184,42528,0,0,0,0,158,1679,2001,1682,0,0,0,0,4095,4095,4095,4095
1500216238018420147,348,1500216238018023862,,55836,0,0,0,61184,42528,0,0,0,0,158,1677,2000,1682,0,0,0,0,4095,4095,4095,4095
1500216238038600378,349,1500216238038076142,,55856,0,0,0,61184,42528,0,0,0,0,158,1682,1999,1681,0,0,0,0,4095,4095,4095,4095
1500216238058399875,350,1500216238058008110,,55876,0,0,0,61184,42528,0,0,0,0,158,1682,1998,1681,0,0,0,0,4095,4095,4095,4095
1500216238078491546,351,1500216238078026727,,55896,0,0,0,61184,42528,0,0,0,0,158,1680,2006,1681,0,0,0,0,4095,4095,4095,4095
1500216238098580491,352,1500216238098002391,,55916,0,0,0,61184,42528,0,0,0,0,158,1681,2006,1681,0,0,0,0,4095,4095,4095,4095
1500216238118354860,353,1500216238117954765,,55936,0,0,0,61184,42528,0,0,0,0,158,1681,2006,1680,0,0,0,0,4095,4095,4095,4095
1500216238139403867,354,1500216238139049108,,55956,0,0,0,61184,42528,0,0,0,0,158,1678,1999,1680,0,0,0,0,4095,4095,4095,4095
1500216238158753505,355,1500216238157950715,,55976,0,0,0,61184,42528,0,0,0,0,158,1678,1999,1681,0,0,0,0,4095,4095,4095,4095
1500216238178477251,356,1500216238177900509,,55996,0,0,0,61184,42528,0,0,0,0,158,1679,2001,1683,0,0,0,0,4095,4095,4095,4095
1500216238198709928,357,1500216238197900448,,56016,0,0,0,61184,42528,0,0,0,0,158,1679,2001,1683,0,0,0,0,4095,4095,4095,4095
1500216238218438957,358,1500216238217906387,,56036,0,0,0,61184,42528,0,0,0,0,158,1678,2001,1682,0,0,0,0,4095,4095,4095,4095
1500216238238645855,359,1500216238238104394,,56056,0,0,0,61184,42528,0,0,0,0,158,1679,2002,1682,0,0,0,0,4095,4095,4095,4095
1500216238258506312,360,1500216238257938210,,56076,0,0,0,61184,42528,0,0,0,0,158,1679,2002,1682,0,0,0,0,4095,4095,4095,4095
1500216238278370107,361,1500216238277828571,,56096,0,0,0,61184,42528,0,0,0,0,158,1678,2001,1682,0,0,0,0,4095,4095,4095,4095
1500216238298460851,362,1500216238297950517,,56116,0,0,0,61184,42528,0,0,0,0,158,1678,2001,1681,0,0,0,0,4095,4095,4095,4095
1500216238317912169,363,1500216238317724826,,56136,0,0,0,61184,42528,0,0,0,0,158,1676,1997,1682,0,0,0,0,4095,4095,4095,4095
1500216238337174604,364,1500216238336744436,,56156,0,0,0,61184,42528,0,0,0,0,158,1677,1999,1682,0,0,0,0,4095,4095,4095,4095
1500216238357492839,365,1500216238356892748,,56176,0,0,0,61184,42528,0,0,0,0,158,1677,1999,1681,0,0,0,0,4095,4095,4095,4095
1500216238378394251,366,1500216238377829511,,56196,0,0,0,61184,42528,0,0,0,0,158,1680,1998,1680,0,0,0,0,4095,4095,4095,4095
1500216238398539331,367,1500216238397757881,,56216,0,0,0,61184,42528,0,0,0,0,158,1680,2000,1682,0,0,0,0,4095,4095,4095,4095
1500216238418410738,368,1500216238417814265,,56236,0,0,0,61184,42528,0,0,0,0,158,1680,2000,1682,0,0,0,0,4095,4095,4095,4095
1500216238438153569,369,1500216238437772188,,56256,0,0,0,61184,42528,0,0,0,0,158,1684,2002,1681,0,0,0,0,4095,4095,4095,4095
1500216238457068322,370,1500216238456681794,,56276,0,0,0,61184,42528,0,0,0,0,158,1684,2002,1681,0,0,0,0,4095,4095,4095,4095
1500216238477163511,371,1500216238476720528,,56296,0,0,0,61184,42528,0,0,0,0,158,1684,2001,1682,0,0,0,0,4095,4095,4095,4095
1500216238497047668,372,1500216238496701569,,56316,0,0,0,61184,42528,0,0,0,0,158,1680,2001,1682,0,0,0,0,4095,4095,4095,4095
1500216238518199463,373,1500216238517711075,,56336,0,0,0,61184,42528,0,0,0,0,158,1682,1999,1684,0,0,0,0,4095,4095,4095,4095
1500216238538575587,374,1500216238537872829,,56356,0,0,0,61184,42528,0,0,0,0,158,1682,2000,1684,0,0,0,0,4095,4095,4095,4095
1500216238557042410,375,1500216238556613980,,56376,0,0,0,61184,42528,0,0,0,0,158,1678,2001,1682,0,0,0,0,4095,4095,4095,4095
1500216238577428516,376,1500216238576634583,,56396,0,0,0,61184,42528,0,0,0,0,158,1676,2001,1682,0,0,0,0,4095,4095,4095,4095
1500216238597252525,377,1500216238596746270,,56416,0,0,0,61184,42528,0,0,0,0,158,1678,2000,1682,0,0,0,0,4095,4095,4095,4095
1500216238617200243,378,1500216238616639212,,56436,0,0,0,61184,42528,0,0,0,0,158,1678,2005,1682,0,0,0,0,4095,4095,4095,4095
1500216238638217227,379,1500216238637762106,,56456,0,0,0,61184,42528,0,0,0,0,158,1678,2005,1682,0,0,0,0,4095,4095,4095,4095
1500216238657326755,380,1500216238656845178,,56476,0,0,0,61184,42528,0,0,0,0,158,1680,2000,1682,0,0,0,0,4095,4095,4095,4095
1500216238677075620,381,1500216238676688265,,56496,0,0,0,61184,42528,0,0,0,0,158,1680,2000,1681,0,0,0,0,4095,4095,4095,4095
1500216238697039506,382,1500216238696641782,,56516,0,0,0,61184,42528,0,0,0,0,158,1680,2000,1681,0,0,0,0,4095,4095,4095,4095
1500216238717001578,383,1500216238716595565,,56536,0,0,0,61184,42528,0,0,0,0,158,1677,2002,1682,0,0,0,0,4095,4095,4095,4095
1500216238737062283,384,1500216238736550495,,56556,0,0,0,61184,42528,0,0,0,0,158,1678,2002,1682,0,0,0,0,4095,4095,4095,4095
1500216238757011044,385,1500216238756622025,,56576,0,0,0,61184,42528,0,0,0,0,158,1678,1998,1682,0,0,0,0,4095,4095,4095,4095
1500216238778167866,386,1500216238777565369,,56596,0,0,0,61184,42528,0,0,0,0,158,1678,1998,1681,0,0,0,0,4095,4095,4095,4095
1500216238796938902,387,1500216238796502052,,56616,0,0,0,61184,42528,0,0,0,0,158,1678,1998,1685,0,0,0,0,4095,4095,4095,4095
1500216238817037048,388,1500216238816501000,,56636,0,0,0,61184,42528,0,0,0,0,158,1677,2001,1685,0,0,0,0,4095,4095,4095,4095
1500216238836863106,389,1500216238836498168,,56656,0,0,0,61184,42528,0,0,0,0,158,1677,2001,1681,0,0,0,0,4095,4095,4095,4095
1500216238857469762,390,1500216238857005725,,56676,0,0,0,61184,42528,0,0,0,0,158,1677,2001,1681,0,0,0,0,4095,4095,4095,4095
1500216238876975621,391,1500216238876558807,,56696,0,0,0,61184,42528,0,0,0,0,158,1678,2000,1681,0,0,0,0,4095,4095,4095,4095
1500216238897980406,392,1500216238897560866,,56716,0,0,0,61184,42528,0,0,0,0,158,1678,2000,1681,0,0,0,0,4095,4095,4095,4095
1500216238918507146,393,1500216238917603635,,56736,0,0,0,61184,42528,0,0,0,0,158,1678,2000,1684,0,0,0,0,4095,4095,4095,4095
1500216238936502527,394,1500216238936283131,,56756,0,0,0,61184,42528,0,0,0,0,158,1678,1999,1684,0,0,0,0,4095,4095,4095,4095
1500216238956999131,395,1500216238956419965,,56776,0,0,0,61184,42528,0,0,0,0,158,1671,1999,1682,0,0,0,0,4095,4095,4095,4095
1500216238976774238,396,1500216238976401492,,56796,0,0,0,61184,42528,0,0,0,0,158,1680,1999,1682,0,0,0,0,4095,4095,4095,4095
1500216238997286767,397,1500216238996459045,,56816,0,0,0,61184,42528,0,0,0,0,158,1680,1999,1684,0,0,0,0,4095,4095,4095,4095
1500216239016892064,398,1500216239016432849,,56836,0,0,0,61184,42528,18,18,0,0,158,1679,1999,1684,0,0,0,0,4095,4095,4095,4095
1500216239036698231,399,1500216239036402273,,56856,0,0,0,61184,42528,18,18,0,0,158,1658,2001,1682,0,0,0,0,4095,4095,4095,4095
1500216239056935945,400,1500216239056479476,,56876,0,0,0,61184,42528,18,18,0,0,158,1658,2001,1682,0,0,0,0,4095,4095,4095,4095
1500216239076960772,401,1500216239076354577,,56896,0,0,0,61184,42528,18,18,0,0,158,1678,2001,1680,0,0,0,0,4095,4095,4095,4095
1500216239095981855,402,1500216239095381464,,56916,0,0,0,61184,42528,18,18,0,0,158,1680,2001,1679,0,0,0,0,4095,4095,4095,4095
1500216239115860650,403,1500216239115475681,,56936,0,0,0,61184,42529,18,17,0,0,158,1680,2000,1681,0,0,0,0,4095,4095,4095,4095
1500216239135828460,404,1500216239135330044,,56956,0,0,0,61193,42537,14,14,0,0,158,1680,2000,1681,1,1,0,0,4095,4095,4095,4095
1500216239156869856,405,1500216239156346151,,56976,0,0,0,61200,42544,10,10,0,0,158,1679,1999,1681,1,1,0,0,4095,4095,4095,4095
1500216239176767514,406,1500216239176287726,,56996,0,0,0,61207,42552,7,7,0,0,158,1677,1999,1680,0,0,0,0,4095,4095,4095,4095
1500216239196878465,407,1500216239196293659,,57016,0,0,0,61214,42559,8,7,0,0,158,1667,1999,1682,0,0,0,0,4095,4095,4095,4095
1500216239215831406,408,1500216239215250063,,57036,0,0,0,61220,42564,8,8,0,0,158,1657,1999,1682,0,0,0,0,4095,4095,4095,4095
1500216239235619305,409,1500216239235249050,,57056,0,0,0,61224,42567,10,11,0,0,158,1657,1997,1679,0,0,0,0,4095,4095,4095,4095
1500216239255736887,410,1500216239255288356,,57076,0,0,0,61230,42573,10,11,0,0,158,1655,1999,1683,0,0,0,0,4095,4095,4095,4095
1500216239276881786,411,1500216239276275340,,57096,0,0,0,61236,42579,10,11,0,0,158,1675,2001,1683,0,0,0,0,4095,4095,4095,4095
1500216239295778662,412,1500216239295235117,,57116,0,0,0,61243,42585,9,10,0,0,158,1675,2001,1683,0,0,0,0,4095,4095,4095,4095
1500216239315611095,413,1500216239315202692,,57136,0,0,0,61250,42591,9,10,0,0,158,1672,1999,1680,0,0,0,0,4095,4095,4095,4095
1500216239335496174,414,1500216239335109927,,57156,0,0,0,61255,42596,9,10,0,0,158,1683,1999,1680,0,0,0,0,4095,4095,4095,4095
1500216239356066151,415,1500216239355455074,,57176,0,0,0,61261,42602,10,10,0,0,158,1683,1999,1685,0,0,0,0,4095,4095,4095,4095
1500216239376051717,416,1500216239375229107,,57196,0,0,0,61266,42608,11,10,0,0,158,1678,1999,1685,0,0,0,0,4095,4095,4095,4095
1500216239396456101,417,1500216239396096029,,57216,0,0,0,61273,42614,10,10,0,0,158,1681,2000,1684,0,0,0,0,4095,4095,4095,4095
1500216239415637945,418,1500216239415141478,,57236,0,0,0,61280,42620,9,10,0,0,158,1681,2000,1684,0,0,0,0,4095,4095,4095,4095
1500216239435602383,419,1500216239435184668,,57256,0,0,0,61286,42627,9,9,0,0,158,1680,2000,1682,0,0,0,0,4095,4095,4095,4095
1500216239455547130,420,1500216239455100293,,57276,0,0,0,61291,42633,10,9,0,0,158,1680,2000,1682,0,0,0,0,4095,4095,4095,4095
1500216239475500627,421,1500216239475101566,,57296,0,0,0,61297,42639,10,9,0,0,158,1678,1999,1681,0,0,0,0,4095,4095,4095,4095
1500216239495940237,422,1500216239495385165,,57316,0,0,0,61304,42646,10,9,0,0,158,1678,2000,1679,0,0,0,0,4095,4095,4095,4095
1500216239515251288,423,1500216239514987721,,57336,0,0,0,61311,42652,9,9,0,0,158,1678,2000,1681,0,0,0,0,4095,4095,4095,4095
1500216239536068952,424,1500216239535900307,,57356,0,0,0,61318,42659,8,9,0,0,158,1663,2000,1681,0,0,0,0,4095,4095,4095,4095
1500216239555063514,425,1500216239554906635,,57376,0,0,0,61325,42665,9,10,0,0,158,1675,2000,1681,0,0,0,0,4095,4095,4095,4095
1500216239575053343,426,1500216239574892771,,57396,0,0,0,61333,42673,8,9,0,0,158,1675,1999,1681,0,0,0,0,4095,4095,4095,4095
1500216239595523803,427,1500216239595122697,,57416,0,0,0,61340,42680,8,9,0,0,158,1675,2001,1684,0,0,0,0,4095,4095,4095,4095
1500216239615519854,428,1500216239615139380,,57436,0,0,0,61347,42688,8,8,0,0,158,1671,2002,1684,0,0,0,0,4095,4095,4095,4095
1500216239635533335,429,1500216239635009500,,57456,0,0,0,61354,42695,9,8,0,0,158,1680,2002,1682,0,0,0,0,4095,4095,4095,4095
1500216239656576700,430,1500216239655956201,,57476,0,0,0,61361,42702,9,8,0,0,158,1680,2001,1682,0,0,0,0,4095,4095,4095,4095
1500216239675949941,431,1500216239674988721,,57496,0,0,0,61369,42709,8,9,0,0,158,1679,2001,1681,0,0,0,0,4095,4095,4095,4095
1500216239695503881,432,1500216239694973335,,57516,0,0,0,61374,42715,9,9,0,0,158,1675,2000,1681,0,0,0,0,4095,4095,4095,4095
1500216239715537914,433,1500216239715061218,,57536,0,0,0,61380,42722,10,9,0,0,158,1658,2003,1678,0,0,0,0,4095,4095,4095,4095
1500216239735505975,434,1500216239735090881,,57556,0,0,0,61387,42728,10,10,0,0,158,1678,2003,1684,0,0,0,0,4095,4095,4095,4095
1500216239755428591,435,1500216239754991511,,57576,0,0,0,61394,42735,9,9,0,0,158,1678,1998,1684,0,0,0,0,4095,4095,4095,4095
1500216239775857827,436,1500216239774923659,,57596,0,0,0,61400,42741,9,10,0,0,158,1686,2000,1681,0,0,0,0,4095,4095,4095,4095
1500216239795207485,437,1500216239794875362,,57616,0,0,0,61407,42748,9,9,0,0,158,1686,2001,1682,0,0,0,0,4095,4095,4095,4095
1500216239815436573,438,1500216239814816636,,57636,0,0,0,61415,42755,9,9,0,0,158,1684,2002,1682,0,0,0,0,4095,4095,4095,4094
1500216239835737839,439,1500216239834966497,,57656,0,0,0,61422,42762,8,9,0,0,158,1684,2002,1683,0,0,0,0,4095,4095,4095,4095
1500216239856373752,440,1500216239855035942,,57676,0,0,0,61429,42770,8,8,0,0,158,1678,2002,1683,0,0,0,0,4095,4095,4095,4095
1500216239874636589,441,1500216239873922279,,57696,0,0,0,61436,42777,9,9,0,0,158,1681,2003,1682,0,0,0,0,4095,4095,4095,4095
1500216239894534503,442,1500216239893916205,,57716,0,0,0,61445,42784,8,9,0,0,158,1681,2003,1682,0,0,0,0,4095,4095,4095,4095
1500216239915257347,443,1500216239914839477,,57736,0,0,0,61452,42791,8,9,0,0,158,1677,1999,1680,0,0,0,0,4095,4095,4095,4095
1500216239935157276,444,1500216239934791902,,57756,0,0,0,61459,42800,8,8,0,0,158,1658,2001,1680,0,0,0,0,4095,4095,4095,4095
1500216239955374191,445,1500216239954840198,,57776,0,0,0,61467,42806,9,9,0,0,158,1659,2002,1678,0,0,0,0,4095,4095,4095,4095
1500216239974638271,446,1500216239973876276,,57796,0,0,0,61474,42813,9,9,0,0,158,1680,2002,1678,0,0,0,0,4095,4095,4095,4095
1500216239994238718,447,1500216239993807862,,57816,0,0,0,61480,42820,9,10,0,0,158,1680,2002,1682,0,0,0,0,4095,4095,4095,4095
1500216240014398622,448,1500216240013852029,,57836,0,0,0,61487,42827,10,9,0,0,158,1680,2001,1682,0,0,0,0,4095,4095,4095,4095
1500216240034891870,449,1500216240034581555,,57856,0,0,0,61494,42833,10,10,0,0,158,1659,2000,1679,0,0,0,0,4095,4095,4095,4095
1500216240054155830,450,1500216240053766606,,57876,0,0,0,61501,42840,9,10,0,0,158,1672,2001,1679,0,0,0,0,4095,4095,4095,4095
1500216240074235283,451,1500216240073790691,,57896,0,0,0,61507,42847,10,10,0,0,158,1684,2001,1679,0,0,0,0,4095,4095,4095,4095
1500216240094106911,452,1500216240093763017,,57916,0,0,0,61514,42854,10,9,0,0,158,1684,2002,1678,0,0,0,0,4095,4095,4095,4095
1500216240113974392,453,1500216240113638631,,57936,0,0,0,61521,42862,10,9,0,0,158,1679,2002,1675,0,0,0,0,4095,4095,4095,4095
1500216240134642277,454,1500216240133869477,,57956,0,0,0,61528,42869,9,9,0,0,158,1678,2000,1708,0,0,0,0,4095,4095,4095,4095
1500216240153749780,455,1500216240153510049,,57976,0,0,0,61536,42876,9,9,0,0,158,1680,2000,1708,0,0,0,0,4095,4095,4095,4095
1500216240175906467,456,1500216240174627488,,57996,0,0,0,61544,42883,8,9,0,0,158,1680,2000,1684,0,0,0,0,4095,4095,4095,4095
1500216240194516872,457,1500216240193711010,,58016,0,0,0,61551,42891,8,9,0,0,158,1680,2000,1681,0,0,0,0,4095,4095,4095,4095
1500216240214913257,458,1500216240213881158,,58036,0,0,0,61559,42899,8,8,0,0,158,1681,2000,1680,0,0,0,0,4095,4095,4095,4095
1500216240233970087,459,1500216240233645807,,58056,0,0,0,61566,42907,9,8,0,0,158,1681,2001,1680,0,0,0,0,4095,4095,4095,4095
1500216240253873326,460,1500216240253618771,,58076,0,0,0,61574,42914,9,9,0,0,158,1681,2001,1730,0,0,0,0,4095,4095,4095,4095
1500216240273905298,461,1500216240273546342,,58096,0,0,0,61581,42922,9,9,0,0,158,1658,2001,1730,0,0,0,0,4095,4095,4095,4095
1500216240295143635,462,1500216240294624260,,58116,0,0,0,61588,42929,9,9,0,0,158,1658,2000,1678,0,0,0,0,4095,4095,4095,4095
1500216240313962273,463,1500216240313562397,,58136,0,0,0,61594,42936,10,9,0,0,158,1656,2000,1679,0,0,0,0,4095,4095,4095,4095
1500216240334256738,464,1500216240333805706,,58156,0,0,0,61601,42943,10,10,0,0,158,1656,2001,1679,0,0,0,0,4095,4095,4095,4095
1500216240353902560,465,1500216240353512654,,58176,0,0,0,61607,42950,11,10,0,0,158,1679,2001,1677,0,0,0,0,4095,4095,4095,4095
1500216240374832508,466,1500216240373784116,,58196,0,0,0,61614,42957,10,10,0,0,158,1684,1999,1677,0,0,0,0,4095,4095,4095,4095
1500216240393659050,467,1500216240393444036,,58216,0,0,0,61622,42964,10,10,0,0,158,1684,1999,1678,0,0,0,0,4095,4095,4095,4095
1500216240414673354,468,1500216240414381562,,58236,0,0,0,61629,42972,9,9,0,0,158,1679,2000,1678,0,0,0,0,4095,4095,4095,4095
1500216240433691196,469,1500216240433394644,,58256,0,0,0,61636,42979,9,9,0,0,158,1658,2002,1681,0,0,0,0,4095,4095,4095,4095
1500216240453514131,470,1500216240453370147,,58276,0,0,0,61643,42986,10,9,0,0,158,1658,2002,1681,0,0,0,0,4095,4095,4095,4095
1500216240473526352,471,1500216240473383175,,58296,0,0,0,61651,42993,9,10,0,0,158,1678,2000,1681,0,0,0,0,4095,4095,4095,4095
1500216240494144381,472,1500216240493582202,,58316,0,0,0,61658,43001,9,9,0,0,158,1680,1999,1681,0,0,0,0,4095,4095,4095,4095
1500216240514065318,473,1500216240513569904,,58336,0,0,0,61665,43009,9,9,0,0,158,1680,1999,1681,0,0,0,0,4095,4095,4095,4095
1500216240534140140,474,1500216240533478637,,58356,0,0,0,61674,43017,9,8,0,0,158,1680,1998,1681,0,0,0,0,4095,4095,4095,4095
1500216240554010305,475,1500216240553377679,,58376,0,0,0,61682,43025,8,8,0,0,158,1680,2000,1681,0,0,0,0,4095,4095,4095,4095
1500216240573990008,476,1500216240573449840,,58396,0,0,0,61689,43033,8,8,0,0,158,1682,2000,1681,0,0,0,0,4095,4095,4095,4095
1500216240594165102,477,1500216240593597010,,58416,0,0,0,61696,43040,9,9,0,0,158,1682,2000,1684,0,0,0,0,4095,4095,4095,4095
1500216240614173857,478,1500216240613542418,,58436,0,0,0,61703,43047,10,9,0,0,158,1679,2001,1684,0,0,0,0,4095,4095,4095,4095
1500216240633870918,479,1500216240633367411,,58456,0,0,0,61710,43054,10,10,0,0,158,1682,2001,1682,0,0,0,0,4095,4095,4095,4095
